[
  {
    "train_number": "464   ",
    "unit_number": "1016.0021",
    "name": "Wörgl Hbf-T. N. (in W)",
    "abbr": "Wtn ",
    "lat": "47.4824",
    "lng": "12.033",
    "arrival": null,
    "departure": "2023-10-09T02:13:00Z"
  },
  {
    "train_number": "464   ",
    "unit_number": "1016.0021",
    "name": "Wörgl Hbf (in W)",
    "abbr": "W   ",
    "lat": "47.4912",
    "lng": "12.0603",
    "arrival": null,
    "departure": "2023-10-09T02:10:00Z"
  },
  {
    "train_number": "464   ",
    "unit_number": "1016.0021",
    "name": "Kitzbühel",
    "abbr": "Kzb ",
    "lat": "47.4542",
    "lng": "12.391",
    "arrival": null,
    "departure": "2023-10-09T01:42:00Z"
  },
  {
    "train_number": "464   ",
    "unit_number": "1016.0021",
    "name": "Schwarzach-St.Veit",
    "abbr": "Swa ",
    "lat": "47.3186",
    "lng": "13.1561",
    "arrival": "2023-10-09T00:11:00Z",
    "departure": "2023-10-09T00:32:00Z"
  },
  {
    "train_number": "464   ",
    "unit_number": "1016.0021",
    "name": "Bischofshofen (in Bo)",
    "abbr": "Bo  ",
    "lat": "47.42",
    "lng": "13.2199",
    "arrival": "2023-10-08T23:56:00Z",
    "departure": "2023-10-08T23:58:00Z"
  },
  {
    "train_number": "464   ",
    "unit_number": "1016.0021",
    "name": "Stainach-Irdning",
    "abbr": "Rg  ",
    "lat": "47.5293",
    "lng": "14.1078",
    "arrival": "2023-10-08T22:45:00Z",
    "departure": "2023-10-08T22:46:00Z"
  },
  {
    "train_number": null,
    "unit_number": "1016.0021",
    "name": "Selzthal (in Sl)",
    "abbr": "Sl  ",
    "lat": "47.5505",
    "lng": "14.3134",
    "arrival": null,
    "departure": "2023-10-08T22:28:00Z"
  },
  {
    "train_number": "48400 ",
    "unit_number": "1016.0021",
    "name": "St.Michael (in M)",
    "abbr": "M   ",
    "lat": "47.3445",
    "lng": "15.0103",
    "arrival": null,
    "departure": "2023-10-08T13:24:00Z"
  },
  {
    "train_number": "48400 ",
    "unit_number": "1016.0021",
    "name": "Zeltweg",
    "abbr": "Zg  ",
    "lat": "47.1887",
    "lng": "14.7425",
    "arrival": null,
    "departure": "2023-10-08T12:52:00Z"
  },
  {
    "train_number": "48400 ",
    "unit_number": "1016.0021",
    "name": "St.Veit a.d.Glan (in Vps)",
    "abbr": "Vps ",
    "lat": "46.7704",
    "lng": "14.3672",
    "arrival": null,
    "departure": "2023-10-08T11:08:00Z"
  },
  {
    "train_number": "48400 ",
    "unit_number": "1016.0021",
    "name": "Villach Hbf",
    "abbr": "Vb  ",
    "lat": "46.6186",
    "lng": "13.8484",
    "arrival": null,
    "departure": "2023-10-08T10:13:00Z"
  },
  {
    "train_number": "48400 ",
    "unit_number": "1016.0021",
    "name": "Villach Westbf",
    "abbr": "Vf  ",
    "lat": "46.6092",
    "lng": "13.8407",
    "arrival": "2023-10-08T10:07:00Z",
    "departure": "2023-10-08T10:12:00Z"
  },
  {
    "train_number": "48400 ",
    "unit_number": "1016.0021",
    "name": "Rosenbach",
    "abbr": "Rn  ",
    "lat": "46.5309",
    "lng": "14.0354",
    "arrival": null,
    "departure": "2023-10-08T09:44:00Z"
  },
  {
    "train_number": "89311 ",
    "unit_number": "1016.0021",
    "name": "Rosenbach",
    "abbr": "Rn  ",
    "lat": "46.5309",
    "lng": "14.0354",
    "arrival": null,
    "departure": "2023-10-08T08:49:00Z"
  },
  {
    "train_number": null,
    "unit_number": "1016.0021",
    "name": "Villach Süd Gvbf Ausfgr",
    "abbr": "Va  ",
    "lat": "46.5674",
    "lng": "13.8238",
    "arrival": null,
    "departure": "2023-10-08T08:15:00Z"
  }
]
