[
  {
    "train_number": "88361 ",
    "unit_number": "1016.0021",
    "name": "Bludenz",
    "abbr": "B   ",
    "lat": "47.155",
    "lng": "9.81448",
    "arrival": "2023-09-07T00:29:00Z",
    "departure": "2023-09-07T02:30:00Z"
  },
  {
    "train_number": "88361 ",
    "unit_number": "1016.0021",
    "name": "Feldkirch",
    "abbr": "Fk  ",
    "lat": "47.2417",
    "lng": "9.60519",
    "arrival": null,
    "departure": "2023-09-07T00:15:00Z"
  },
  {
    "train_number": "88361 ",
    "unit_number": "1016.0021",
    "name": "Dornbirn (in Do)",
    "abbr": "Do  ",
    "lat": "47.4176",
    "lng": "9.73871",
    "arrival": null,
    "departure": "2023-09-06T23:59:00Z"
  },
  {
    "train_number": "66470 ",
    "unit_number": "1016.0021",
    "name": "Wolfurt (in Wo)",
    "abbr": "Wo  ",
    "lat": "47.457",
    "lng": "9.74133",
    "arrival": "2023-09-06T23:15:00Z",
    "departure": "2023-09-06T23:55:00Z"
  },
  {
    "train_number": "66470 ",
    "unit_number": "1016.0021",
    "name": "Dornbirn (in Do)",
    "abbr": "Do  ",
    "lat": "47.4176",
    "lng": "9.73871",
    "arrival": null,
    "departure": "2023-09-06T23:10:00Z"
  },
  {
    "train_number": "66470 ",
    "unit_number": "1016.0021",
    "name": "Feldkirch",
    "abbr": "Fk  ",
    "lat": "47.2417",
    "lng": "9.60519",
    "arrival": "2023-09-06T22:41:00Z",
    "departure": "2023-09-06T22:51:00Z"
  },
  {
    "train_number": "45711 ",
    "unit_number": "1016.0021",
    "name": "Bludenz",
    "abbr": "B   ",
    "lat": "47.155",
    "lng": "9.81448",
    "arrival": "2023-09-06T19:33:00Z",
    "departure": "2023-09-06T22:25:00Z"
  },
  {
    "train_number": "45711 ",
    "unit_number": "1016.0021",
    "name": "Feldkirch",
    "abbr": "Fk  ",
    "lat": "47.2417",
    "lng": "9.60519",
    "arrival": null,
    "departure": "2023-09-06T19:17:00Z"
  },
  {
    "train_number": "45724 ",
    "unit_number": "1016.0021",
    "name": "Buchs (SG)",
    "abbr": "Bc  ",
    "lat": "47.171",
    "lng": "9.4779",
    "arrival": "2023-09-06T13:21:00Z",
    "departure": "2023-09-06T18:53:00Z"
  },
  {
    "train_number": "45724 ",
    "unit_number": "1016.0021",
    "name": "Feldkirch",
    "abbr": "Fk  ",
    "lat": "47.2417",
    "lng": "9.60519",
    "arrival": null,
    "departure": "2023-09-06T13:05:00Z"
  },
  {
    "train_number": "42834 ",
    "unit_number": "1016.0021",
    "name": "Bludenz",
    "abbr": "B   ",
    "lat": "47.155",
    "lng": "9.81448",
    "arrival": "2023-09-06T05:14:00Z",
    "departure": "2023-09-06T12:46:00Z"
  },
  {
    "train_number": "465   ",
    "unit_number": "1016.0021",
    "name": "Landeck-Zams",
    "abbr": "Le  ",
    "lat": "47.148",
    "lng": "10.5782",
    "arrival": "2023-09-05T22:07:00Z",
    "departure": "2023-09-06T04:14:00Z"
  }
]
