[
  {
    "train_number": "48435 ",
    "unit_number": "1016.0021",
    "name": "Leoben Hbf (in Leb)",
    "abbr": "Leb ",
    "lat": "47.3867",
    "lng": "15.0898",
    "arrival": null,
    "departure": "2023-10-11T17:58:00Z"
  },
  {
    "train_number": "48435 ",
    "unit_number": "1016.0021",
    "name": "Bruck a.d.Mur (in Bm)",
    "abbr": "Bm  ",
    "lat": "47.4134",
    "lng": "15.2797",
    "arrival": null,
    "departure": "2023-10-11T17:45:00Z"
  },
  {
    "train_number": "48435 ",
    "unit_number": "1016.0021",
    "name": "Mürzzuschlag (in Mz)",
    "abbr": "Mz  ",
    "lat": "47.6079",
    "lng": "15.677",
    "arrival": null,
    "departure": "2023-10-11T16:50:00Z"
  },
  {
    "train_number": "48435 ",
    "unit_number": "1016.0021",
    "name": "Payerbach-Reichenau",
    "abbr": "Pr  ",
    "lat": "47.696",
    "lng": "15.8632",
    "arrival": null,
    "departure": "2023-10-11T16:04:00Z"
  },
  {
    "train_number": "48435 ",
    "unit_number": "1016.0021",
    "name": "Neunkirchen N.Ö.",
    "abbr": "Nek ",
    "lat": "47.731",
    "lng": "16.0826",
    "arrival": null,
    "departure": "2023-10-11T15:30:00Z"
  },
  {
    "train_number": "48435 ",
    "unit_number": "1016.0021",
    "name": "Wr. Neustadt Hbf (in Nb)",
    "abbr": "Nb  ",
    "lat": "47.8113",
    "lng": "16.2337",
    "arrival": null,
    "departure": "2023-10-11T15:18:00Z"
  },
  {
    "train_number": "48435 ",
    "unit_number": "1016.0021",
    "name": "Ebenfurth (in Ef)",
    "abbr": "Ef  ",
    "lat": "47.8777",
    "lng": "16.3621",
    "arrival": null,
    "departure": "2023-10-11T15:04:00Z"
  },
  {
    "train_number": "48435 ",
    "unit_number": "1016.0021",
    "name": "Wien Zvbf (in Zur)",
    "abbr": "Zur ",
    "lat": "48.1453",
    "lng": "16.43",
    "arrival": "2023-10-11T14:24:00Z",
    "departure": "2023-10-11T14:27:00Z"
  },
  {
    "train_number": "54085 ",
    "unit_number": "1016.0021",
    "name": "Wien Zvbf-Einfgr. (in Zur)",
    "abbr": "Ze  ",
    "lat": "48.1568",
    "lng": "16.4193",
    "arrival": "2023-10-11T10:54:00Z",
    "departure": "2023-10-11T13:14:00Z"
  },
  {
    "train_number": "54085 ",
    "unit_number": "1016.0021",
    "name": "Tulln a. d. Donau (in Tu)",
    "abbr": "Tu  ",
    "lat": "48.3275",
    "lng": "16.0644",
    "arrival": "2023-10-11T09:43:00Z",
    "departure": "2023-10-11T10:01:00Z"
  },
  {
    "train_number": "54085 ",
    "unit_number": "1016.0021",
    "name": "Pöchlarn",
    "abbr": "Poe ",
    "lat": "48.208",
    "lng": "15.2148",
    "arrival": null,
    "departure": "2023-10-11T08:05:00Z"
  },
  {
    "train_number": "54085 ",
    "unit_number": "1016.0021",
    "name": "Ybbs a.d.Donau",
    "abbr": "Y   ",
    "lat": "48.158",
    "lng": "15.0981",
    "arrival": null,
    "departure": "2023-10-11T07:54:00Z"
  },
  {
    "train_number": "54085 ",
    "unit_number": "1016.0021",
    "name": "Amstetten (in Ams)",
    "abbr": "Ams ",
    "lat": "48.1215",
    "lng": "14.8792",
    "arrival": null,
    "departure": "2023-10-11T07:39:00Z"
  },
  {
    "train_number": "54085 ",
    "unit_number": "1016.0021",
    "name": "St.Valentin (in Sv)",
    "abbr": "Sv  ",
    "lat": "48.1784",
    "lng": "14.5219",
    "arrival": null,
    "departure": "2023-10-11T07:08:00Z"
  },
  {
    "train_number": "54085 ",
    "unit_number": "1016.0021",
    "name": "Enns",
    "abbr": "Ens ",
    "lat": "48.2212",
    "lng": "14.4668",
    "arrival": null,
    "departure": "2023-10-11T07:02:00Z"
  },
  {
    "train_number": "54085 ",
    "unit_number": "1016.0021",
    "name": "Linz Hbf",
    "abbr": "Lz  ",
    "lat": "48.2908",
    "lng": "14.2927",
    "arrival": null,
    "departure": "2023-10-11T06:18:00Z"
  },
  {
    "train_number": "44939 ",
    "unit_number": "1016.0021",
    "name": "Wels Vbf (in Wev)",
    "abbr": "Wev ",
    "lat": "48.1834",
    "lng": "14.0628",
    "arrival": "2023-10-11T03:49:00Z",
    "departure": "2023-10-11T05:59:00Z"
  },
  {
    "train_number": "44939 ",
    "unit_number": "1016.0021",
    "name": "Wels Vbf-Einfgr (in Wev)",
    "abbr": "Wei ",
    "lat": "48.1765",
    "lng": "14.0501",
    "arrival": "2023-10-11T03:41:00Z",
    "departure": "2023-10-11T03:46:00Z"
  },
  {
    "train_number": "44939 ",
    "unit_number": "1016.0021",
    "name": "Wels Hbf",
    "abbr": "We  ",
    "lat": "48.1662",
    "lng": "14.0273",
    "arrival": null,
    "departure": "2023-10-11T03:38:00Z"
  },
  {
    "train_number": "44939 ",
    "unit_number": "1016.0021",
    "name": "Attnang-Puchheim",
    "abbr": "At  ",
    "lat": "48.0112",
    "lng": "13.7193",
    "arrival": null,
    "departure": "2023-10-11T03:04:00Z"
  }
]
