[
  {
    "train_number": "47478 ",
    "unit_number": "1016.0021",
    "name": "Klagenfurt Hbf (in Kt)",
    "abbr": "Kt  ",
    "lat": "46.6156",
    "lng": "14.3137",
    "arrival": null,
    "departure": "2023-08-21T02:12:00Z"
  },
  {
    "train_number": "47478 ",
    "unit_number": "1016.0021",
    "name": "Villach Hbf-Ostbf (in Vb)",
    "abbr": "Vbo ",
    "lat": "46.6186",
    "lng": "13.8484",
    "arrival": "2023-08-21T01:40:00Z",
    "departure": "2023-08-21T01:43:00Z"
  },
  {
    "train_number": "47478 ",
    "unit_number": "1016.0021",
    "name": "Villach Hbf",
    "abbr": "Vb  ",
    "lat": "46.6186",
    "lng": "13.8484",
    "arrival": null,
    "departure": "2023-08-21T01:39:00Z"
  },
  {
    "train_number": "47478 ",
    "unit_number": "1016.0021",
    "name": "Rosenbach",
    "abbr": "Rn  ",
    "lat": "46.5309",
    "lng": "14.0354",
    "arrival": null,
    "departure": "2023-08-21T01:12:00Z"
  },
  {
    "train_number": "47471 ",
    "unit_number": "1016.0021",
    "name": "Rosenbach",
    "abbr": "Rn  ",
    "lat": "46.5309",
    "lng": "14.0354",
    "arrival": "2023-08-21T00:06:00Z",
    "departure": "2023-08-21T00:16:00Z"
  },
  {
    "train_number": "47471 ",
    "unit_number": "1016.0021",
    "name": "Villach Hbf",
    "abbr": "Vb  ",
    "lat": "46.6186",
    "lng": "13.8484",
    "arrival": null,
    "departure": "2023-08-20T23:40:00Z"
  },
  {
    "train_number": "47471 ",
    "unit_number": "1016.0021",
    "name": "Villach Hbf-Ostbf (in Vb)",
    "abbr": "Vbo ",
    "lat": "46.6186",
    "lng": "13.8484",
    "arrival": "2023-08-20T23:24:00Z",
    "departure": "2023-08-20T23:38:00Z"
  },
  {
    "train_number": "47471 ",
    "unit_number": "1016.0021",
    "name": "Klagenfurt Hbf (in Kt)",
    "abbr": "Kt  ",
    "lat": "46.6156",
    "lng": "14.3137",
    "arrival": null,
    "departure": "2023-08-20T22:53:00Z"
  },
  {
    "train_number": "47471 ",
    "unit_number": "1016.0021",
    "name": "St.Veit a.d.Glan (in Vps)",
    "abbr": "Vps ",
    "lat": "46.7704",
    "lng": "14.3672",
    "arrival": null,
    "departure": "2023-08-20T22:36:00Z"
  },
  {
    "train_number": "47471 ",
    "unit_number": "1016.0021",
    "name": "Zeltweg",
    "abbr": "Zg  ",
    "lat": "47.1887",
    "lng": "14.7425",
    "arrival": null,
    "departure": "2023-08-20T21:17:00Z"
  },
  {
    "train_number": "47471 ",
    "unit_number": "1016.0021",
    "name": "Leoben Hbf (in Leb)",
    "abbr": "Leb ",
    "lat": "47.3867",
    "lng": "15.0898",
    "arrival": "2023-08-20T20:05:00Z",
    "departure": "2023-08-20T20:41:00Z"
  },
  {
    "train_number": "88952 ",
    "unit_number": "1016.0021",
    "name": "Leoben Hbf (in Leb)",
    "abbr": "Leb ",
    "lat": "47.3867",
    "lng": "15.0898",
    "arrival": "2023-08-20T11:06:00Z",
    "departure": "2023-08-20T19:00:00Z"
  },
  {
    "train_number": "58662 ",
    "unit_number": "1016.0021",
    "name": "Leoben Hbf (in Leb)",
    "abbr": "Leb ",
    "lat": "47.3867",
    "lng": "15.0898",
    "arrival": "2023-08-20T10:06:00Z",
    "departure": "2023-08-20T10:31:00Z"
  },
  {
    "train_number": "58662 ",
    "unit_number": "1016.0021",
    "name": "St.Michael (in M)",
    "abbr": "M   ",
    "lat": "47.3445",
    "lng": "15.0103",
    "arrival": null,
    "departure": "2023-08-20T09:55:00Z"
  },
  {
    "train_number": "58662 ",
    "unit_number": "1016.0021",
    "name": "Selzthal (in Sl)",
    "abbr": "Sl  ",
    "lat": "47.5505",
    "lng": "14.3134",
    "arrival": "2023-08-20T09:01:00Z",
    "departure": "2023-08-20T09:04:00Z"
  },
  {
    "train_number": null,
    "unit_number": "1016.0021",
    "name": "Selzthal (in Sl)",
    "abbr": "Sl  ",
    "lat": "47.5505",
    "lng": "14.3134",
    "arrival": null,
    "departure": "2023-08-20T03:40:00Z"
  }
]
