[
  {
    "train_number": "47237 ",
    "unit_number": "1016.0021",
    "name": "Neunkirchen N.Ö.",
    "abbr": "Nek ",
    "lat": "47.731",
    "lng": "16.0826",
    "arrival": "2023-10-06T15:54:00Z",
    "departure": "2023-10-06T16:04:00Z"
  },
  {
    "train_number": "47237 ",
    "unit_number": "1016.0021",
    "name": "Wr. Neustadt Hbf (in Nb)",
    "abbr": "Nb  ",
    "lat": "47.8113",
    "lng": "16.2337",
    "arrival": null,
    "departure": "2023-10-06T15:40:00Z"
  },
  {
    "train_number": "47237 ",
    "unit_number": "1016.0021",
    "name": "Ebenfurth (in Ef)",
    "abbr": "Ef  ",
    "lat": "47.8777",
    "lng": "16.3621",
    "arrival": null,
    "departure": "2023-10-06T15:15:00Z"
  },
  {
    "train_number": null,
    "unit_number": "1016.0021",
    "name": "Kledering (in Zur)",
    "abbr": "Za  ",
    "lat": "48.1331",
    "lng": "16.4396",
    "arrival": null,
    "departure": "2023-10-06T12:09:00Z"
  },
  {
    "train_number": "55033 ",
    "unit_number": "1016.0021",
    "name": "Wien Zvbf (in Zur)",
    "abbr": "Zur ",
    "lat": "48.1453",
    "lng": "16.43",
    "arrival": null,
    "departure": "2023-10-06T11:27:00Z"
  },
  {
    "train_number": "55033 ",
    "unit_number": "1016.0021",
    "name": "Pöchlarn",
    "abbr": "Poe ",
    "lat": "48.208",
    "lng": "15.2148",
    "arrival": null,
    "departure": "2023-10-06T09:37:00Z"
  },
  {
    "train_number": "55033 ",
    "unit_number": "1016.0021",
    "name": "Ybbs a.d.Donau",
    "abbr": "Y   ",
    "lat": "48.158",
    "lng": "15.0981",
    "arrival": null,
    "departure": "2023-10-06T09:26:00Z"
  },
  {
    "train_number": "55033 ",
    "unit_number": "1016.0021",
    "name": "Amstetten (in Ams)",
    "abbr": "Ams ",
    "lat": "48.1215",
    "lng": "14.8792",
    "arrival": null,
    "departure": "2023-10-06T09:15:00Z"
  },
  {
    "train_number": "55033 ",
    "unit_number": "1016.0021",
    "name": "St.Valentin (in Sv)",
    "abbr": "Sv  ",
    "lat": "48.1784",
    "lng": "14.5219",
    "arrival": null,
    "departure": "2023-10-06T08:46:00Z"
  },
  {
    "train_number": "55033 ",
    "unit_number": "1016.0021",
    "name": "Enns",
    "abbr": "Ens ",
    "lat": "48.2212",
    "lng": "14.4668",
    "arrival": null,
    "departure": "2023-10-06T08:40:00Z"
  },
  {
    "train_number": "55033 ",
    "unit_number": "1016.0021",
    "name": "Linz Vbf-West (in Lzv)",
    "abbr": "Lr  ",
    "lat": "48.276",
    "lng": "14.3154",
    "arrival": "2023-10-06T08:25:00Z",
    "departure": "2023-10-06T08:28:00Z"
  },
  {
    "train_number": "55033 ",
    "unit_number": "1016.0021",
    "name": "Linz Hbf",
    "abbr": "Lz  ",
    "lat": "48.2908",
    "lng": "14.2927",
    "arrival": null,
    "departure": "2023-10-06T08:18:00Z"
  },
  {
    "train_number": "55033 ",
    "unit_number": "1016.0021",
    "name": "Wels Vbf-Einfgr (in Wev)",
    "abbr": "Wei ",
    "lat": "48.1765",
    "lng": "14.0501",
    "arrival": null,
    "departure": "2023-10-06T07:47:00Z"
  },
  {
    "train_number": "55033 ",
    "unit_number": "1016.0021",
    "name": "Wels Hbf",
    "abbr": "We  ",
    "lat": "48.1662",
    "lng": "14.0273",
    "arrival": null,
    "departure": "2023-10-06T07:43:00Z"
  },
  {
    "train_number": "55033 ",
    "unit_number": "1016.0021",
    "name": "Attnang-Puchheim",
    "abbr": "At  ",
    "lat": "48.0112",
    "lng": "13.7193",
    "arrival": null,
    "departure": "2023-10-06T07:22:00Z"
  },
  {
    "train_number": "55033 ",
    "unit_number": "1016.0021",
    "name": "Steindorf b.Straßw. (in Nst)",
    "abbr": "Nst ",
    "lat": "47.9676",
    "lng": "13.2406",
    "arrival": null,
    "departure": "2023-10-06T06:49:00Z"
  },
  {
    "train_number": null,
    "unit_number": "1016.0021",
    "name": "Salzburg Gnigl-Vbf (in Sb)",
    "abbr": "Sr  ",
    "lat": "47.8167",
    "lng": "13.0639",
    "arrival": null,
    "departure": "2023-10-06T06:26:00Z"
  },
  {
    "train_number": "1549  ",
    "unit_number": "1016.0021",
    "name": "Salzburg Gnigl-Einfgr. (in Sb)",
    "abbr": "Sre ",
    "lat": "47.8075",
    "lng": "13.0687",
    "arrival": null,
    "departure": "2023-10-06T03:39:00Z"
  },
  {
    "train_number": "1549  ",
    "unit_number": "1016.0021",
    "name": "Bischofshofen (in Bo)",
    "abbr": "Bo  ",
    "lat": "47.42",
    "lng": "13.2199",
    "arrival": "2023-10-06T02:56:00Z",
    "departure": "2023-10-06T02:58:00Z"
  },
  {
    "train_number": "Vhz   ",
    "unit_number": "1016.0021",
    "name": "Schwarzach-St.Veit",
    "abbr": "Swa ",
    "lat": "47.3186",
    "lng": "13.1561",
    "arrival": "2023-10-06T02:42:00Z",
    "departure": "2023-10-06T02:42:00Z"
  }
]
