[
  {
    "train_number": "62000 ",
    "unit_number": "1016.0021",
    "name": "St.Pölten-Fbf (in Pb)",
    "abbr": "Pw  ",
    "lat": "48.2101",
    "lng": "15.6161",
    "arrival": "2023-10-04T20:45:00Z",
    "departure": "2023-10-05T19:37:00Z"
  },
  {
    "train_number": "62000 ",
    "unit_number": "1016.0021",
    "name": "St.Pölten Hbf (in Pb)",
    "abbr": "Pb  ",
    "lat": "48.2081",
    "lng": "15.6237",
    "arrival": null,
    "departure": "2023-10-04T20:41:00Z"
  },
  {
    "train_number": null,
    "unit_number": "1016.0021",
    "name": "Wien Zvbf (in Zur)",
    "abbr": "Zur ",
    "lat": "48.1453",
    "lng": "16.43",
    "arrival": null,
    "departure": "2023-10-04T19:19:00Z"
  },
  {
    "train_number": "63023 ",
    "unit_number": "1016.0021",
    "name": "Wien Meidling (in Wbf)",
    "abbr": "Mi  ",
    "lat": "48.1747",
    "lng": "16.3348",
    "arrival": null,
    "departure": "2023-10-04T14:07:00Z"
  },
  {
    "train_number": "Mos1  ",
    "unit_number": "1016.0021",
    "name": "Tulln a. d. Donau (in Tu)",
    "abbr": "Tu  ",
    "lat": "48.3275",
    "lng": "16.0644",
    "arrival": "2023-10-04T12:08:00Z",
    "departure": "2023-10-04T12:08:00Z"
  },
  {
    "train_number": null,
    "unit_number": "1016.0021",
    "name": "Wien Zvbf (in Zur)",
    "abbr": "Zur ",
    "lat": "48.1453",
    "lng": "16.43",
    "arrival": null,
    "departure": "2023-10-04T06:06:00Z"
  }
]
