[
  {
    "train_number": "91116 ",
    "unit_number": "1016.0021",
    "name": "Innsbruck Hbf  (in I)",
    "abbr": "I   ",
    "lat": "47.2634",
    "lng": "11.4017",
    "arrival": "2023-09-02T00:15:00Z",
    "departure": "2023-09-02T00:21:00Z"
  },
  {
    "train_number": "91116 ",
    "unit_number": "1016.0021",
    "name": "Hall in Tirol",
    "abbr": "H   ",
    "lat": "47.2769",
    "lng": "11.5013",
    "arrival": null,
    "departure": "2023-09-02T00:07:00Z"
  },
  {
    "train_number": "91116 ",
    "unit_number": "1016.0021",
    "name": "Wörgl Hbf-T. N. (in W)",
    "abbr": "Wtn ",
    "lat": "47.4824",
    "lng": "12.033",
    "arrival": null,
    "departure": "2023-09-01T23:27:00Z"
  },
  {
    "train_number": "91116 ",
    "unit_number": "1016.0021",
    "name": "Wörgl Hbf (in W)",
    "abbr": "W   ",
    "lat": "47.4912",
    "lng": "12.0603",
    "arrival": "2023-09-01T23:15:00Z",
    "departure": "2023-09-01T23:25:00Z"
  },
  {
    "train_number": "91116 ",
    "unit_number": "1016.0021",
    "name": "Kitzbühel",
    "abbr": "Kzb ",
    "lat": "47.4542",
    "lng": "12.391",
    "arrival": null,
    "departure": "2023-09-01T22:44:00Z"
  },
  {
    "train_number": "18359 ",
    "unit_number": "1016.0021",
    "name": "Kitzbühel",
    "abbr": "Kzb ",
    "lat": "47.4542",
    "lng": "12.391",
    "arrival": null,
    "departure": "2023-09-01T19:14:00Z"
  },
  {
    "train_number": "18359 ",
    "unit_number": "1016.0021",
    "name": "Wörgl Hbf (in W)",
    "abbr": "W   ",
    "lat": "47.4912",
    "lng": "12.0603",
    "arrival": null,
    "departure": "2023-09-01T18:46:00Z"
  },
  {
    "train_number": "18359 ",
    "unit_number": "1016.0021",
    "name": "Wörgl Hbf-T. N. (in W)",
    "abbr": "Wtn ",
    "lat": "47.4824",
    "lng": "12.033",
    "arrival": null,
    "departure": "2023-09-01T18:44:00Z"
  },
  {
    "train_number": "18359 ",
    "unit_number": "1016.0021",
    "name": "Jenbach",
    "abbr": "Jb  ",
    "lat": "47.3884",
    "lng": "11.7783",
    "arrival": null,
    "departure": "2023-09-01T18:27:00Z"
  },
  {
    "train_number": "18359 ",
    "unit_number": "1016.0021",
    "name": "Schwaz",
    "abbr": "Sw  ",
    "lat": "47.3497",
    "lng": "11.7016",
    "arrival": null,
    "departure": "2023-09-01T18:21:00Z"
  },
  {
    "train_number": "18359 ",
    "unit_number": "1016.0021",
    "name": "Hall in Tirol",
    "abbr": "H   ",
    "lat": "47.2769",
    "lng": "11.5013",
    "arrival": null,
    "departure": "2023-09-01T18:06:00Z"
  },
  {
    "train_number": "95343 ",
    "unit_number": "1016.0021",
    "name": "Innsbruck Hbf  (in I)",
    "abbr": "I   ",
    "lat": "47.2634",
    "lng": "11.4017",
    "arrival": "2023-09-01T02:34:00Z",
    "departure": "2023-09-01T18:00:00Z"
  },
  {
    "train_number": "95343 ",
    "unit_number": "1016.0021",
    "name": "Hall in Tirol",
    "abbr": "H   ",
    "lat": "47.2769",
    "lng": "11.5013",
    "arrival": null,
    "departure": "2023-09-01T02:29:00Z"
  }
]
