[
  {
    "train_number": "45854 ",
    "unit_number": "1016.0021",
    "name": "Wörgl Hbf (in W)",
    "abbr": "W   ",
    "lat": "47.4912",
    "lng": "12.0603",
    "arrival": "2023-09-22T00:07:00Z",
    "departure": "2023-09-22T00:19:00Z"
  },
  {
    "train_number": "45854 ",
    "unit_number": "1016.0021",
    "name": "Kufstein",
    "abbr": "K   ",
    "lat": "47.5833",
    "lng": "12.1657",
    "arrival": "2023-09-21T23:53:00Z",
    "departure": "2023-09-21T23:55:00Z"
  },
  {
    "train_number": "45854 ",
    "unit_number": "1016.0021",
    "name": "Traunstein",
    "abbr": "MTS ",
    "lat": "47.8697",
    "lng": "12.6391",
    "arrival": null,
    "departure": "2023-09-21T22:52:00Z"
  },
  {
    "train_number": "45854 ",
    "unit_number": "1016.0021",
    "name": "Freilassing",
    "abbr": "MFL ",
    "lat": "47.8368",
    "lng": "12.9764",
    "arrival": null,
    "departure": "2023-09-21T22:33:00Z"
  },
  {
    "train_number": "45854 ",
    "unit_number": "1016.0021",
    "name": "Salzburg Liefering (in Sb)",
    "abbr": "Lfg ",
    "lat": "47.8229",
    "lng": "13.0021",
    "arrival": null,
    "departure": "2023-09-21T22:30:00Z"
  },
  {
    "train_number": "45854 ",
    "unit_number": "1016.0021",
    "name": "Salzburg Hbf (in Sb)",
    "abbr": "Sb  ",
    "lat": "47.8135",
    "lng": "13.0466",
    "arrival": "2023-09-21T21:59:00Z",
    "departure": "2023-09-21T22:24:00Z"
  },
  {
    "train_number": "45854 ",
    "unit_number": "1016.0021",
    "name": "Steindorf b.Straßw. (in Nst)",
    "abbr": "Nst ",
    "lat": "47.9676",
    "lng": "13.2406",
    "arrival": null,
    "departure": "2023-09-21T21:39:00Z"
  },
  {
    "train_number": "45854 ",
    "unit_number": "1016.0021",
    "name": "Attnang-Puchheim",
    "abbr": "At  ",
    "lat": "48.0112",
    "lng": "13.7193",
    "arrival": null,
    "departure": "2023-09-21T20:56:00Z"
  },
  {
    "train_number": "45854 ",
    "unit_number": "1016.0021",
    "name": "Wels Hbf",
    "abbr": "We  ",
    "lat": "48.1662",
    "lng": "14.0273",
    "arrival": "2023-09-21T20:26:00Z",
    "departure": "2023-09-21T20:32:00Z"
  },
  {
    "train_number": "45854 ",
    "unit_number": "1016.0021",
    "name": "Linz Hbf",
    "abbr": "Lz  ",
    "lat": "48.2908",
    "lng": "14.2927",
    "arrival": null,
    "departure": "2023-09-21T20:04:00Z"
  },
  {
    "train_number": null,
    "unit_number": "1016.0021",
    "name": "Linz Vbf-Ost Reih. (in Lzv)",
    "abbr": "Lo  ",
    "lat": "48.2607",
    "lng": "14.2927",
    "arrival": null,
    "departure": "2023-09-21T19:56:00Z"
  },
  {
    "train_number": "48918 ",
    "unit_number": "1016.0021",
    "name": "Enns",
    "abbr": "Ens ",
    "lat": "48.2212",
    "lng": "14.4668",
    "arrival": null,
    "departure": "2023-09-21T18:23:00Z"
  },
  {
    "train_number": "48918 ",
    "unit_number": "1016.0021",
    "name": "St.Valentin (in Sv)",
    "abbr": "Sv  ",
    "lat": "48.1784",
    "lng": "14.5219",
    "arrival": "2023-09-21T18:10:00Z",
    "departure": "2023-09-21T18:17:00Z"
  },
  {
    "train_number": "48918 ",
    "unit_number": "1016.0021",
    "name": "Selzthal (in Sl)",
    "abbr": "Sl  ",
    "lat": "47.5505",
    "lng": "14.3134",
    "arrival": "2023-09-21T13:49:00Z",
    "departure": "2023-09-21T13:55:00Z"
  },
  {
    "train_number": "48918 ",
    "unit_number": "1016.0021",
    "name": "St.Michael (in M)",
    "abbr": "M   ",
    "lat": "47.3445",
    "lng": "15.0103",
    "arrival": "2023-09-21T13:05:00Z",
    "departure": "2023-09-21T13:05:00Z"
  },
  {
    "train_number": "48918 ",
    "unit_number": "1016.0021",
    "name": "Leoben Hbf (in Leb)",
    "abbr": "Leb ",
    "lat": "47.3867",
    "lng": "15.0898",
    "arrival": null,
    "departure": "2023-09-21T12:56:00Z"
  },
  {
    "train_number": "48918 ",
    "unit_number": "1016.0021",
    "name": "Bruck a.d.Mur (in Bm)",
    "abbr": "Bm  ",
    "lat": "47.4134",
    "lng": "15.2797",
    "arrival": null,
    "departure": "2023-09-21T12:41:00Z"
  },
  {
    "train_number": "54672 ",
    "unit_number": "1016.0021",
    "name": "Bruck a.d.Mur-Fbf (in Bm)",
    "abbr": "Bk  ",
    "lat": "47.4134",
    "lng": "15.2797",
    "arrival": "2023-09-21T07:41:00Z",
    "departure": "2023-09-21T11:33:00Z"
  },
  {
    "train_number": "54672 ",
    "unit_number": "1016.0021",
    "name": "Bruck a.d.Mur (in Bm)",
    "abbr": "Bm  ",
    "lat": "47.4134",
    "lng": "15.2797",
    "arrival": null,
    "departure": "2023-09-21T07:38:00Z"
  },
  {
    "train_number": "44997 ",
    "unit_number": "1016.0021",
    "name": "Graz Vbf (in G)",
    "abbr": "Gi  ",
    "lat": "47.0885",
    "lng": "15.4077",
    "arrival": "2023-09-21T00:32:00Z",
    "departure": "2023-09-21T06:55:00Z"
  }
]
