[
  {
    "train_number": "48442 ",
    "unit_number": "1016.0021",
    "name": "Salzburg Gnigl-Vbf (in Sb)",
    "abbr": "----",
    "lat": "47.8075",
    "lng": "13.0021",
    "arrival": "2023-08-23T01:54:00Z",
    "departure": "2023-08-23T02:04:00Z"
  },
  {
    "train_number": "48442 ",
    "unit_number": "1016.0021",
    "name": "Salzburg Gnigl-Einfgr. (in Sb)",
    "abbr": "Sre ",
    "lat": "47.8075",
    "lng": "13.0687",
    "arrival": null,
    "departure": "2023-08-23T01:51:00Z"
  },
  {
    "train_number": "48442 ",
    "unit_number": "1016.0021",
    "name": "Bischofshofen (in Bo)",
    "abbr": "Bo  ",
    "lat": "47.42",
    "lng": "13.2199",
    "arrival": null,
    "departure": "2023-08-23T01:14:00Z"
  },
  {
    "train_number": "48442 ",
    "unit_number": "1016.0021",
    "name": "Schwarzach-St.Veit",
    "abbr": "Swa ",
    "lat": "47.3186",
    "lng": "13.1561",
    "arrival": "2023-08-23T00:45:00Z",
    "departure": "2023-08-23T01:00:00Z"
  },
  {
    "train_number": "48442 ",
    "unit_number": "1016.0021",
    "name": "Villach Westbf",
    "abbr": "Vf  ",
    "lat": "46.6186",
    "lng": "13.8484",
    "arrival": "2023-08-22T22:38:00Z",
    "departure": "2023-08-22T22:46:00Z"
  },
  {
    "train_number": "48442 ",
    "unit_number": "1016.0021",
    "name": "Rosenbach",
    "abbr": "Rn  ",
    "lat": "46.5309",
    "lng": "14.0354",
    "arrival": "2023-08-22T22:10:00Z",
    "departure": "2023-08-22T22:15:00Z"
  },
  {
    "train_number": "45449 ",
    "unit_number": "1016.0021",
    "name": "Rosenbach",
    "abbr": "Rn  ",
    "lat": "46.5309",
    "lng": "14.0354",
    "arrival": null,
    "departure": "2023-08-22T21:02:00Z"
  },
  {
    "train_number": null,
    "unit_number": "1016.0021",
    "name": "Villach Süd Gvbf Ausfgr",
    "abbr": "Va  ",
    "lat": "46.5674",
    "lng": "13.8238",
    "arrival": null,
    "departure": "2023-08-22T20:40:00Z"
  },
  {
    "train_number": "41820 ",
    "unit_number": "1016.0021",
    "name": "Schwarzach-St.Veit",
    "abbr": "Swa ",
    "lat": "47.3186",
    "lng": "13.1561",
    "arrival": "2023-08-22T05:50:00Z",
    "departure": "2023-08-22T12:26:00Z"
  },
  {
    "train_number": null,
    "unit_number": "1016.0021",
    "name": "Villach Süd Gvbf Ausfgr",
    "abbr": "Va  ",
    "lat": "46.5674",
    "lng": "13.8238",
    "arrival": null,
    "departure": "2023-08-22T03:36:00Z"
  }
]
