[
  {
    "train_number": "55440 ",
    "unit_number": "1016.0021",
    "name": "Wolfurt (in Wo)",
    "abbr": "Wo  ",
    "lat": "47.457",
    "lng": "9.74133",
    "arrival": "2023-08-28T01:45:00Z",
    "departure": "2023-08-28T06:37:00Z"
  },
  {
    "train_number": "55440 ",
    "unit_number": "1016.0021",
    "name": "Dornbirn (in Do)",
    "abbr": "Do  ",
    "lat": "47.4176",
    "lng": "9.73871",
    "arrival": null,
    "departure": "2023-08-28T01:40:00Z"
  },
  {
    "train_number": "55440 ",
    "unit_number": "1016.0021",
    "name": "Feldkirch",
    "abbr": "Fk  ",
    "lat": "47.2417",
    "lng": "9.60519",
    "arrival": "2023-08-28T01:07:00Z",
    "departure": "2023-08-28T01:22:00Z"
  },
  {
    "train_number": "55440 ",
    "unit_number": "1016.0021",
    "name": "Bludenz",
    "abbr": "B   ",
    "lat": "47.155",
    "lng": "9.81448",
    "arrival": "2023-08-28T00:42:00Z",
    "departure": "2023-08-28T00:52:00Z"
  },
  {
    "train_number": "55440 ",
    "unit_number": "1016.0021",
    "name": "Landeck-Zams",
    "abbr": "Le  ",
    "lat": "47.148",
    "lng": "10.5782",
    "arrival": "2023-08-27T23:37:00Z",
    "departure": "2023-08-27T23:45:00Z"
  },
  {
    "train_number": "55440 ",
    "unit_number": "1016.0021",
    "name": "Imst-Pitztal",
    "abbr": "Im  ",
    "lat": "47.219",
    "lng": "10.7619",
    "arrival": null,
    "departure": "2023-08-27T23:22:00Z"
  },
  {
    "train_number": "55440 ",
    "unit_number": "1016.0021",
    "name": "Innsbruck Hbf  (in I)",
    "abbr": "I   ",
    "lat": "47.2634",
    "lng": "11.4017",
    "arrival": "2023-08-27T22:33:00Z",
    "departure": "2023-08-27T22:40:00Z"
  },
  {
    "train_number": null,
    "unit_number": "1016.0021",
    "name": "Hall in Tirol",
    "abbr": "H   ",
    "lat": "47.2769",
    "lng": "11.5013",
    "arrival": null,
    "departure": "2023-08-27T22:22:00Z"
  },
  {
    "train_number": "953xx ",
    "unit_number": "1016.0021",
    "name": "Innsbruck Hbf  (in I)",
    "abbr": "I   ",
    "lat": "47.2634",
    "lng": "11.4017",
    "arrival": "2023-08-27T11:13:00Z",
    "departure": "2023-08-27T21:44:00Z"
  },
  {
    "train_number": "88387 ",
    "unit_number": "1016.0021",
    "name": "Bludenz",
    "abbr": "B   ",
    "lat": "47.155",
    "lng": "9.81448",
    "arrival": "2023-08-26T21:03:00Z",
    "departure": "2023-08-27T09:30:00Z"
  }
]
