[
  {
    "train_number": "464   ",
    "unit_number": "1016.0021",
    "name": "St.Michael (in M)",
    "abbr": "M   ",
    "lat": "47.3445",
    "lng": "15.0103",
    "arrival": "2023-08-17T21:38:00Z",
    "departure": "2023-08-17T21:40:00Z"
  },
  {
    "train_number": "464   ",
    "unit_number": "1016.0021",
    "name": "Leoben Hbf (in Leb)",
    "abbr": "Leb ",
    "lat": "47.3867",
    "lng": "15.0898",
    "arrival": "2023-08-17T21:28:00Z",
    "departure": "2023-08-17T21:30:00Z"
  },
  {
    "train_number": "464   ",
    "unit_number": "1016.0021",
    "name": "Bruck a.d.Mur (in Bm)",
    "abbr": "Bm  ",
    "lat": "47.4134",
    "lng": "15.2797",
    "arrival": "2023-08-17T21:01:00Z",
    "departure": "2023-08-17T21:17:00Z"
  },
  {
    "train_number": "464   ",
    "unit_number": "1016.0021",
    "name": "Graz Vbf (in G)",
    "abbr": "Gi  ",
    "lat": "47.0885",
    "lng": "15.4077",
    "arrival": null,
    "departure": "2023-08-17T20:29:00Z"
  },
  {
    "train_number": "Vhz464",
    "unit_number": "1016.0021",
    "name": "Graz Hbf (in G)",
    "abbr": "G   ",
    "lat": "47.0733",
    "lng": "15.4163",
    "arrival": "2023-08-17T19:45:00Z",
    "departure": "2023-08-17T20:25:00Z"
  },
  {
    "train_number": "163   ",
    "unit_number": "1016.0021",
    "name": "Graz Vbf (in G)",
    "abbr": "Gi  ",
    "lat": "47.0885",
    "lng": "15.4077",
    "arrival": null,
    "departure": "2023-08-17T16:11:00Z"
  },
  {
    "train_number": "163   ",
    "unit_number": "1016.0021",
    "name": "Leoben Hbf (in Leb)",
    "abbr": "Leb ",
    "lat": "47.3867",
    "lng": "15.0898",
    "arrival": "2023-08-17T15:28:00Z",
    "departure": "2023-08-17T15:29:00Z"
  },
  {
    "train_number": "163   ",
    "unit_number": "1016.0021",
    "name": "St.Michael (in M)",
    "abbr": "M   ",
    "lat": "47.3445",
    "lng": "15.0103",
    "arrival": "2023-08-17T15:21:00Z",
    "departure": "2023-08-17T15:22:00Z"
  },
  {
    "train_number": "164   ",
    "unit_number": "1016.0021",
    "name": "Selzthal (in Sl)",
    "abbr": "Sl  ",
    "lat": "47.5505",
    "lng": "14.3134",
    "arrival": "2023-08-17T09:11:00Z",
    "departure": "2023-08-17T14:48:00Z"
  },
  {
    "train_number": "164   ",
    "unit_number": "1016.0021",
    "name": "St.Michael (in M)",
    "abbr": "M   ",
    "lat": "47.3445",
    "lng": "15.0103",
    "arrival": "2023-08-17T08:37:00Z",
    "departure": "2023-08-17T08:38:00Z"
  },
  {
    "train_number": "164   ",
    "unit_number": "1016.0021",
    "name": "Leoben Hbf (in Leb)",
    "abbr": "Leb ",
    "lat": "47.3867",
    "lng": "15.0898",
    "arrival": "2023-08-17T08:29:00Z",
    "departure": "2023-08-17T08:30:00Z"
  },
  {
    "train_number": "164   ",
    "unit_number": "1016.0021",
    "name": "Graz Vbf (in G)",
    "abbr": "Gi  ",
    "lat": "47.0885",
    "lng": "15.4077",
    "arrival": null,
    "departure": "2023-08-17T07:49:00Z"
  },
  {
    "train_number": "465   ",
    "unit_number": "1016.0021",
    "name": "Graz Hbf (in G)",
    "abbr": "G   ",
    "lat": "47.0733",
    "lng": "15.4163",
    "arrival": "2023-08-17T04:58:00Z",
    "departure": "2023-08-17T07:45:00Z"
  },
  {
    "train_number": "465   ",
    "unit_number": "1016.0021",
    "name": "Graz Vbf (in G)",
    "abbr": "Gi  ",
    "lat": "47.0885",
    "lng": "15.4077",
    "arrival": null,
    "departure": "2023-08-17T04:54:00Z"
  },
  {
    "train_number": "465   ",
    "unit_number": "1016.0021",
    "name": "Bruck a.d.Mur (in Bm)",
    "abbr": "Bm  ",
    "lat": "47.4134",
    "lng": "15.2797",
    "arrival": "2023-08-17T04:10:00Z",
    "departure": "2023-08-17T04:20:00Z"
  },
  {
    "train_number": "465   ",
    "unit_number": "1016.0021",
    "name": "Leoben Hbf (in Leb)",
    "abbr": "Leb ",
    "lat": "47.3867",
    "lng": "15.0898",
    "arrival": "2023-08-17T03:57:00Z",
    "departure": "2023-08-17T03:59:00Z"
  },
  {
    "train_number": "465   ",
    "unit_number": "1016.0021",
    "name": "St.Michael (in M)",
    "abbr": "M   ",
    "lat": "47.3445",
    "lng": "15.0103",
    "arrival": "2023-08-17T03:50:00Z",
    "departure": "2023-08-17T03:51:00Z"
  },
  {
    "train_number": "465   ",
    "unit_number": "1016.0021",
    "name": "Selzthal (in Sl)",
    "abbr": "Sl  ",
    "lat": "47.5505",
    "lng": "14.3134",
    "arrival": "2023-08-17T03:04:00Z",
    "departure": "2023-08-17T03:13:00Z"
  }
]
