[
  {
    "train_number": null,
    "unit_number": "1016.0021",
    "name": "Villach Süd Gvbf Ausfgr",
    "abbr": "Va  ",
    "lat": "46.5674",
    "lng": "13.8238",
    "arrival": null,
    "departure": "2023-10-12T18:18:00Z"
  },
  {
    "train_number": "47823 ",
    "unit_number": "1016.0021",
    "name": "Schwarzach-St.Veit",
    "abbr": "Swa ",
    "lat": "47.3186",
    "lng": "13.1561",
    "arrival": "2023-10-12T14:56:00Z",
    "departure": "2023-10-12T15:26:00Z"
  },
  {
    "train_number": "47823 ",
    "unit_number": "1016.0021",
    "name": "Bischofshofen (in Bo)",
    "abbr": "Bo  ",
    "lat": "47.42",
    "lng": "13.2199",
    "arrival": null,
    "departure": "2023-10-12T14:41:00Z"
  },
  {
    "train_number": "47823 ",
    "unit_number": "1016.0021",
    "name": "Salzburg Gnigl-Einfgr. (in Sb)",
    "abbr": "Sre ",
    "lat": "47.8075",
    "lng": "13.0687",
    "arrival": null,
    "departure": "2023-10-12T13:54:00Z"
  },
  {
    "train_number": "47823 ",
    "unit_number": "1016.0021",
    "name": "Salzburg Gnigl-Vbf (in Sb)",
    "abbr": "Sr  ",
    "lat": "47.8167",
    "lng": "13.0639",
    "arrival": "2023-10-12T13:42:00Z",
    "departure": "2023-10-12T13:50:00Z"
  },
  {
    "train_number": "47823 ",
    "unit_number": "1016.0021",
    "name": "Salzburg Hbf (in Sb)",
    "abbr": "Sb  ",
    "lat": "47.8135",
    "lng": "13.0466",
    "arrival": "2023-10-12T13:35:00Z",
    "departure": "2023-10-12T13:36:00Z"
  },
  {
    "train_number": "47823 ",
    "unit_number": "1016.0021",
    "name": "Salzburg Liefering (in Sb)",
    "abbr": "Lfg ",
    "lat": "47.8229",
    "lng": "13.0021",
    "arrival": null,
    "departure": "2023-10-12T13:30:00Z"
  },
  {
    "train_number": "47823 ",
    "unit_number": "1016.0021",
    "name": "Freilassing",
    "abbr": "MFL ",
    "lat": "47.8368",
    "lng": "12.9764",
    "arrival": "2023-10-12T13:27:00Z",
    "departure": "2023-10-12T13:27:00Z"
  },
  {
    "train_number": "47823 ",
    "unit_number": "1016.0021",
    "name": "Traunstein",
    "abbr": "MTS ",
    "lat": "47.8697",
    "lng": "12.6391",
    "arrival": null,
    "departure": "2023-10-12T12:59:00Z"
  },
  {
    "train_number": "47823 ",
    "unit_number": "1016.0021",
    "name": "Rosenheim",
    "abbr": "MRO ",
    "lat": "47.8511",
    "lng": "12.1196",
    "arrival": null,
    "departure": "2023-10-12T12:09:00Z"
  },
  {
    "train_number": "47822 ",
    "unit_number": "1016.0021",
    "name": "Rosenheim",
    "abbr": "MRO ",
    "lat": "47.8511",
    "lng": "12.1196",
    "arrival": null,
    "departure": "2023-10-12T07:51:00Z"
  },
  {
    "train_number": "47822 ",
    "unit_number": "1016.0021",
    "name": "Traunstein",
    "abbr": "MTS ",
    "lat": "47.8697",
    "lng": "12.6391",
    "arrival": null,
    "departure": "2023-10-12T06:57:00Z"
  },
  {
    "train_number": "47822 ",
    "unit_number": "1016.0021",
    "name": "Freilassing",
    "abbr": "MFL ",
    "lat": "47.8368",
    "lng": "12.9764",
    "arrival": "2023-10-12T06:27:00Z",
    "departure": "2023-10-12T06:29:00Z"
  },
  {
    "train_number": "47822 ",
    "unit_number": "1016.0021",
    "name": "Salzburg Liefering (in Sb)",
    "abbr": "Lfg ",
    "lat": "47.8229",
    "lng": "13.0021",
    "arrival": null,
    "departure": "2023-10-12T06:24:00Z"
  },
  {
    "train_number": "47822 ",
    "unit_number": "1016.0021",
    "name": "Salzburg Hbf (in Sb)",
    "abbr": "Sb  ",
    "lat": "47.8135",
    "lng": "13.0466",
    "arrival": null,
    "departure": "2023-10-12T06:19:00Z"
  },
  {
    "train_number": "47822 ",
    "unit_number": "1016.0021",
    "name": "Salzburg Gnigl-Vbf (in Sb)",
    "abbr": "Sr  ",
    "lat": "47.8167",
    "lng": "13.0639",
    "arrival": "2023-10-12T06:08:00Z",
    "departure": "2023-10-12T06:14:00Z"
  },
  {
    "train_number": "47822 ",
    "unit_number": "1016.0021",
    "name": "Salzburg Gnigl-Einfgr. (in Sb)",
    "abbr": "Sre ",
    "lat": "47.8075",
    "lng": "13.0687",
    "arrival": null,
    "departure": "2023-10-12T06:06:00Z"
  },
  {
    "train_number": "47822 ",
    "unit_number": "1016.0021",
    "name": "Bischofshofen (in Bo)",
    "abbr": "Bo  ",
    "lat": "47.42",
    "lng": "13.2199",
    "arrival": null,
    "departure": "2023-10-12T05:23:00Z"
  },
  {
    "train_number": "47822 ",
    "unit_number": "1016.0021",
    "name": "Schwarzach-St.Veit",
    "abbr": "Swa ",
    "lat": "47.3186",
    "lng": "13.1561",
    "arrival": "2023-10-12T04:24:00Z",
    "departure": "2023-10-12T05:06:00Z"
  },
  {
    "train_number": "89205 ",
    "unit_number": "1016.0021",
    "name": "Villach Süd Gvbf Ausfgr",
    "abbr": "Va  ",
    "lat": "46.5674",
    "lng": "13.8238",
    "arrival": "2023-10-11T23:42:00Z",
    "departure": "2023-10-12T02:30:00Z"
  }
]
