[
  {
    "train_number": "44196 ",
    "unit_number": "1016.0021",
    "name": "München Ost Rbf",
    "abbr": "MOR ",
    "lat": "48.1342",
    "lng": "11.6404",
    "arrival": "2023-10-21T00:01:00Z",
    "departure": "2023-10-21T01:36:00Z"
  },
  {
    "train_number": null,
    "unit_number": "1016.0021",
    "name": "Kufstein",
    "abbr": "K   ",
    "lat": "47.5833",
    "lng": "12.1657",
    "arrival": null,
    "departure": "2023-10-20T23:00:00Z"
  },
  {
    "train_number": "44196 ",
    "unit_number": "1016.0021",
    "name": "Kufstein",
    "abbr": "K   ",
    "lat": "47.5833",
    "lng": "12.1657",
    "arrival": "2023-10-20T22:45:00Z",
    "departure": "2023-10-20T22:54:00Z"
  },
  {
    "train_number": "44196 ",
    "unit_number": "1016.0021",
    "name": "Wörgl Hbf (in W)",
    "abbr": "W   ",
    "lat": "47.4912",
    "lng": "12.0603",
    "arrival": "2023-10-20T22:30:00Z",
    "departure": "2023-10-20T22:35:00Z"
  },
  {
    "train_number": "44196 ",
    "unit_number": "1016.0021",
    "name": "Wörgl Hbf-T. N. (in W)",
    "abbr": "Wtn ",
    "lat": "47.4824",
    "lng": "12.033",
    "arrival": null,
    "departure": "2023-10-20T22:28:00Z"
  },
  {
    "train_number": "88445 ",
    "unit_number": "1016.0021",
    "name": "Hall in Tirol",
    "abbr": "H   ",
    "lat": "47.2769",
    "lng": "11.5013",
    "arrival": "2023-10-20T21:07:00Z",
    "departure": "2023-10-20T21:54:00Z"
  },
  {
    "train_number": "88442 ",
    "unit_number": "1016.0021",
    "name": "Innsbruck Hbf  (in I)",
    "abbr": "I   ",
    "lat": "47.2634",
    "lng": "11.4017",
    "arrival": "2023-10-20T19:23:00Z",
    "departure": "2023-10-20T20:59:00Z"
  },
  {
    "train_number": "45143 ",
    "unit_number": "1016.0021",
    "name": "Hall in Tirol",
    "abbr": "H   ",
    "lat": "47.2769",
    "lng": "11.5013",
    "arrival": "2023-10-20T18:51:00Z",
    "departure": "2023-10-20T19:15:00Z"
  },
  {
    "train_number": "45143 ",
    "unit_number": "1016.0021",
    "name": "Wörgl Hbf-T. N. (in W)",
    "abbr": "Wtn ",
    "lat": "47.4824",
    "lng": "12.033",
    "arrival": null,
    "departure": "2023-10-20T18:11:00Z"
  },
  {
    "train_number": "45143 ",
    "unit_number": "1016.0021",
    "name": "Wörgl Hbf (in W)",
    "abbr": "W   ",
    "lat": "47.4912",
    "lng": "12.0603",
    "arrival": "2023-10-20T18:02:00Z",
    "departure": "2023-10-20T18:09:00Z"
  },
  {
    "train_number": "45143 ",
    "unit_number": "1016.0021",
    "name": "Kufstein",
    "abbr": "K   ",
    "lat": "47.5833",
    "lng": "12.1657",
    "arrival": null,
    "departure": "2023-10-20T17:48:00Z"
  },
  {
    "train_number": "45143 ",
    "unit_number": "1016.0021",
    "name": "Reutte in Tirol",
    "abbr": "Rt  ",
    "lat": "47.4932",
    "lng": "10.7217",
    "arrival": "2023-10-20T12:45:00Z",
    "departure": "2023-10-20T13:17:00Z"
  },
  {
    "train_number": "45142 ",
    "unit_number": "1016.0021",
    "name": "Reutte in Tirol",
    "abbr": "Rt  ",
    "lat": "47.4932",
    "lng": "10.7217",
    "arrival": null,
    "departure": "2023-10-20T11:30:00Z"
  },
  {
    "train_number": "45142 ",
    "unit_number": "1016.0021",
    "name": "Kufstein",
    "abbr": "K   ",
    "lat": "47.5833",
    "lng": "12.1657",
    "arrival": null,
    "departure": "2023-10-20T06:22:00Z"
  },
  {
    "train_number": "45142 ",
    "unit_number": "1016.0021",
    "name": "Wörgl Hbf (in W)",
    "abbr": "W   ",
    "lat": "47.4912",
    "lng": "12.0603",
    "arrival": "2023-10-20T06:05:00Z",
    "departure": "2023-10-20T06:09:00Z"
  },
  {
    "train_number": "45142 ",
    "unit_number": "1016.0021",
    "name": "Wörgl Hbf-T. N. (in W)",
    "abbr": "Wtn ",
    "lat": "47.4824",
    "lng": "12.033",
    "arrival": null,
    "departure": "2023-10-20T06:02:00Z"
  },
  {
    "train_number": "45142 ",
    "unit_number": "1016.0021",
    "name": "Jenbach",
    "abbr": "Jb  ",
    "lat": "47.3884",
    "lng": "11.7783",
    "arrival": null,
    "departure": "2023-10-20T05:46:00Z"
  },
  {
    "train_number": "45142 ",
    "unit_number": "1016.0021",
    "name": "Schwaz",
    "abbr": "Sw  ",
    "lat": "47.3497",
    "lng": "11.7016",
    "arrival": "2023-10-20T05:25:00Z",
    "departure": "2023-10-20T05:38:00Z"
  },
  {
    "train_number": "88415 ",
    "unit_number": "1016.0021",
    "name": "Hall in Tirol",
    "abbr": "H   ",
    "lat": "47.2769",
    "lng": "11.5013",
    "arrival": "2023-10-20T04:32:00Z",
    "departure": "2023-10-20T05:10:00Z"
  },
  {
    "train_number": "88424 ",
    "unit_number": "1016.0021",
    "name": "Innsbruck Hbf  (in I)",
    "abbr": "I   ",
    "lat": "47.2634",
    "lng": "11.4017",
    "arrival": "2023-10-19T12:09:00Z",
    "departure": "2023-10-20T04:25:00Z"
  }
]
