[
  {
    "train_number": null,
    "unit_number": "1016.0021",
    "name": "Wörgl Hbf-T. N. (in W)",
    "abbr": "Wtn ",
    "lat": "47.4824",
    "lng": "12.033",
    "arrival": null,
    "departure": "2023-10-20T02:07:00Z"
  },
  {
    "train_number": "62431 ",
    "unit_number": "1016.0021",
    "name": "Wörgl Hbf-T. N. (in W)",
    "abbr": "Wtn ",
    "lat": "47.4824",
    "lng": "12.033",
    "arrival": null,
    "departure": "2023-10-19T23:13:00Z"
  },
  {
    "train_number": "88401 ",
    "unit_number": "1016.0021",
    "name": "Hall in Tirol",
    "abbr": "H   ",
    "lat": "47.2769",
    "lng": "11.5013",
    "arrival": "2023-10-19T22:14:00Z",
    "departure": "2023-10-19T22:38:00Z"
  },
  {
    "train_number": "64452 ",
    "unit_number": "1016.0021",
    "name": "Innsbruck Hbf  (in I)",
    "abbr": "I   ",
    "lat": "47.2634",
    "lng": "11.4017",
    "arrival": "2023-10-19T15:50:00Z",
    "departure": "2023-10-19T22:05:00Z"
  },
  {
    "train_number": "54452 ",
    "unit_number": "1016.0021",
    "name": "Hall in Tirol",
    "abbr": "H   ",
    "lat": "47.2769",
    "lng": "11.5013",
    "arrival": "2023-10-19T11:26:00Z",
    "departure": "2023-10-19T15:39:00Z"
  },
  {
    "train_number": "54452 ",
    "unit_number": "1016.0021",
    "name": "Wörgl Hbf-T. N. (in W)",
    "abbr": "Wtn ",
    "lat": "47.4824",
    "lng": "12.033",
    "arrival": null,
    "departure": "2023-10-19T10:52:00Z"
  },
  {
    "train_number": "54452 ",
    "unit_number": "1016.0021",
    "name": "Wörgl Hbf (in W)",
    "abbr": "W   ",
    "lat": "47.4912",
    "lng": "12.0603",
    "arrival": "2023-10-19T09:50:00Z",
    "departure": "2023-10-19T10:49:00Z"
  },
  {
    "train_number": "54452 ",
    "unit_number": "1016.0021",
    "name": "Kitzbühel",
    "abbr": "Kzb ",
    "lat": "47.4542",
    "lng": "12.391",
    "arrival": null,
    "departure": "2023-10-19T09:17:00Z"
  },
  {
    "train_number": "54452 ",
    "unit_number": "1016.0021",
    "name": "Schwarzach-St.Veit",
    "abbr": "Swa ",
    "lat": "47.3186",
    "lng": "13.1561",
    "arrival": "2023-10-19T07:21:00Z",
    "departure": "2023-10-19T07:54:00Z"
  },
  {
    "train_number": null,
    "unit_number": "1016.0021",
    "name": "Villach Süd Gvbf Ausfgr",
    "abbr": "Va  ",
    "lat": "46.5674",
    "lng": "13.8238",
    "arrival": null,
    "departure": "2023-10-19T05:27:00Z"
  }
]
