[
  {
    "train_number": "66470 ",
    "unit_number": "1016.0021",
    "name": "Wolfurt (in Wo)",
    "abbr": "Wo  ",
    "lat": "47.457",
    "lng": "9.74133",
    "arrival": "2023-09-15T23:15:00Z",
    "departure": "2023-09-16T06:37:00Z"
  },
  {
    "train_number": "66470 ",
    "unit_number": "1016.0021",
    "name": "Dornbirn (in Do)",
    "abbr": "Do  ",
    "lat": "47.4176",
    "lng": "9.73871",
    "arrival": null,
    "departure": "2023-09-15T23:10:00Z"
  },
  {
    "train_number": "66470 ",
    "unit_number": "1016.0021",
    "name": "Feldkirch",
    "abbr": "Fk  ",
    "lat": "47.2417",
    "lng": "9.60519",
    "arrival": "2023-09-15T22:41:00Z",
    "departure": "2023-09-15T22:51:00Z"
  },
  {
    "train_number": "45711 ",
    "unit_number": "1016.0021",
    "name": "Bludenz",
    "abbr": "B   ",
    "lat": "47.155",
    "lng": "9.81448",
    "arrival": "2023-09-15T19:33:00Z",
    "departure": "2023-09-15T22:25:00Z"
  },
  {
    "train_number": "45711 ",
    "unit_number": "1016.0021",
    "name": "Feldkirch",
    "abbr": "Fk  ",
    "lat": "47.2417",
    "lng": "9.60519",
    "arrival": null,
    "departure": "2023-09-15T19:17:00Z"
  },
  {
    "train_number": "45724 ",
    "unit_number": "1016.0021",
    "name": "Buchs (SG)",
    "abbr": "Bc  ",
    "lat": "47.171",
    "lng": "9.4779",
    "arrival": "2023-09-15T13:21:00Z",
    "departure": "2023-09-15T18:53:00Z"
  },
  {
    "train_number": "45724 ",
    "unit_number": "1016.0021",
    "name": "Feldkirch",
    "abbr": "Fk  ",
    "lat": "47.2417",
    "lng": "9.60519",
    "arrival": null,
    "departure": "2023-09-15T13:05:00Z"
  },
  {
    "train_number": "96771 ",
    "unit_number": "1016.0021",
    "name": "Bludenz",
    "abbr": "B   ",
    "lat": "47.155",
    "lng": "9.81448",
    "arrival": "2023-09-15T04:15:00Z",
    "departure": "2023-09-15T12:46:00Z"
  },
  {
    "train_number": "45721 ",
    "unit_number": "1016.0021",
    "name": "Feldkirch",
    "abbr": "Fk  ",
    "lat": "47.2417",
    "lng": "9.60519",
    "arrival": null,
    "departure": "2023-09-15T03:36:00Z"
  },
  {
    "train_number": "45706 ",
    "unit_number": "1016.0021",
    "name": "Buchs (SG)",
    "abbr": "Bc  ",
    "lat": "47.171",
    "lng": "9.4779",
    "arrival": "2023-09-14T18:45:00Z",
    "departure": "2023-09-15T03:20:00Z"
  }
]
