[
  {
    "train_number": "41970 ",
    "unit_number": "1016.0021",
    "name": "Innsbruck Hbf  (in I)",
    "abbr": "I   ",
    "lat": "47.2634",
    "lng": "11.4017",
    "arrival": "2023-08-28T10:42:00Z",
    "departure": "2023-08-29T02:31:00Z"
  },
  {
    "train_number": "41970 ",
    "unit_number": "1016.0021",
    "name": "Imst-Pitztal",
    "abbr": "Im  ",
    "lat": "47.219",
    "lng": "10.7619",
    "arrival": "2023-08-28T09:55:00Z",
    "departure": "2023-08-28T09:58:00Z"
  },
  {
    "train_number": "41970 ",
    "unit_number": "1016.0021",
    "name": "Landeck-Zams",
    "abbr": "Le  ",
    "lat": "47.148",
    "lng": "10.5782",
    "arrival": "2023-08-28T09:19:00Z",
    "departure": "2023-08-28T09:34:00Z"
  },
  {
    "train_number": "41970 ",
    "unit_number": "1016.0021",
    "name": "Bludenz",
    "abbr": "B   ",
    "lat": "47.155",
    "lng": "9.81448",
    "arrival": "2023-08-28T07:37:00Z",
    "departure": "2023-08-28T07:52:00Z"
  },
  {
    "train_number": "41970 ",
    "unit_number": "1016.0021",
    "name": "Feldkirch",
    "abbr": "Fk  ",
    "lat": "47.2417",
    "lng": "9.60519",
    "arrival": "2023-08-28T07:06:00Z",
    "departure": "2023-08-28T07:20:00Z"
  },
  {
    "train_number": "41970 ",
    "unit_number": "1016.0021",
    "name": "Dornbirn (in Do)",
    "abbr": "Do  ",
    "lat": "47.4176",
    "lng": "9.73871",
    "arrival": null,
    "departure": "2023-08-28T06:44:00Z"
  },
  {
    "train_number": "66470 ",
    "unit_number": "1016.0021",
    "name": "Wolfurt (in Wo)",
    "abbr": "Wo  ",
    "lat": "47.457",
    "lng": "9.74133",
    "arrival": "2023-08-27T23:15:00Z",
    "departure": "2023-08-28T06:37:00Z"
  }
]
