[
  {
    "train_number": "55444 ",
    "unit_number": "1016.0021",
    "name": "Dornbirn (in Do)",
    "abbr": "Do  ",
    "lat": "47.4176",
    "lng": "9.73871",
    "arrival": null,
    "departure": "2023-09-18T20:05:00Z"
  },
  {
    "train_number": "55444 ",
    "unit_number": "1016.0021",
    "name": "Feldkirch",
    "abbr": "Fk  ",
    "lat": "47.2417",
    "lng": "9.60519",
    "arrival": "2023-09-18T19:36:00Z",
    "departure": "2023-09-18T19:44:00Z"
  },
  {
    "train_number": "55444 ",
    "unit_number": "1016.0021",
    "name": "Bludenz",
    "abbr": "B   ",
    "lat": "47.155",
    "lng": "9.81448",
    "arrival": "2023-09-18T19:09:00Z",
    "departure": "2023-09-18T19:16:00Z"
  },
  {
    "train_number": "55444 ",
    "unit_number": "1016.0021",
    "name": "Landeck-Zams",
    "abbr": "Le  ",
    "lat": "47.148",
    "lng": "10.5782",
    "arrival": "2023-09-18T17:20:00Z",
    "departure": "2023-09-18T17:37:00Z"
  },
  {
    "train_number": "55444 ",
    "unit_number": "1016.0021",
    "name": "Imst-Pitztal",
    "abbr": "Im  ",
    "lat": "47.219",
    "lng": "10.7619",
    "arrival": null,
    "departure": "2023-09-18T16:58:00Z"
  },
  {
    "train_number": "55444 ",
    "unit_number": "1016.0021",
    "name": "Innsbruck Hbf  (in I)",
    "abbr": "I   ",
    "lat": "47.2634",
    "lng": "11.4017",
    "arrival": "2023-09-18T16:05:00Z",
    "departure": "2023-09-18T16:15:00Z"
  },
  {
    "train_number": "54443 ",
    "unit_number": "1016.0021",
    "name": "Hall in Tirol",
    "abbr": "H   ",
    "lat": "47.2769",
    "lng": "11.5013",
    "arrival": "2023-09-18T14:04:00Z",
    "departure": "2023-09-18T15:49:00Z"
  },
  {
    "train_number": "54443 ",
    "unit_number": "1016.0021",
    "name": "Innsbruck Hbf  (in I)",
    "abbr": "I   ",
    "lat": "47.2634",
    "lng": "11.4017",
    "arrival": "2023-09-18T13:42:00Z",
    "departure": "2023-09-18T13:55:00Z"
  },
  {
    "train_number": "54443 ",
    "unit_number": "1016.0021",
    "name": "Imst-Pitztal",
    "abbr": "Im  ",
    "lat": "47.219",
    "lng": "10.7619",
    "arrival": "2023-09-18T12:57:00Z",
    "departure": "2023-09-18T12:59:00Z"
  },
  {
    "train_number": "54443 ",
    "unit_number": "1016.0021",
    "name": "Landeck-Zams",
    "abbr": "Le  ",
    "lat": "47.148",
    "lng": "10.5782",
    "arrival": "2023-09-18T12:32:00Z",
    "departure": "2023-09-18T12:38:00Z"
  },
  {
    "train_number": "54443 ",
    "unit_number": "1016.0021",
    "name": "Bludenz",
    "abbr": "B   ",
    "lat": "47.155",
    "lng": "9.81448",
    "arrival": "2023-09-18T11:14:00Z",
    "departure": "2023-09-18T11:34:00Z"
  },
  {
    "train_number": "54443 ",
    "unit_number": "1016.0021",
    "name": "Feldkirch",
    "abbr": "Fk  ",
    "lat": "47.2417",
    "lng": "9.60519",
    "arrival": "2023-09-18T10:36:00Z",
    "departure": "2023-09-18T10:54:00Z"
  },
  {
    "train_number": "54443 ",
    "unit_number": "1016.0021",
    "name": "Dornbirn (in Do)",
    "abbr": "Do  ",
    "lat": "47.4176",
    "lng": "9.73871",
    "arrival": null,
    "departure": "2023-09-18T10:15:00Z"
  },
  {
    "train_number": "59445 ",
    "unit_number": "1016.0021",
    "name": "Wolfurt (in Wo)",
    "abbr": "Wo  ",
    "lat": "47.457",
    "lng": "9.74133",
    "arrival": "2023-09-17T15:57:00Z",
    "departure": "2023-09-18T10:07:00Z"
  }
]
