[
  {
    "train_number": "44807 ",
    "unit_number": "1016.0021",
    "name": "Salzburg Hbf (in Sb)",
    "abbr": "Sb  ",
    "lat": "47.8135",
    "lng": "13.0466",
    "arrival": "2023-10-28T11:39:00Z",
    "departure": "2023-10-28T11:39:00Z"
  },
  {
    "train_number": "44807 ",
    "unit_number": "1016.0021",
    "name": "Salzburg Liefering (in Sb)",
    "abbr": "Lfg ",
    "lat": "47.8229",
    "lng": "13.0021",
    "arrival": null,
    "departure": "2023-10-28T11:32:00Z"
  },
  {
    "train_number": "44807 ",
    "unit_number": "1016.0021",
    "name": "Freilassing",
    "abbr": "MFL ",
    "lat": "47.8368",
    "lng": "12.9764",
    "arrival": "2023-10-28T11:29:00Z",
    "departure": "2023-10-28T11:29:00Z"
  },
  {
    "train_number": "44807 ",
    "unit_number": "1016.0021",
    "name": "Traunstein",
    "abbr": "MTS ",
    "lat": "47.8697",
    "lng": "12.6391",
    "arrival": null,
    "departure": "2023-10-28T11:01:00Z"
  },
  {
    "train_number": "44807 ",
    "unit_number": "1016.0021",
    "name": "Rosenheim",
    "abbr": "MRO ",
    "lat": "47.8511",
    "lng": "12.1196",
    "arrival": null,
    "departure": "2023-10-28T10:11:00Z"
  },
  {
    "train_number": "44804 ",
    "unit_number": "1016.0021",
    "name": "Rosenheim",
    "abbr": "MRO ",
    "lat": "47.8511",
    "lng": "12.1196",
    "arrival": null,
    "departure": "2023-10-28T05:16:00Z"
  },
  {
    "train_number": "44804 ",
    "unit_number": "1016.0021",
    "name": "Traunstein",
    "abbr": "MTS ",
    "lat": "47.8697",
    "lng": "12.6391",
    "arrival": null,
    "departure": "2023-10-28T04:36:00Z"
  },
  {
    "train_number": "44804 ",
    "unit_number": "1016.0021",
    "name": "Freilassing",
    "abbr": "MFL ",
    "lat": "47.8368",
    "lng": "12.9764",
    "arrival": "2023-10-28T03:56:00Z",
    "departure": "2023-10-28T04:14:00Z"
  },
  {
    "train_number": "44804 ",
    "unit_number": "1016.0021",
    "name": "Salzburg Liefering (in Sb)",
    "abbr": "Lfg ",
    "lat": "47.8229",
    "lng": "13.0021",
    "arrival": null,
    "departure": "2023-10-28T03:53:00Z"
  },
  {
    "train_number": "44804 ",
    "unit_number": "1016.0021",
    "name": "Salzburg Hbf (in Sb)",
    "abbr": "Sb  ",
    "lat": "47.8135",
    "lng": "13.0466",
    "arrival": null,
    "departure": "2023-10-28T03:47:00Z"
  },
  {
    "train_number": null,
    "unit_number": "1016.0021",
    "name": "Salzburg Gnigl-Vbf (in Sb)",
    "abbr": "Sr  ",
    "lat": "47.8167",
    "lng": "13.0639",
    "arrival": null,
    "departure": "2023-10-28T03:42:00Z"
  }
]
