[
  {
    "train_number": "59447 ",
    "unit_number": "1016.0021",
    "name": "Feldkirch",
    "abbr": "Fk  ",
    "lat": "47.2417",
    "lng": "9.60519",
    "arrival": null,
    "departure": "2023-09-23T18:23:00Z"
  },
  {
    "train_number": "59447 ",
    "unit_number": "1016.0021",
    "name": "Bludenz",
    "abbr": "B   ",
    "lat": "47.155",
    "lng": "9.81448",
    "arrival": "2023-09-23T17:50:00Z",
    "departure": "2023-09-23T18:05:00Z"
  },
  {
    "train_number": "59447 ",
    "unit_number": "1016.0021",
    "name": "Landeck-Zams",
    "abbr": "Le  ",
    "lat": "47.148",
    "lng": "10.5782",
    "arrival": "2023-09-23T16:40:00Z",
    "departure": "2023-09-23T16:43:00Z"
  },
  {
    "train_number": "59447 ",
    "unit_number": "1016.0021",
    "name": "Imst-Pitztal",
    "abbr": "Im  ",
    "lat": "47.219",
    "lng": "10.7619",
    "arrival": "2023-09-23T16:14:00Z",
    "departure": "2023-09-23T16:23:00Z"
  },
  {
    "train_number": "59447 ",
    "unit_number": "1016.0021",
    "name": "Innsbruck Hbf  (in I)",
    "abbr": "I   ",
    "lat": "47.2634",
    "lng": "11.4017",
    "arrival": "2023-09-23T15:05:00Z",
    "departure": "2023-09-23T15:20:00Z"
  },
  {
    "train_number": "59447 ",
    "unit_number": "1016.0021",
    "name": "Hall in Tirol",
    "abbr": "H   ",
    "lat": "47.2769",
    "lng": "11.5013",
    "arrival": null,
    "departure": "2023-09-23T14:55:00Z"
  },
  {
    "train_number": "59447 ",
    "unit_number": "1016.0021",
    "name": "Wörgl Hbf-T. N. (in W)",
    "abbr": "Wtn ",
    "lat": "47.4824",
    "lng": "12.033",
    "arrival": null,
    "departure": "2023-09-23T14:21:00Z"
  },
  {
    "train_number": "59447 ",
    "unit_number": "1016.0021",
    "name": "Wörgl Hbf (in W)",
    "abbr": "W   ",
    "lat": "47.4912",
    "lng": "12.0603",
    "arrival": null,
    "departure": "2023-09-23T14:19:00Z"
  },
  {
    "train_number": "59448 ",
    "unit_number": "1016.0021",
    "name": "Kufstein",
    "abbr": "K   ",
    "lat": "47.5833",
    "lng": "12.1657",
    "arrival": "2023-09-23T12:04:00Z",
    "departure": "2023-09-23T14:08:00Z"
  },
  {
    "train_number": "59448 ",
    "unit_number": "1016.0021",
    "name": "Wörgl Hbf (in W)",
    "abbr": "W   ",
    "lat": "47.4912",
    "lng": "12.0603",
    "arrival": null,
    "departure": "2023-09-23T11:54:00Z"
  },
  {
    "train_number": "59448 ",
    "unit_number": "1016.0021",
    "name": "Wörgl Hbf-T. N. (in W)",
    "abbr": "Wtn ",
    "lat": "47.4824",
    "lng": "12.033",
    "arrival": null,
    "departure": "2023-09-23T11:50:00Z"
  },
  {
    "train_number": "59448 ",
    "unit_number": "1016.0021",
    "name": "Schwaz",
    "abbr": "Sw  ",
    "lat": "47.3497",
    "lng": "11.7016",
    "arrival": null,
    "departure": "2023-09-23T11:26:00Z"
  },
  {
    "train_number": "59448 ",
    "unit_number": "1016.0021",
    "name": "Hall in Tirol",
    "abbr": "H   ",
    "lat": "47.2769",
    "lng": "11.5013",
    "arrival": null,
    "departure": "2023-09-23T11:10:00Z"
  },
  {
    "train_number": "59448 ",
    "unit_number": "1016.0021",
    "name": "Innsbruck Hbf  (in I)",
    "abbr": "I   ",
    "lat": "47.2634",
    "lng": "11.4017",
    "arrival": "2023-09-23T10:42:00Z",
    "departure": "2023-09-23T11:01:00Z"
  },
  {
    "train_number": "59448 ",
    "unit_number": "1016.0021",
    "name": "Imst-Pitztal",
    "abbr": "Im  ",
    "lat": "47.219",
    "lng": "10.7619",
    "arrival": "2023-09-23T09:55:00Z",
    "departure": "2023-09-23T09:58:00Z"
  },
  {
    "train_number": "59448 ",
    "unit_number": "1016.0021",
    "name": "Landeck-Zams",
    "abbr": "Le  ",
    "lat": "47.148",
    "lng": "10.5782",
    "arrival": "2023-09-23T09:19:00Z",
    "departure": "2023-09-23T09:34:00Z"
  },
  {
    "train_number": "59448 ",
    "unit_number": "1016.0021",
    "name": "Bludenz",
    "abbr": "B   ",
    "lat": "47.155",
    "lng": "9.81448",
    "arrival": "2023-09-23T07:37:00Z",
    "departure": "2023-09-23T07:52:00Z"
  },
  {
    "train_number": "59448 ",
    "unit_number": "1016.0021",
    "name": "Feldkirch",
    "abbr": "Fk  ",
    "lat": "47.2417",
    "lng": "9.60519",
    "arrival": "2023-09-23T07:06:00Z",
    "departure": "2023-09-23T07:20:00Z"
  },
  {
    "train_number": "59448 ",
    "unit_number": "1016.0021",
    "name": "Dornbirn (in Do)",
    "abbr": "Do  ",
    "lat": "47.4176",
    "lng": "9.73871",
    "arrival": null,
    "departure": "2023-09-23T06:44:00Z"
  },
  {
    "train_number": "59445 ",
    "unit_number": "1016.0021",
    "name": "Wolfurt (in Wo)",
    "abbr": "Wo  ",
    "lat": "47.457",
    "lng": "9.74133",
    "arrival": "2023-09-22T15:57:00Z",
    "departure": "2023-09-23T06:37:00Z"
  }
]
