[
  {
    "train_number": "45861 ",
    "unit_number": "1016.0021",
    "name": "Wels Hbf",
    "abbr": "We  ",
    "lat": "48.1662",
    "lng": "14.0273",
    "arrival": "2023-09-25T23:42:00Z",
    "departure": "2023-09-26T00:00:00Z"
  },
  {
    "train_number": "45861 ",
    "unit_number": "1016.0021",
    "name": "Attnang-Puchheim",
    "abbr": "At  ",
    "lat": "48.0112",
    "lng": "13.7193",
    "arrival": null,
    "departure": "2023-09-25T23:19:00Z"
  },
  {
    "train_number": "45861 ",
    "unit_number": "1016.0021",
    "name": "Steindorf b.Straßw. (in Nst)",
    "abbr": "Nst ",
    "lat": "47.9676",
    "lng": "13.2406",
    "arrival": null,
    "departure": "2023-09-25T22:49:00Z"
  },
  {
    "train_number": "45861 ",
    "unit_number": "1016.0021",
    "name": "Salzburg Hbf (in Sb)",
    "abbr": "Sb  ",
    "lat": "47.8135",
    "lng": "13.0466",
    "arrival": "2023-09-25T22:22:00Z",
    "departure": "2023-09-25T22:25:00Z"
  },
  {
    "train_number": "45861 ",
    "unit_number": "1016.0021",
    "name": "Salzburg Liefering (in Sb)",
    "abbr": "Lfg ",
    "lat": "47.8229",
    "lng": "13.0021",
    "arrival": null,
    "departure": "2023-09-25T22:15:00Z"
  },
  {
    "train_number": "45861 ",
    "unit_number": "1016.0021",
    "name": "Freilassing",
    "abbr": "MFL ",
    "lat": "47.8368",
    "lng": "12.9764",
    "arrival": "2023-09-25T22:09:00Z",
    "departure": "2023-09-25T22:12:00Z"
  },
  {
    "train_number": "45861 ",
    "unit_number": "1016.0021",
    "name": "Traunstein",
    "abbr": "MTS ",
    "lat": "47.8697",
    "lng": "12.6391",
    "arrival": null,
    "departure": "2023-09-25T21:47:00Z"
  },
  {
    "train_number": "45861 ",
    "unit_number": "1016.0021",
    "name": "Kufstein",
    "abbr": "K   ",
    "lat": "47.5833",
    "lng": "12.1657",
    "arrival": "2023-09-25T20:39:00Z",
    "departure": "2023-09-25T20:41:00Z"
  },
  {
    "train_number": "45861 ",
    "unit_number": "1016.0021",
    "name": "Wörgl Hbf (in W)",
    "abbr": "W   ",
    "lat": "47.4912",
    "lng": "12.0603",
    "arrival": null,
    "departure": "2023-09-25T20:27:00Z"
  },
  {
    "train_number": "45861 ",
    "unit_number": "1016.0021",
    "name": "Wörgl Hbf-T. N. (in W)",
    "abbr": "Wtn ",
    "lat": "47.4824",
    "lng": "12.033",
    "arrival": null,
    "departure": "2023-09-25T20:25:00Z"
  },
  {
    "train_number": "45861 ",
    "unit_number": "1016.0021",
    "name": "Hall in Tirol",
    "abbr": "H   ",
    "lat": "47.2769",
    "lng": "11.5013",
    "arrival": null,
    "departure": "2023-09-25T19:53:00Z"
  },
  {
    "train_number": "45861 ",
    "unit_number": "1016.0021",
    "name": "Innsbruck Hbf  (in I)",
    "abbr": "I   ",
    "lat": "47.2634",
    "lng": "11.4017",
    "arrival": "2023-09-25T19:42:00Z",
    "departure": "2023-09-25T19:45:00Z"
  },
  {
    "train_number": "45861 ",
    "unit_number": "1016.0021",
    "name": "Imst-Pitztal",
    "abbr": "Im  ",
    "lat": "47.219",
    "lng": "10.7619",
    "arrival": null,
    "departure": "2023-09-25T18:58:00Z"
  },
  {
    "train_number": "45861 ",
    "unit_number": "1016.0021",
    "name": "Landeck-Zams",
    "abbr": "Le  ",
    "lat": "47.148",
    "lng": "10.5782",
    "arrival": "2023-09-25T18:35:00Z",
    "departure": "2023-09-25T18:42:00Z"
  },
  {
    "train_number": "45861 ",
    "unit_number": "1016.0021",
    "name": "Bludenz",
    "abbr": "B   ",
    "lat": "47.155",
    "lng": "9.81448",
    "arrival": null,
    "departure": "2023-09-25T17:34:00Z"
  },
  {
    "train_number": "45861 ",
    "unit_number": "1016.0021",
    "name": "Feldkirch",
    "abbr": "Fk  ",
    "lat": "47.2417",
    "lng": "9.60519",
    "arrival": null,
    "departure": "2023-09-25T17:20:00Z"
  },
  {
    "train_number": "45861 ",
    "unit_number": "1016.0021",
    "name": "Dornbirn (in Do)",
    "abbr": "Do  ",
    "lat": "47.4176",
    "lng": "9.73871",
    "arrival": null,
    "departure": "2023-09-25T16:55:00Z"
  },
  {
    "train_number": "45737 ",
    "unit_number": "1016.0021",
    "name": "Wolfurt (in Wo)",
    "abbr": "Wo  ",
    "lat": "47.457",
    "lng": "9.74133",
    "arrival": "2023-09-25T10:28:00Z",
    "departure": "2023-09-25T16:48:00Z"
  },
  {
    "train_number": "45736 ",
    "unit_number": "1016.0021",
    "name": "St.Margrethen",
    "abbr": "Mt  ",
    "lat": "47.4532",
    "lng": "9.64002",
    "arrival": "2023-09-25T07:46:00Z",
    "departure": "2023-09-25T10:12:00Z"
  },
  {
    "train_number": "Steht ",
    "unit_number": "1016.0021",
    "name": "Wolfurt (in Wo)",
    "abbr": "Wo  ",
    "lat": "47.457",
    "lng": "9.74133",
    "arrival": "2023-09-24T22:00:00Z",
    "departure": "2023-09-25T07:30:00Z"
  }
]
