[
  {
    "train_number": "55440 ",
    "unit_number": "1016.0021",
    "name": "Dornbirn (in Do)",
    "abbr": "Do  ",
    "lat": "47.4176",
    "lng": "9.73871",
    "arrival": null,
    "departure": "2023-09-27T01:40:00Z"
  },
  {
    "train_number": "55440 ",
    "unit_number": "1016.0021",
    "name": "Feldkirch",
    "abbr": "Fk  ",
    "lat": "47.2417",
    "lng": "9.60519",
    "arrival": "2023-09-27T01:07:00Z",
    "departure": "2023-09-27T01:22:00Z"
  },
  {
    "train_number": "55440 ",
    "unit_number": "1016.0021",
    "name": "Bludenz",
    "abbr": "B   ",
    "lat": "47.155",
    "lng": "9.81448",
    "arrival": "2023-09-27T00:42:00Z",
    "departure": "2023-09-27T00:52:00Z"
  },
  {
    "train_number": "55440 ",
    "unit_number": "1016.0021",
    "name": "Landeck-Zams",
    "abbr": "Le  ",
    "lat": "47.148",
    "lng": "10.5782",
    "arrival": "2023-09-26T23:37:00Z",
    "departure": "2023-09-26T23:45:00Z"
  },
  {
    "train_number": "55440 ",
    "unit_number": "1016.0021",
    "name": "Imst-Pitztal",
    "abbr": "Im  ",
    "lat": "47.219",
    "lng": "10.7619",
    "arrival": null,
    "departure": "2023-09-26T23:22:00Z"
  },
  {
    "train_number": "55440 ",
    "unit_number": "1016.0021",
    "name": "Innsbruck Hbf  (in I)",
    "abbr": "I   ",
    "lat": "47.2634",
    "lng": "11.4017",
    "arrival": "2023-09-26T22:33:00Z",
    "departure": "2023-09-26T22:40:00Z"
  },
  {
    "train_number": "54445 ",
    "unit_number": "1016.0021",
    "name": "Hall in Tirol",
    "abbr": "H   ",
    "lat": "47.2769",
    "lng": "11.5013",
    "arrival": "2023-09-26T19:24:00Z",
    "departure": "2023-09-26T22:22:00Z"
  },
  {
    "train_number": "54445 ",
    "unit_number": "1016.0021",
    "name": "Innsbruck Hbf  (in I)",
    "abbr": "I   ",
    "lat": "47.2634",
    "lng": "11.4017",
    "arrival": "2023-09-26T19:12:00Z",
    "departure": "2023-09-26T19:15:00Z"
  },
  {
    "train_number": "54445 ",
    "unit_number": "1016.0021",
    "name": "Imst-Pitztal",
    "abbr": "Im  ",
    "lat": "47.219",
    "lng": "10.7619",
    "arrival": "2023-09-26T18:21:00Z",
    "departure": "2023-09-26T18:31:00Z"
  },
  {
    "train_number": "54445 ",
    "unit_number": "1016.0021",
    "name": "Landeck-Zams",
    "abbr": "Le  ",
    "lat": "47.148",
    "lng": "10.5782",
    "arrival": "2023-09-26T17:20:00Z",
    "departure": "2023-09-26T18:06:00Z"
  },
  {
    "train_number": "54445 ",
    "unit_number": "1016.0021",
    "name": "Bludenz",
    "abbr": "B   ",
    "lat": "47.155",
    "lng": "9.81448",
    "arrival": "2023-09-26T15:56:00Z",
    "departure": "2023-09-26T16:12:00Z"
  },
  {
    "train_number": "54445 ",
    "unit_number": "1016.0021",
    "name": "Feldkirch",
    "abbr": "Fk  ",
    "lat": "47.2417",
    "lng": "9.60519",
    "arrival": null,
    "departure": "2023-09-26T15:34:00Z"
  },
  {
    "train_number": "54445 ",
    "unit_number": "1016.0021",
    "name": "Dornbirn (in Do)",
    "abbr": "Do  ",
    "lat": "47.4176",
    "lng": "9.73871",
    "arrival": null,
    "departure": "2023-09-26T15:10:00Z"
  },
  {
    "train_number": "59441 ",
    "unit_number": "1016.0021",
    "name": "Wolfurt (in Wo)",
    "abbr": "Wo  ",
    "lat": "47.457",
    "lng": "9.74133",
    "arrival": "2023-09-26T07:22:00Z",
    "departure": "2023-09-26T15:03:00Z"
  },
  {
    "train_number": "59441 ",
    "unit_number": "1016.0021",
    "name": "Dornbirn (in Do)",
    "abbr": "Do  ",
    "lat": "47.4176",
    "lng": "9.73871",
    "arrival": null,
    "departure": "2023-09-26T07:15:00Z"
  },
  {
    "train_number": "59441 ",
    "unit_number": "1016.0021",
    "name": "Feldkirch",
    "abbr": "Fk  ",
    "lat": "47.2417",
    "lng": "9.60519",
    "arrival": null,
    "departure": "2023-09-26T06:53:00Z"
  },
  {
    "train_number": "59441 ",
    "unit_number": "1016.0021",
    "name": "Bludenz",
    "abbr": "B   ",
    "lat": "47.155",
    "lng": "9.81448",
    "arrival": "2023-09-26T05:51:00Z",
    "departure": "2023-09-26T06:35:00Z"
  },
  {
    "train_number": "59441 ",
    "unit_number": "1016.0021",
    "name": "Landeck-Zams",
    "abbr": "Le  ",
    "lat": "47.148",
    "lng": "10.5782",
    "arrival": "2023-09-26T04:08:00Z",
    "departure": "2023-09-26T04:36:00Z"
  },
  {
    "train_number": "59441 ",
    "unit_number": "1016.0021",
    "name": "Imst-Pitztal",
    "abbr": "Im  ",
    "lat": "47.219",
    "lng": "10.7619",
    "arrival": "2023-09-26T03:40:00Z",
    "departure": "2023-09-26T03:51:00Z"
  },
  {
    "train_number": "59441 ",
    "unit_number": "1016.0021",
    "name": "Innsbruck Hbf  (in I)",
    "abbr": "I   ",
    "lat": "47.2634",
    "lng": "11.4017",
    "arrival": "2023-09-26T02:05:00Z",
    "departure": "2023-09-26T02:43:00Z"
  }
]
