[
  {
    "train_number": "42249 ",
    "unit_number": "1016.0021",
    "name": "Tarvisio Boscoverde",
    "abbr": "Tbv ",
    "lat": "46.5059",
    "lng": "13.6081",
    "arrival": "2023-10-22T02:08:00Z",
    "departure": "2023-10-22T03:11:00Z"
  },
  {
    "train_number": "42249 ",
    "unit_number": "1016.0021",
    "name": "Villach Westbf",
    "abbr": "Vf  ",
    "lat": "46.6092",
    "lng": "13.8407",
    "arrival": "2023-10-22T01:11:00Z",
    "departure": "2023-10-22T01:42:00Z"
  },
  {
    "train_number": "54858 ",
    "unit_number": "1016.0021",
    "name": "Schwarzach-St.Veit",
    "abbr": "Swa ",
    "lat": "47.3186",
    "lng": "13.1561",
    "arrival": "2023-10-21T21:42:00Z",
    "departure": "2023-10-21T23:28:00Z"
  },
  {
    "train_number": null,
    "unit_number": "1016.0021",
    "name": "Villach Süd Gvbf Ausfgr",
    "abbr": "Va  ",
    "lat": "46.5674",
    "lng": "13.8238",
    "arrival": null,
    "departure": "2023-10-21T19:52:00Z"
  },
  {
    "train_number": "45422 ",
    "unit_number": "1016.0021",
    "name": "Rosenbach",
    "abbr": "Rn  ",
    "lat": "46.5309",
    "lng": "14.0354",
    "arrival": null,
    "departure": "2023-10-21T12:51:00Z"
  },
  {
    "train_number": "45419 ",
    "unit_number": "1016.0021",
    "name": "Rosenbach",
    "abbr": "Rn  ",
    "lat": "46.5309",
    "lng": "14.0354",
    "arrival": null,
    "departure": "2023-10-21T07:34:00Z"
  },
  {
    "train_number": null,
    "unit_number": "1016.0021",
    "name": "Villach Süd Gvbf Ausfgr",
    "abbr": "Va  ",
    "lat": "46.5674",
    "lng": "13.8238",
    "arrival": null,
    "departure": "2023-10-21T07:16:00Z"
  }
]
