[
  {
    "train_number": "45706 ",
    "unit_number": "1016.0021",
    "name": "Buchs (SG)",
    "abbr": "Bc  ",
    "lat": "47.171",
    "lng": "9.4779",
    "arrival": "2023-09-14T18:45:00Z",
    "departure": "2023-09-15T03:20:00Z"
  },
  {
    "train_number": "45706 ",
    "unit_number": "1016.0021",
    "name": "Feldkirch",
    "abbr": "Fk  ",
    "lat": "47.2417",
    "lng": "9.60519",
    "arrival": "2023-09-14T18:23:00Z",
    "departure": "2023-09-14T18:26:00Z"
  },
  {
    "train_number": "45706 ",
    "unit_number": "1016.0021",
    "name": "Bludenz",
    "abbr": "B   ",
    "lat": "47.155",
    "lng": "9.81448",
    "arrival": "2023-09-14T17:50:00Z",
    "departure": "2023-09-14T18:05:00Z"
  },
  {
    "train_number": "45706 ",
    "unit_number": "1016.0021",
    "name": "Landeck-Zams",
    "abbr": "Le  ",
    "lat": "47.148",
    "lng": "10.5782",
    "arrival": "2023-09-14T16:40:00Z",
    "departure": "2023-09-14T16:43:00Z"
  },
  {
    "train_number": "45706 ",
    "unit_number": "1016.0021",
    "name": "Imst-Pitztal",
    "abbr": "Im  ",
    "lat": "47.219",
    "lng": "10.7619",
    "arrival": "2023-09-14T16:14:00Z",
    "departure": "2023-09-14T16:23:00Z"
  },
  {
    "train_number": "45706 ",
    "unit_number": "1016.0021",
    "name": "Innsbruck Hbf  (in I)",
    "abbr": "I   ",
    "lat": "47.2634",
    "lng": "11.4017",
    "arrival": "2023-09-14T15:00:00Z",
    "departure": "2023-09-14T15:20:00Z"
  },
  {
    "train_number": "65447 ",
    "unit_number": "1016.0021",
    "name": "Hall in Tirol",
    "abbr": "H   ",
    "lat": "47.2769",
    "lng": "11.5013",
    "arrival": "2023-09-14T12:20:00Z",
    "departure": "2023-09-14T14:49:00Z"
  },
  {
    "train_number": "41972 ",
    "unit_number": "1016.0021",
    "name": "Innsbruck Hbf  (in I)",
    "abbr": "I   ",
    "lat": "47.2634",
    "lng": "11.4017",
    "arrival": "2023-09-14T10:42:00Z",
    "departure": "2023-09-14T12:09:00Z"
  },
  {
    "train_number": "41972 ",
    "unit_number": "1016.0021",
    "name": "Imst-Pitztal",
    "abbr": "Im  ",
    "lat": "47.219",
    "lng": "10.7619",
    "arrival": "2023-09-14T09:55:00Z",
    "departure": "2023-09-14T09:58:00Z"
  },
  {
    "train_number": "41972 ",
    "unit_number": "1016.0021",
    "name": "Landeck-Zams",
    "abbr": "Le  ",
    "lat": "47.148",
    "lng": "10.5782",
    "arrival": "2023-09-14T09:19:00Z",
    "departure": "2023-09-14T09:34:00Z"
  },
  {
    "train_number": "41972 ",
    "unit_number": "1016.0021",
    "name": "Bludenz",
    "abbr": "B   ",
    "lat": "47.155",
    "lng": "9.81448",
    "arrival": "2023-09-14T07:37:00Z",
    "departure": "2023-09-14T07:52:00Z"
  },
  {
    "train_number": "41972 ",
    "unit_number": "1016.0021",
    "name": "Feldkirch",
    "abbr": "Fk  ",
    "lat": "47.2417",
    "lng": "9.60519",
    "arrival": "2023-09-14T07:06:00Z",
    "departure": "2023-09-14T07:20:00Z"
  },
  {
    "train_number": "41972 ",
    "unit_number": "1016.0021",
    "name": "Dornbirn (in Do)",
    "abbr": "Do  ",
    "lat": "47.4176",
    "lng": "9.73871",
    "arrival": null,
    "departure": "2023-09-14T06:44:00Z"
  },
  {
    "train_number": "49119 ",
    "unit_number": "1016.0021",
    "name": "Wolfurt (in Wo)",
    "abbr": "Wo  ",
    "lat": "47.457",
    "lng": "9.74133",
    "arrival": "2023-09-13T22:41:00Z",
    "departure": "2023-09-14T06:37:00Z"
  }
]
