[
  {
    "train_number": "54447 ",
    "unit_number": "1016.0021",
    "name": "Landeck-Zams",
    "abbr": "Le  ",
    "lat": "47.148",
    "lng": "10.5782",
    "arrival": "2023-09-27T19:20:00Z",
    "departure": "2023-09-27T19:34:00Z"
  },
  {
    "train_number": "54447 ",
    "unit_number": "1016.0021",
    "name": "Bludenz",
    "abbr": "B   ",
    "lat": "47.155",
    "lng": "9.81448",
    "arrival": "2023-09-27T17:55:00Z",
    "departure": "2023-09-27T18:12:00Z"
  },
  {
    "train_number": "54447 ",
    "unit_number": "1016.0021",
    "name": "Feldkirch",
    "abbr": "Fk  ",
    "lat": "47.2417",
    "lng": "9.60519",
    "arrival": null,
    "departure": "2023-09-27T17:37:00Z"
  },
  {
    "train_number": "54447 ",
    "unit_number": "1016.0021",
    "name": "Dornbirn (in Do)",
    "abbr": "Do  ",
    "lat": "47.4176",
    "lng": "9.73871",
    "arrival": null,
    "departure": "2023-09-27T17:15:00Z"
  },
  {
    "train_number": "55442 ",
    "unit_number": "1016.0021",
    "name": "Wolfurt (in Wo)",
    "abbr": "Wo  ",
    "lat": "47.457",
    "lng": "9.74133",
    "arrival": "2023-09-27T15:52:00Z",
    "departure": "2023-09-27T17:09:00Z"
  },
  {
    "train_number": "55442 ",
    "unit_number": "1016.0021",
    "name": "Dornbirn (in Do)",
    "abbr": "Do  ",
    "lat": "47.4176",
    "lng": "9.73871",
    "arrival": null,
    "departure": "2023-09-27T15:45:00Z"
  },
  {
    "train_number": "55442 ",
    "unit_number": "1016.0021",
    "name": "Feldkirch",
    "abbr": "Fk  ",
    "lat": "47.2417",
    "lng": "9.60519",
    "arrival": null,
    "departure": "2023-09-27T15:22:00Z"
  },
  {
    "train_number": "55442 ",
    "unit_number": "1016.0021",
    "name": "Bludenz",
    "abbr": "B   ",
    "lat": "47.155",
    "lng": "9.81448",
    "arrival": "2023-09-27T14:52:00Z",
    "departure": "2023-09-27T15:05:00Z"
  },
  {
    "train_number": "55442 ",
    "unit_number": "1016.0021",
    "name": "Landeck-Zams",
    "abbr": "Le  ",
    "lat": "47.148",
    "lng": "10.5782",
    "arrival": "2023-09-27T13:20:00Z",
    "departure": "2023-09-27T13:37:00Z"
  },
  {
    "train_number": "55442 ",
    "unit_number": "1016.0021",
    "name": "Imst-Pitztal",
    "abbr": "Im  ",
    "lat": "47.219",
    "lng": "10.7619",
    "arrival": null,
    "departure": "2023-09-27T12:58:00Z"
  },
  {
    "train_number": "55442 ",
    "unit_number": "1016.0021",
    "name": "Innsbruck Hbf  (in I)",
    "abbr": "I   ",
    "lat": "47.2634",
    "lng": "11.4017",
    "arrival": "2023-09-27T12:05:00Z",
    "departure": "2023-09-27T12:15:00Z"
  },
  {
    "train_number": "45701 ",
    "unit_number": "1016.0021",
    "name": "Hall in Tirol",
    "abbr": "H   ",
    "lat": "47.2769",
    "lng": "11.5013",
    "arrival": "2023-09-27T08:54:00Z",
    "departure": "2023-09-27T11:54:00Z"
  },
  {
    "train_number": "45701 ",
    "unit_number": "1016.0021",
    "name": "Innsbruck Hbf  (in I)",
    "abbr": "I   ",
    "lat": "47.2634",
    "lng": "11.4017",
    "arrival": "2023-09-27T08:41:00Z",
    "departure": "2023-09-27T08:44:00Z"
  },
  {
    "train_number": "45701 ",
    "unit_number": "1016.0021",
    "name": "Imst-Pitztal",
    "abbr": "Im  ",
    "lat": "47.219",
    "lng": "10.7619",
    "arrival": null,
    "departure": "2023-09-27T07:59:00Z"
  },
  {
    "train_number": "45701 ",
    "unit_number": "1016.0021",
    "name": "Landeck-Zams",
    "abbr": "Le  ",
    "lat": "47.148",
    "lng": "10.5782",
    "arrival": "2023-09-27T06:19:00Z",
    "departure": "2023-09-27T07:45:00Z"
  },
  {
    "train_number": "45701 ",
    "unit_number": "1016.0021",
    "name": "Bludenz",
    "abbr": "B   ",
    "lat": "47.155",
    "lng": "9.81448",
    "arrival": "2023-09-27T04:39:00Z",
    "departure": "2023-09-27T04:57:00Z"
  },
  {
    "train_number": "45701 ",
    "unit_number": "1016.0021",
    "name": "Feldkirch",
    "abbr": "Fk  ",
    "lat": "47.2417",
    "lng": "9.60519",
    "arrival": null,
    "departure": "2023-09-27T04:17:00Z"
  },
  {
    "train_number": "45702 ",
    "unit_number": "1016.0021",
    "name": "Buchs (SG)",
    "abbr": "Bc  ",
    "lat": "47.171",
    "lng": "9.4779",
    "arrival": "2023-09-27T02:48:00Z",
    "departure": "2023-09-27T03:58:00Z"
  },
  {
    "train_number": "45702 ",
    "unit_number": "1016.0021",
    "name": "Feldkirch",
    "abbr": "Fk  ",
    "lat": "47.2417",
    "lng": "9.60519",
    "arrival": "2023-09-27T02:30:00Z",
    "departure": "2023-09-27T02:32:00Z"
  },
  {
    "train_number": "45702 ",
    "unit_number": "1016.0021",
    "name": "Bludenz",
    "abbr": "B   ",
    "lat": "47.155",
    "lng": "9.81448",
    "arrival": "2023-09-27T02:02:00Z",
    "departure": "2023-09-27T02:15:00Z"
  }
]
