[
  {
    "train_number": "112   ",
    "unit_number": "1016.0021",
    "name": "München Hauptbahnhof",
    "abbr": "MH  ",
    "lat": "48.1399",
    "lng": "11.5604",
    "arrival": "2023-08-23T13:41:00Z",
    "departure": "2023-08-23T13:46:00Z"
  },
  {
    "train_number": "112   ",
    "unit_number": "1016.0021",
    "name": "Rosenheim",
    "abbr": "MRO ",
    "lat": "47.8511",
    "lng": "12.1196",
    "arrival": "2023-08-23T13:01:00Z",
    "departure": "2023-08-23T13:03:00Z"
  },
  {
    "train_number": "112   ",
    "unit_number": "1016.0021",
    "name": "Traunstein",
    "abbr": "MTS ",
    "lat": "47.8697",
    "lng": "12.6391",
    "arrival": "2023-08-23T12:24:00Z",
    "departure": "2023-08-23T12:26:00Z"
  },
  {
    "train_number": "112   ",
    "unit_number": "1016.0021",
    "name": "Freilassing",
    "abbr": "MFL ",
    "lat": "47.8368",
    "lng": "12.9764",
    "arrival": "2023-08-23T12:06:00Z",
    "departure": "2023-08-23T12:08:00Z"
  },
  {
    "train_number": "112   ",
    "unit_number": "1016.0021",
    "name": "Salzburg Liefering (in Sb)",
    "abbr": "Lfg ",
    "lat": "47.8229",
    "lng": "13.0021",
    "arrival": null,
    "departure": "2023-08-23T12:04:00Z"
  },
  {
    "train_number": null,
    "unit_number": "1016.0021",
    "name": "Salzburg Hbf (in Sb)",
    "abbr": "Sb  ",
    "lat": "47.8135",
    "lng": "13.0466",
    "arrival": null,
    "departure": "2023-08-23T12:00:00Z"
  },
  {
    "train_number": "54394 ",
    "unit_number": "1016.0021",
    "name": "Steindorf b.Straßw. (in Nst)",
    "abbr": "Nst ",
    "lat": "47.9676",
    "lng": "13.2406",
    "arrival": null,
    "departure": "2023-08-23T08:07:00Z"
  },
  {
    "train_number": "54394 ",
    "unit_number": "1016.0021",
    "name": "Attnang-Puchheim",
    "abbr": "At  ",
    "lat": "48.0112",
    "lng": "13.7193",
    "arrival": null,
    "departure": "2023-08-23T07:34:00Z"
  },
  {
    "train_number": "54394 ",
    "unit_number": "1016.0021",
    "name": "Wels Hbf",
    "abbr": "We  ",
    "lat": "48.1662",
    "lng": "14.0273",
    "arrival": "2023-08-23T06:25:00Z",
    "departure": "2023-08-23T06:48:00Z"
  },
  {
    "train_number": "54394 ",
    "unit_number": "1016.0021",
    "name": "Linz Hbf",
    "abbr": "Lz  ",
    "lat": "48.2908",
    "lng": "14.2927",
    "arrival": null,
    "departure": "2023-08-23T06:04:00Z"
  },
  {
    "train_number": null,
    "unit_number": "1016.0021",
    "name": "Linz Vbf-Ost Reih. (in Lzv)",
    "abbr": "Lo  ",
    "lat": "48.2607",
    "lng": "14.2927",
    "arrival": null,
    "departure": "2023-08-23T05:56:00Z"
  },
  {
    "train_number": "54841 ",
    "unit_number": "1016.0021",
    "name": "Wels Vbf-Einfgr (in Wev)",
    "abbr": "Wei ",
    "lat": "48.1765",
    "lng": "14.0501",
    "arrival": "2023-08-23T03:13:00Z",
    "departure": "2023-08-23T03:18:00Z"
  },
  {
    "train_number": "54841 ",
    "unit_number": "1016.0021",
    "name": "Wels Hbf",
    "abbr": "We  ",
    "lat": "48.1662",
    "lng": "14.0273",
    "arrival": null,
    "departure": "2023-08-23T03:11:00Z"
  },
  {
    "train_number": "54841 ",
    "unit_number": "1016.0021",
    "name": "Attnang-Puchheim",
    "abbr": "At  ",
    "lat": "48.0112",
    "lng": "13.7193",
    "arrival": null,
    "departure": "2023-08-23T02:47:00Z"
  },
  {
    "train_number": "54841 ",
    "unit_number": "1016.0021",
    "name": "Wels Vbf (in Wev)",
    "abbr": "Wev ",
    "lat": "48.1662",
    "lng": "14.0273",
    "arrival": "2023-08-23T03:21:00Z",
    "departure": "2023-08-23T01:54:00Z"
  }
]
