[
  {
    "train_number": "55446 ",
    "unit_number": "1016.0021",
    "name": "Dornbirn (in Do)",
    "abbr": "Do  ",
    "lat": "47.4176",
    "lng": "9.73871",
    "arrival": null,
    "departure": "2023-09-13T20:39:00Z"
  },
  {
    "train_number": "55446 ",
    "unit_number": "1016.0021",
    "name": "Feldkirch",
    "abbr": "Fk  ",
    "lat": "47.2417",
    "lng": "9.60519",
    "arrival": "2023-09-13T20:08:00Z",
    "departure": "2023-09-13T20:20:00Z"
  },
  {
    "train_number": "55446 ",
    "unit_number": "1016.0021",
    "name": "Bludenz",
    "abbr": "B   ",
    "lat": "47.155",
    "lng": "9.81448",
    "arrival": "2023-09-13T19:41:00Z",
    "departure": "2023-09-13T19:51:00Z"
  },
  {
    "train_number": "55446 ",
    "unit_number": "1016.0021",
    "name": "Landeck-Zams",
    "abbr": "Le  ",
    "lat": "47.148",
    "lng": "10.5782",
    "arrival": "2023-09-13T18:27:00Z",
    "departure": "2023-09-13T18:43:00Z"
  },
  {
    "train_number": "55446 ",
    "unit_number": "1016.0021",
    "name": "Imst-Pitztal",
    "abbr": "Im  ",
    "lat": "47.219",
    "lng": "10.7619",
    "arrival": null,
    "departure": "2023-09-13T17:57:00Z"
  },
  {
    "train_number": "55446 ",
    "unit_number": "1016.0021",
    "name": "Innsbruck Hbf  (in I)",
    "abbr": "I   ",
    "lat": "47.2634",
    "lng": "11.4017",
    "arrival": "2023-09-13T17:05:00Z",
    "departure": "2023-09-13T17:12:00Z"
  },
  {
    "train_number": "45705 ",
    "unit_number": "1016.0021",
    "name": "Hall in Tirol",
    "abbr": "H   ",
    "lat": "47.2769",
    "lng": "11.5013",
    "arrival": "2023-09-13T16:04:00Z",
    "departure": "2023-09-13T16:54:00Z"
  },
  {
    "train_number": "45705 ",
    "unit_number": "1016.0021",
    "name": "Innsbruck Hbf  (in I)",
    "abbr": "I   ",
    "lat": "47.2634",
    "lng": "11.4017",
    "arrival": "2023-09-13T15:20:00Z",
    "departure": "2023-09-13T15:55:00Z"
  },
  {
    "train_number": "45705 ",
    "unit_number": "1016.0021",
    "name": "Imst-Pitztal",
    "abbr": "Im  ",
    "lat": "47.219",
    "lng": "10.7619",
    "arrival": null,
    "departure": "2023-09-13T14:08:00Z"
  },
  {
    "train_number": "45705 ",
    "unit_number": "1016.0021",
    "name": "Landeck-Zams",
    "abbr": "Le  ",
    "lat": "47.148",
    "lng": "10.5782",
    "arrival": "2023-09-13T13:32:00Z",
    "departure": "2023-09-13T13:51:00Z"
  },
  {
    "train_number": "45705 ",
    "unit_number": "1016.0021",
    "name": "Bludenz",
    "abbr": "B   ",
    "lat": "47.155",
    "lng": "9.81448",
    "arrival": "2023-09-13T12:09:00Z",
    "departure": "2023-09-13T12:34:00Z"
  },
  {
    "train_number": "45705 ",
    "unit_number": "1016.0021",
    "name": "Feldkirch",
    "abbr": "Fk  ",
    "lat": "47.2417",
    "lng": "9.60519",
    "arrival": "2023-09-13T11:43:00Z",
    "departure": "2023-09-13T11:49:00Z"
  },
  {
    "train_number": "45704 ",
    "unit_number": "1016.0021",
    "name": "Buchs (SG)",
    "abbr": "Bc  ",
    "lat": "47.171",
    "lng": "9.4779",
    "arrival": "2023-09-13T08:45:00Z",
    "departure": "2023-09-13T11:24:00Z"
  },
  {
    "train_number": "45704 ",
    "unit_number": "1016.0021",
    "name": "Feldkirch",
    "abbr": "Fk  ",
    "lat": "47.2417",
    "lng": "9.60519",
    "arrival": "2023-09-13T08:26:00Z",
    "departure": "2023-09-13T08:28:00Z"
  },
  {
    "train_number": "45704 ",
    "unit_number": "1016.0021",
    "name": "Bludenz",
    "abbr": "B   ",
    "lat": "47.155",
    "lng": "9.81448",
    "arrival": "2023-09-13T07:51:00Z",
    "departure": "2023-09-13T08:04:00Z"
  },
  {
    "train_number": "45704 ",
    "unit_number": "1016.0021",
    "name": "Landeck-Zams",
    "abbr": "Le  ",
    "lat": "47.148",
    "lng": "10.5782",
    "arrival": "2023-09-13T06:10:00Z",
    "departure": "2023-09-13T06:37:00Z"
  },
  {
    "train_number": "45704 ",
    "unit_number": "1016.0021",
    "name": "Imst-Pitztal",
    "abbr": "Im  ",
    "lat": "47.219",
    "lng": "10.7619",
    "arrival": "2023-09-13T05:38:00Z",
    "departure": "2023-09-13T05:51:00Z"
  },
  {
    "train_number": "45704 ",
    "unit_number": "1016.0021",
    "name": "Innsbruck Hbf  (in I)",
    "abbr": "I   ",
    "lat": "47.2634",
    "lng": "11.4017",
    "arrival": "2023-09-13T04:45:00Z",
    "departure": "2023-09-13T04:51:00Z"
  },
  {
    "train_number": "88411 ",
    "unit_number": "1016.0021",
    "name": "Hall in Tirol",
    "abbr": "H   ",
    "lat": "47.2769",
    "lng": "11.5013",
    "arrival": "2023-09-13T03:51:00Z",
    "departure": "2023-09-13T04:34:00Z"
  },
  {
    "train_number": "88406 ",
    "unit_number": "1016.0021",
    "name": "Innsbruck Hbf  (in I)",
    "abbr": "I   ",
    "lat": "47.2634",
    "lng": "11.4017",
    "arrival": "2023-09-13T01:09:00Z",
    "departure": "2023-09-13T03:43:00Z"
  }
]
