[
  {
    "train_number": "45850 ",
    "unit_number": "1016.0021",
    "name": "Wolfurt (in Wo)",
    "abbr": "Wo  ",
    "lat": "47.457",
    "lng": "9.74133",
    "arrival": "2023-08-30T02:39:00Z",
    "departure": "2023-08-30T07:39:00Z"
  },
  {
    "train_number": "45850 ",
    "unit_number": "1016.0021",
    "name": "Dornbirn (in Do)",
    "abbr": "Do  ",
    "lat": "47.4176",
    "lng": "9.73871",
    "arrival": null,
    "departure": "2023-08-30T02:34:00Z"
  },
  {
    "train_number": "45850 ",
    "unit_number": "1016.0021",
    "name": "Feldkirch",
    "abbr": "Fk  ",
    "lat": "47.2417",
    "lng": "9.60519",
    "arrival": null,
    "departure": "2023-08-30T02:17:00Z"
  },
  {
    "train_number": "45850 ",
    "unit_number": "1016.0021",
    "name": "Bludenz",
    "abbr": "B   ",
    "lat": "47.155",
    "lng": "9.81448",
    "arrival": "2023-08-30T01:55:00Z",
    "departure": "2023-08-30T02:00:00Z"
  },
  {
    "train_number": "45850 ",
    "unit_number": "1016.0021",
    "name": "Landeck-Zams",
    "abbr": "Le  ",
    "lat": "47.148",
    "lng": "10.5782",
    "arrival": null,
    "departure": "2023-08-30T00:59:00Z"
  },
  {
    "train_number": "45850 ",
    "unit_number": "1016.0021",
    "name": "Imst-Pitztal",
    "abbr": "Im  ",
    "lat": "47.219",
    "lng": "10.7619",
    "arrival": null,
    "departure": "2023-08-30T00:40:00Z"
  },
  {
    "train_number": "64452 ",
    "unit_number": "1016.0021",
    "name": "Innsbruck Hbf  (in I)",
    "abbr": "I   ",
    "lat": "47.2634",
    "lng": "11.4017",
    "arrival": "2023-08-29T15:50:00Z",
    "departure": "2023-08-29T23:59:00Z"
  },
  {
    "train_number": "54443 ",
    "unit_number": "1016.0021",
    "name": "Hall in Tirol",
    "abbr": "H   ",
    "lat": "47.2769",
    "lng": "11.5013",
    "arrival": "2023-08-29T14:04:00Z",
    "departure": "2023-08-29T15:39:00Z"
  },
  {
    "train_number": "54443 ",
    "unit_number": "1016.0021",
    "name": "Innsbruck Hbf  (in I)",
    "abbr": "I   ",
    "lat": "47.2634",
    "lng": "11.4017",
    "arrival": "2023-08-29T13:42:00Z",
    "departure": "2023-08-29T13:55:00Z"
  },
  {
    "train_number": "54443 ",
    "unit_number": "1016.0021",
    "name": "Imst-Pitztal",
    "abbr": "Im  ",
    "lat": "47.219",
    "lng": "10.7619",
    "arrival": "2023-08-29T12:57:00Z",
    "departure": "2023-08-29T12:59:00Z"
  },
  {
    "train_number": "54443 ",
    "unit_number": "1016.0021",
    "name": "Landeck-Zams",
    "abbr": "Le  ",
    "lat": "47.148",
    "lng": "10.5782",
    "arrival": "2023-08-29T12:32:00Z",
    "departure": "2023-08-29T12:38:00Z"
  },
  {
    "train_number": "54443 ",
    "unit_number": "1016.0021",
    "name": "Bludenz",
    "abbr": "B   ",
    "lat": "47.155",
    "lng": "9.81448",
    "arrival": "2023-08-29T11:14:00Z",
    "departure": "2023-08-29T11:34:00Z"
  },
  {
    "train_number": "54443 ",
    "unit_number": "1016.0021",
    "name": "Feldkirch",
    "abbr": "Fk  ",
    "lat": "47.2417",
    "lng": "9.60519",
    "arrival": "2023-08-29T10:36:00Z",
    "departure": "2023-08-29T10:54:00Z"
  },
  {
    "train_number": "54443 ",
    "unit_number": "1016.0021",
    "name": "Dornbirn (in Do)",
    "abbr": "Do  ",
    "lat": "47.4176",
    "lng": "9.73871",
    "arrival": null,
    "departure": "2023-08-29T10:15:00Z"
  },
  {
    "train_number": null,
    "unit_number": "1016.0021",
    "name": "Wolfurt (in Wo)",
    "abbr": "Wo  ",
    "lat": "47.457",
    "lng": "9.74133",
    "arrival": null,
    "departure": "2023-08-29T10:07:00Z"
  }
]
