[
  {
    "train_number": null,
    "unit_number": "1016.0021",
    "name": "Linz Vbf-Ost Reih. (in Lzv)",
    "abbr": "Lo  ",
    "lat": "48.2718",
    "lng": "14.3196",
    "arrival": null,
    "departure": "2023-10-24T02:13:00Z"
  },
  {
    "train_number": "54958 ",
    "unit_number": "1016.0021",
    "name": "Enns",
    "abbr": "Ens ",
    "lat": "48.2212",
    "lng": "14.4668",
    "arrival": null,
    "departure": "2023-10-24T00:38:00Z"
  },
  {
    "train_number": "54958 ",
    "unit_number": "1016.0021",
    "name": "St.Valentin (in Sv)",
    "abbr": "Sv  ",
    "lat": "48.1784",
    "lng": "14.5219",
    "arrival": "2023-10-24T00:33:00Z",
    "departure": "2023-10-24T00:33:00Z"
  },
  {
    "train_number": "54958 ",
    "unit_number": "1016.0021",
    "name": "Selzthal (in Sl)",
    "abbr": "Sl  ",
    "lat": "47.5505",
    "lng": "14.3134",
    "arrival": "2023-10-23T21:59:00Z",
    "departure": "2023-10-23T22:22:00Z"
  },
  {
    "train_number": "54958 ",
    "unit_number": "1016.0021",
    "name": "St.Michael (in M)",
    "abbr": "M   ",
    "lat": "47.3445",
    "lng": "15.0103",
    "arrival": null,
    "departure": "2023-10-23T21:10:00Z"
  },
  {
    "train_number": "54958 ",
    "unit_number": "1016.0021",
    "name": "Zeltweg",
    "abbr": "Zg  ",
    "lat": "47.1887",
    "lng": "14.7425",
    "arrival": null,
    "departure": "2023-10-23T20:39:00Z"
  },
  {
    "train_number": "54958 ",
    "unit_number": "1016.0021",
    "name": "St.Veit a.d.Glan (in Vps)",
    "abbr": "Vps ",
    "lat": "46.7704",
    "lng": "14.3672",
    "arrival": null,
    "departure": "2023-10-23T19:17:00Z"
  },
  {
    "train_number": "54958 ",
    "unit_number": "1016.0021",
    "name": "Klagenfurt Hbf (in Kt)",
    "abbr": "Kt  ",
    "lat": "46.6156",
    "lng": "14.3137",
    "arrival": null,
    "departure": "2023-10-23T18:59:00Z"
  },
  {
    "train_number": "54958 ",
    "unit_number": "1016.0021",
    "name": "Villach Hbf",
    "abbr": "Vb  ",
    "lat": "46.6186",
    "lng": "13.8484",
    "arrival": null,
    "departure": "2023-10-23T18:29:00Z"
  },
  {
    "train_number": null,
    "unit_number": "1016.0021",
    "name": "Villach Süd Gvbf Ausfgr",
    "abbr": "Va  ",
    "lat": "46.5674",
    "lng": "13.8238",
    "arrival": null,
    "departure": "2023-10-23T18:18:00Z"
  },
  {
    "train_number": "89320 ",
    "unit_number": "1016.0021",
    "name": "Rosenbach",
    "abbr": "Rn  ",
    "lat": "46.5309",
    "lng": "14.0354",
    "arrival": null,
    "departure": "2023-10-23T16:36:00Z"
  },
  {
    "train_number": "45427 ",
    "unit_number": "1016.0021",
    "name": "Rosenbach",
    "abbr": "Rn  ",
    "lat": "46.5309",
    "lng": "14.0354",
    "arrival": null,
    "departure": "2023-10-23T15:49:00Z"
  },
  {
    "train_number": null,
    "unit_number": "1016.0021",
    "name": "Villach Süd Gvbf Ausfgr",
    "abbr": "Va  ",
    "lat": "46.5674",
    "lng": "13.8238",
    "arrival": null,
    "departure": "2023-10-23T15:28:00Z"
  },
  {
    "train_number": "45422 ",
    "unit_number": "1016.0021",
    "name": "Rosenbach",
    "abbr": "Rn  ",
    "lat": "46.5309",
    "lng": "14.0354",
    "arrival": null,
    "departure": "2023-10-23T12:51:00Z"
  },
  {
    "train_number": "45419 ",
    "unit_number": "1016.0021",
    "name": "Rosenbach",
    "abbr": "Rn  ",
    "lat": "46.5309",
    "lng": "14.0354",
    "arrival": null,
    "departure": "2023-10-23T07:34:00Z"
  },
  {
    "train_number": null,
    "unit_number": "1016.0021",
    "name": "Villach Süd Gvbf Ausfgr",
    "abbr": "Va  ",
    "lat": "46.5674",
    "lng": "13.8238",
    "arrival": null,
    "departure": "2023-10-23T07:16:00Z"
  }
]
