[
  {
    "train_number": "55933 ",
    "unit_number": "1016.0021",
    "name": "Linz Hbf",
    "abbr": "Lz  ",
    "lat": "48.2908",
    "lng": "14.2927",
    "arrival": null,
    "departure": "2023-10-15T15:19:00Z"
  },
  {
    "train_number": "55933 ",
    "unit_number": "1016.0021",
    "name": "Wels Hbf",
    "abbr": "We  ",
    "lat": "48.1662",
    "lng": "14.0273",
    "arrival": null,
    "departure": "2023-10-15T14:40:00Z"
  },
  {
    "train_number": "55933 ",
    "unit_number": "1016.0021",
    "name": "Attnang-Puchheim",
    "abbr": "At  ",
    "lat": "48.0112",
    "lng": "13.7193",
    "arrival": null,
    "departure": "2023-10-15T14:19:00Z"
  },
  {
    "train_number": "55933 ",
    "unit_number": "1016.0021",
    "name": "Steindorf b.Straßw. (in Nst)",
    "abbr": "Nst ",
    "lat": "47.9676",
    "lng": "13.2406",
    "arrival": null,
    "departure": "2023-10-15T13:47:00Z"
  },
  {
    "train_number": "41422 ",
    "unit_number": "1016.0021",
    "name": "Salzburg Gnigl-Vbf (in Sb)",
    "abbr": "Sr  ",
    "lat": "47.8167",
    "lng": "13.0639",
    "arrival": "2023-10-15T10:14:00Z",
    "departure": "2023-10-15T13:22:00Z"
  },
  {
    "train_number": "41422 ",
    "unit_number": "1016.0021",
    "name": "Salzburg Gnigl-Einfgr. (in Sb)",
    "abbr": "Sre ",
    "lat": "47.8075",
    "lng": "13.0687",
    "arrival": null,
    "departure": "2023-10-15T10:11:00Z"
  },
  {
    "train_number": "41422 ",
    "unit_number": "1016.0021",
    "name": "Bischofshofen (in Bo)",
    "abbr": "Bo  ",
    "lat": "47.42",
    "lng": "13.2199",
    "arrival": null,
    "departure": "2023-10-15T09:29:00Z"
  },
  {
    "train_number": "41422 ",
    "unit_number": "1016.0021",
    "name": "Schwarzach-St.Veit",
    "abbr": "Swa ",
    "lat": "47.3186",
    "lng": "13.1561",
    "arrival": "2023-10-15T08:25:00Z",
    "departure": "2023-10-15T09:14:00Z"
  },
  {
    "train_number": "89201 ",
    "unit_number": "1016.0021",
    "name": "Villach Süd Gvbf Ausfgr",
    "abbr": "Va  ",
    "lat": "46.5674",
    "lng": "13.8238",
    "arrival": "2023-10-14T22:28:00Z",
    "departure": "2023-10-15T06:34:00Z"
  }
]
