[
  {
    "train_number": "61    ",
    "unit_number": "1116.0249",
    "name": "Wien Meidling (in Wbf)",
    "abbr": "Mi  ",
    "lat": "48.1747",
    "lng": "16.3348",
    "arrival": "2023-10-07T09:25:00Z",
    "departure": "2023-10-07T09:27:00Z"
  },
  {
    "train_number": "61    ",
    "unit_number": "1116.0249",
    "name": "St.Pölten Hbf (in Pb)",
    "abbr": "Pb  ",
    "lat": "48.2081",
    "lng": "15.6237",
    "arrival": "2023-10-07T09:01:00Z",
    "departure": "2023-10-07T09:03:00Z"
  },
  {
    "train_number": "61    ",
    "unit_number": "1116.0249",
    "name": "Pöchlarn",
    "abbr": "Poe ",
    "lat": "48.208",
    "lng": "15.2148",
    "arrival": null,
    "departure": "2023-10-07T08:49:00Z"
  },
  {
    "train_number": "61    ",
    "unit_number": "1116.0249",
    "name": "Ybbs a.d.Donau",
    "abbr": "Y   ",
    "lat": "48.158",
    "lng": "15.0981",
    "arrival": null,
    "departure": "2023-10-07T08:45:00Z"
  },
  {
    "train_number": "61    ",
    "unit_number": "1116.0249",
    "name": "Amstetten (in Ams)",
    "abbr": "Ams ",
    "lat": "48.1215",
    "lng": "14.8792",
    "arrival": null,
    "departure": "2023-10-07T08:40:00Z"
  },
  {
    "train_number": "61    ",
    "unit_number": "1116.0249",
    "name": "St.Valentin (in Sv)",
    "abbr": "Sv  ",
    "lat": "48.1784",
    "lng": "14.5219",
    "arrival": null,
    "departure": "2023-10-07T08:28:00Z"
  },
  {
    "train_number": "61    ",
    "unit_number": "1116.0249",
    "name": "Linz Hbf",
    "abbr": "Lz  ",
    "lat": "48.2908",
    "lng": "14.2927",
    "arrival": "2023-10-07T08:15:00Z",
    "departure": "2023-10-07T08:17:00Z"
  },
  {
    "train_number": "61    ",
    "unit_number": "1116.0249",
    "name": "Wels Hbf",
    "abbr": "We  ",
    "lat": "48.1662",
    "lng": "14.0273",
    "arrival": null,
    "departure": "2023-10-07T08:00:00Z"
  },
  {
    "train_number": "61    ",
    "unit_number": "1116.0249",
    "name": "Attnang-Puchheim",
    "abbr": "At  ",
    "lat": "48.0112",
    "lng": "13.7193",
    "arrival": null,
    "departure": "2023-10-07T07:48:00Z"
  },
  {
    "train_number": "61    ",
    "unit_number": "1116.0249",
    "name": "Steindorf b.Straßw. (in Nst)",
    "abbr": "Nst ",
    "lat": "47.9676",
    "lng": "13.2406",
    "arrival": null,
    "departure": "2023-10-07T07:23:00Z"
  },
  {
    "train_number": "861   ",
    "unit_number": "1116.0249",
    "name": "Salzburg Hbf (in Sb)",
    "abbr": "Sb  ",
    "lat": "47.8135",
    "lng": "13.0466",
    "arrival": "2023-10-07T07:02:00Z",
    "departure": "2023-10-07T07:07:00Z"
  },
  {
    "train_number": "861   ",
    "unit_number": "1116.0249",
    "name": "Salzburg Liefering (in Sb)",
    "abbr": "Lfg ",
    "lat": "47.8229",
    "lng": "13.0021",
    "arrival": null,
    "departure": "2023-10-07T06:58:00Z"
  },
  {
    "train_number": "861   ",
    "unit_number": "1116.0249",
    "name": "Freilassing",
    "abbr": "MFL ",
    "lat": "47.8368",
    "lng": "12.9764",
    "arrival": null,
    "departure": "2023-10-07T06:56:00Z"
  },
  {
    "train_number": "861   ",
    "unit_number": "1116.0249",
    "name": "Traunstein",
    "abbr": "MTS ",
    "lat": "47.8697",
    "lng": "12.6391",
    "arrival": null,
    "departure": "2023-10-07T06:40:00Z"
  },
  {
    "train_number": "861   ",
    "unit_number": "1116.0249",
    "name": "Kufstein",
    "abbr": "K   ",
    "lat": "47.5833",
    "lng": "12.1657",
    "arrival": null,
    "departure": "2023-10-07T05:52:00Z"
  },
  {
    "train_number": "861   ",
    "unit_number": "1116.0249",
    "name": "Wörgl Hbf (in W)",
    "abbr": "W   ",
    "lat": "47.4912",
    "lng": "12.0603",
    "arrival": "2023-10-07T05:42:00Z",
    "departure": "2023-10-07T05:45:00Z"
  },
  {
    "train_number": "861   ",
    "unit_number": "1116.0249",
    "name": "Wörgl Hbf-T. N. (in W)",
    "abbr": "Wtn ",
    "lat": "47.4824",
    "lng": "12.033",
    "arrival": null,
    "departure": "2023-10-07T05:40:00Z"
  },
  {
    "train_number": "861   ",
    "unit_number": "1116.0249",
    "name": "Jenbach",
    "abbr": "Jb  ",
    "lat": "47.3884",
    "lng": "11.7783",
    "arrival": "2023-10-07T05:28:00Z",
    "departure": "2023-10-07T05:30:00Z"
  },
  {
    "train_number": "861   ",
    "unit_number": "1116.0249",
    "name": "Hall in Tirol",
    "abbr": "H   ",
    "lat": "47.2769",
    "lng": "11.5013",
    "arrival": null,
    "departure": "2023-10-07T05:19:00Z"
  },
  {
    "train_number": "766   ",
    "unit_number": "1116.0249",
    "name": "Innsbruck Hbf  (in I)",
    "abbr": "I   ",
    "lat": "47.2634",
    "lng": "11.4017",
    "arrival": "2023-10-06T13:44:00Z",
    "departure": "2023-10-07T05:13:00Z"
  }
]
