[
  {
    "train_number": "797   ",
    "unit_number": "1116.0165",
    "name": "Linz Hbf",
    "abbr": "Lz  ",
    "lat": "48.2908",
    "lng": "14.2927",
    "arrival": "2023-10-10T17:30:00Z",
    "departure": "2023-10-10T17:32:00Z"
  },
  {
    "train_number": "797   ",
    "unit_number": "1116.0165",
    "name": "Wels Hbf",
    "abbr": "We  ",
    "lat": "48.1662",
    "lng": "14.0273",
    "arrival": "2023-10-10T17:14:00Z",
    "departure": "2023-10-10T17:16:00Z"
  },
  {
    "train_number": "797   ",
    "unit_number": "1116.0165",
    "name": "Attnang-Puchheim",
    "abbr": "At  ",
    "lat": "48.0112",
    "lng": "13.7193",
    "arrival": "2023-10-10T16:58:00Z",
    "departure": "2023-10-10T17:00:00Z"
  },
  {
    "train_number": "797   ",
    "unit_number": "1116.0165",
    "name": "Steindorf b.Straßw. (in Nst)",
    "abbr": "Nst ",
    "lat": "47.9676",
    "lng": "13.2406",
    "arrival": null,
    "departure": "2023-10-10T16:31:00Z"
  },
  {
    "train_number": "797   ",
    "unit_number": "1116.0165",
    "name": "Salzburg Hbf (in Sb)",
    "abbr": "Sb  ",
    "lat": "47.8135",
    "lng": "13.0466",
    "arrival": "2023-10-10T15:48:00Z",
    "departure": "2023-10-10T16:11:00Z"
  },
  {
    "train_number": "797   ",
    "unit_number": "1116.0165",
    "name": "Salzburg Gnigl-Einfgr. (in Sb)",
    "abbr": "Sre ",
    "lat": "47.8075",
    "lng": "13.0687",
    "arrival": null,
    "departure": "2023-10-10T15:43:00Z"
  },
  {
    "train_number": "797   ",
    "unit_number": "1116.0165",
    "name": "Bischofshofen (in Bo)",
    "abbr": "Bo  ",
    "lat": "47.42",
    "lng": "13.2199",
    "arrival": "2023-10-10T15:05:00Z",
    "departure": "2023-10-10T15:07:00Z"
  },
  {
    "train_number": "797   ",
    "unit_number": "1116.0165",
    "name": "Schwarzach-St.Veit",
    "abbr": "Swa ",
    "lat": "47.3186",
    "lng": "13.1561",
    "arrival": "2023-10-10T14:48:00Z",
    "departure": "2023-10-10T14:52:00Z"
  },
  {
    "train_number": "797   ",
    "unit_number": "1116.0165",
    "name": "Villach Hbf",
    "abbr": "Vb  ",
    "lat": "46.6186",
    "lng": "13.8484",
    "arrival": "2023-10-10T13:13:00Z",
    "departure": "2023-10-10T13:16:00Z"
  },
  {
    "train_number": "111   ",
    "unit_number": "1116.0165",
    "name": "Klagenfurt Hbf (in Kt)",
    "abbr": "Kt  ",
    "lat": "46.6156",
    "lng": "14.3137",
    "arrival": "2023-10-10T11:16:00Z",
    "departure": "2023-10-10T12:45:00Z"
  },
  {
    "train_number": "111   ",
    "unit_number": "1116.0165",
    "name": "Villach Hbf",
    "abbr": "Vb  ",
    "lat": "46.6186",
    "lng": "13.8484",
    "arrival": "2023-10-10T10:43:00Z",
    "departure": "2023-10-10T10:47:00Z"
  },
  {
    "train_number": "111   ",
    "unit_number": "1116.0165",
    "name": "Schwarzach-St.Veit",
    "abbr": "Swa ",
    "lat": "47.3186",
    "lng": "13.1561",
    "arrival": "2023-10-10T09:09:00Z",
    "departure": "2023-10-10T09:11:00Z"
  },
  {
    "train_number": "111   ",
    "unit_number": "1116.0165",
    "name": "Bischofshofen (in Bo)",
    "abbr": "Bo  ",
    "lat": "47.42",
    "lng": "13.2199",
    "arrival": "2023-10-10T08:52:00Z",
    "departure": "2023-10-10T08:54:00Z"
  },
  {
    "train_number": "111   ",
    "unit_number": "1116.0165",
    "name": "Salzburg Gnigl-Einfgr. (in Sb)",
    "abbr": "Sre ",
    "lat": "47.8075",
    "lng": "13.0687",
    "arrival": null,
    "departure": "2023-10-10T08:17:00Z"
  },
  {
    "train_number": "111   ",
    "unit_number": "1116.0165",
    "name": "Salzburg Hbf (in Sb)",
    "abbr": "Sb  ",
    "lat": "47.8135",
    "lng": "13.0466",
    "arrival": "2023-10-10T07:59:00Z",
    "departure": "2023-10-10T08:12:00Z"
  },
  {
    "train_number": "111   ",
    "unit_number": "1116.0165",
    "name": "Salzburg Liefering (in Sb)",
    "abbr": "Lfg ",
    "lat": "47.8229",
    "lng": "13.0021",
    "arrival": null,
    "departure": "2023-10-10T07:54:00Z"
  },
  {
    "train_number": "111   ",
    "unit_number": "1116.0165",
    "name": "Freilassing",
    "abbr": "MFL ",
    "lat": "47.8368",
    "lng": "12.9764",
    "arrival": "2023-10-10T07:50:00Z",
    "departure": "2023-10-10T07:52:00Z"
  },
  {
    "train_number": "111   ",
    "unit_number": "1116.0165",
    "name": "Traunstein",
    "abbr": "MTS ",
    "lat": "47.8697",
    "lng": "12.6391",
    "arrival": "2023-10-10T07:31:00Z",
    "departure": "2023-10-10T07:33:00Z"
  },
  {
    "train_number": "111   ",
    "unit_number": "1116.0165",
    "name": "Rosenheim",
    "abbr": "MRO ",
    "lat": "47.8511",
    "lng": "12.1196",
    "arrival": "2023-10-10T06:55:00Z",
    "departure": "2023-10-10T06:57:00Z"
  },
  {
    "train_number": "110   ",
    "unit_number": "1116.0165",
    "name": "München Hauptbahnhof",
    "abbr": "MH  ",
    "lat": "48.1399",
    "lng": "11.5604",
    "arrival": "2023-10-09T19:41:00Z",
    "departure": "2023-10-10T06:18:00Z"
  }
]
