[
  {
    "train_number": "2332  ",
    "unit_number": "1116.0157",
    "name": "Hohenau",
    "abbr": "Nh  ",
    "lat": "48.5981",
    "lng": "16.9008",
    "arrival": "2023-09-22T12:14:00Z",
    "departure": "2023-09-22T12:14:00Z"
  },
  {
    "train_number": "2332  ",
    "unit_number": "1116.0157",
    "name": "Gänserndorf",
    "abbr": "Gae ",
    "lat": "48.3401",
    "lng": "16.7324",
    "arrival": "2023-09-22T11:42:00Z",
    "departure": "2023-09-22T11:42:00Z"
  },
  {
    "train_number": "2332  ",
    "unit_number": "1116.0157",
    "name": "Floridsdorf (in F)",
    "abbr": "F   ",
    "lat": "48.2568",
    "lng": "16.4004",
    "arrival": "2023-09-22T11:19:00Z",
    "departure": "2023-09-22T11:20:00Z"
  },
  {
    "train_number": "2332  ",
    "unit_number": "1116.0157",
    "name": "Wien Meidling (in Wbf)",
    "abbr": "Mi  ",
    "lat": "48.1747",
    "lng": "16.3348",
    "arrival": "2023-09-22T10:53:00Z",
    "departure": "2023-09-22T10:54:00Z"
  },
  {
    "train_number": "2332  ",
    "unit_number": "1116.0157",
    "name": "Mödling",
    "abbr": "Md  ",
    "lat": "48.0858",
    "lng": "16.2958",
    "arrival": "2023-09-22T10:39:00Z",
    "departure": "2023-09-22T10:40:00Z"
  },
  {
    "train_number": "2332  ",
    "unit_number": "1116.0157",
    "name": "Leobersdorf",
    "abbr": "Lb  ",
    "lat": "47.9375",
    "lng": "16.2313",
    "arrival": "2023-09-22T10:22:00Z",
    "departure": "2023-09-22T10:23:00Z"
  },
  {
    "train_number": "2327  ",
    "unit_number": "1116.0157",
    "name": "Wr. Neustadt Hbf (in Nb)",
    "abbr": "Nb  ",
    "lat": "47.8113",
    "lng": "16.2337",
    "arrival": "2023-09-22T09:47:00Z",
    "departure": "2023-09-22T10:11:00Z"
  },
  {
    "train_number": "2327  ",
    "unit_number": "1116.0157",
    "name": "Leobersdorf",
    "abbr": "Lb  ",
    "lat": "47.9375",
    "lng": "16.2313",
    "arrival": "2023-09-22T09:35:00Z",
    "departure": "2023-09-22T09:35:00Z"
  },
  {
    "train_number": "2327  ",
    "unit_number": "1116.0157",
    "name": "Mödling",
    "abbr": "Md  ",
    "lat": "48.0858",
    "lng": "16.2958",
    "arrival": "2023-09-22T09:18:00Z",
    "departure": "2023-09-22T09:19:00Z"
  },
  {
    "train_number": "2327  ",
    "unit_number": "1116.0157",
    "name": "Wien Meidling (in Wbf)",
    "abbr": "Mi  ",
    "lat": "48.1747",
    "lng": "16.3348",
    "arrival": "2023-09-22T09:04:00Z",
    "departure": "2023-09-22T09:07:00Z"
  },
  {
    "train_number": "2327  ",
    "unit_number": "1116.0157",
    "name": "Floridsdorf (in F)",
    "abbr": "F   ",
    "lat": "48.2568",
    "lng": "16.4004",
    "arrival": "2023-09-22T08:38:00Z",
    "departure": "2023-09-22T08:39:00Z"
  },
  {
    "train_number": "2327  ",
    "unit_number": "1116.0157",
    "name": "Gänserndorf",
    "abbr": "Gae ",
    "lat": "48.3401",
    "lng": "16.7324",
    "arrival": "2023-09-22T08:14:00Z",
    "departure": "2023-09-22T08:15:00Z"
  },
  {
    "train_number": "2327  ",
    "unit_number": "1116.0157",
    "name": "Hohenau",
    "abbr": "Nh  ",
    "lat": "48.5981",
    "lng": "16.9008",
    "arrival": "2023-09-22T07:42:00Z",
    "departure": "2023-09-22T07:42:00Z"
  },
  {
    "train_number": "2308  ",
    "unit_number": "1116.0157",
    "name": "Hohenau",
    "abbr": "Nh  ",
    "lat": "48.5981",
    "lng": "16.9008",
    "arrival": "2023-09-22T06:20:00Z",
    "departure": "2023-09-22T06:20:00Z"
  },
  {
    "train_number": "2308  ",
    "unit_number": "1116.0157",
    "name": "Gänserndorf",
    "abbr": "Gae ",
    "lat": "48.3401",
    "lng": "16.7324",
    "arrival": "2023-09-22T05:48:00Z",
    "departure": "2023-09-22T05:48:00Z"
  },
  {
    "train_number": "2308  ",
    "unit_number": "1116.0157",
    "name": "Floridsdorf (in F)",
    "abbr": "F   ",
    "lat": "48.2568",
    "lng": "16.4004",
    "arrival": "2023-09-22T05:25:00Z",
    "departure": "2023-09-22T05:26:00Z"
  },
  {
    "train_number": "2308  ",
    "unit_number": "1116.0157",
    "name": "Wien Meidling (in Wbf)",
    "abbr": "Mi  ",
    "lat": "48.1747",
    "lng": "16.3348",
    "arrival": "2023-09-22T04:58:00Z",
    "departure": "2023-09-22T05:00:00Z"
  },
  {
    "train_number": "2308  ",
    "unit_number": "1116.0157",
    "name": "Mödling",
    "abbr": "Md  ",
    "lat": "48.0858",
    "lng": "16.2958",
    "arrival": "2023-09-22T04:44:00Z",
    "departure": "2023-09-22T04:49:00Z"
  },
  {
    "train_number": "2308  ",
    "unit_number": "1116.0157",
    "name": "Leobersdorf",
    "abbr": "Lb  ",
    "lat": "47.9375",
    "lng": "16.2313",
    "arrival": "2023-09-22T04:26:00Z",
    "departure": "2023-09-22T04:27:00Z"
  },
  {
    "train_number": "2375  ",
    "unit_number": "1116.0157",
    "name": "Wr. Neustadt Hbf (in Nb)",
    "abbr": "Nb  ",
    "lat": "47.8113",
    "lng": "16.2337",
    "arrival": "2023-09-21T21:47:00Z",
    "departure": "2023-09-22T04:15:00Z"
  }
]
