[
  {
    "train_number": "767   ",
    "unit_number": "1116.0153",
    "name": "Bischofshofen (in Bo)",
    "abbr": "Bo  ",
    "lat": "47.42",
    "lng": "13.2199",
    "arrival": "2023-10-30T12:21:00Z",
    "departure": "2023-10-30T12:23:00Z"
  },
  {
    "train_number": "767   ",
    "unit_number": "1116.0153",
    "name": "Schwarzach-St.Veit",
    "abbr": "Swa ",
    "lat": "47.3186",
    "lng": "13.1561",
    "arrival": "2023-10-30T12:09:00Z",
    "departure": "2023-10-30T12:10:00Z"
  },
  {
    "train_number": "767   ",
    "unit_number": "1116.0153",
    "name": "Kitzbühel",
    "abbr": "Kzb ",
    "lat": "47.4542",
    "lng": "12.391",
    "arrival": null,
    "departure": "2023-10-30T10:51:00Z"
  },
  {
    "train_number": "767   ",
    "unit_number": "1116.0153",
    "name": "Wörgl Hbf (in W)",
    "abbr": "W   ",
    "lat": "47.4912",
    "lng": "12.0603",
    "arrival": "2023-10-30T10:17:00Z",
    "departure": "2023-10-30T10:19:00Z"
  },
  {
    "train_number": "767   ",
    "unit_number": "1116.0153",
    "name": "Wörgl Hbf-T. N. (in W)",
    "abbr": "Wtn ",
    "lat": "47.4824",
    "lng": "12.033",
    "arrival": null,
    "departure": "2023-10-30T10:15:00Z"
  },
  {
    "train_number": "767   ",
    "unit_number": "1116.0153",
    "name": "Hall in Tirol",
    "abbr": "H   ",
    "lat": "47.2769",
    "lng": "11.5013",
    "arrival": null,
    "departure": "2023-10-30T10:00:00Z"
  },
  {
    "train_number": "668   ",
    "unit_number": "1116.0153",
    "name": "Innsbruck Hbf  (in I)",
    "abbr": "I   ",
    "lat": "47.2634",
    "lng": "11.4017",
    "arrival": "2023-10-30T07:46:00Z",
    "departure": "2023-10-30T09:53:00Z"
  },
  {
    "train_number": "668   ",
    "unit_number": "1116.0153",
    "name": "Hall in Tirol",
    "abbr": "H   ",
    "lat": "47.2769",
    "lng": "11.5013",
    "arrival": null,
    "departure": "2023-10-30T07:41:00Z"
  },
  {
    "train_number": "668   ",
    "unit_number": "1116.0153",
    "name": "Jenbach",
    "abbr": "Jb  ",
    "lat": "47.3884",
    "lng": "11.7783",
    "arrival": "2023-10-30T07:29:00Z",
    "departure": "2023-10-30T07:31:00Z"
  },
  {
    "train_number": "668   ",
    "unit_number": "1116.0153",
    "name": "Wörgl Hbf-T. N. (in W)",
    "abbr": "Wtn ",
    "lat": "47.4824",
    "lng": "12.033",
    "arrival": null,
    "departure": "2023-10-30T07:19:00Z"
  },
  {
    "train_number": "861   ",
    "unit_number": "1116.0153",
    "name": "Wörgl Hbf (in W)",
    "abbr": "W   ",
    "lat": "47.4912",
    "lng": "12.0603",
    "arrival": "2023-10-30T06:42:00Z",
    "departure": "2023-10-30T07:17:00Z"
  },
  {
    "train_number": "861   ",
    "unit_number": "1116.0153",
    "name": "Wörgl Hbf-T. N. (in W)",
    "abbr": "Wtn ",
    "lat": "47.4824",
    "lng": "12.033",
    "arrival": null,
    "departure": "2023-10-30T06:40:00Z"
  },
  {
    "train_number": "861   ",
    "unit_number": "1116.0153",
    "name": "Jenbach",
    "abbr": "Jb  ",
    "lat": "47.3884",
    "lng": "11.7783",
    "arrival": "2023-10-30T06:28:00Z",
    "departure": "2023-10-30T06:30:00Z"
  },
  {
    "train_number": "861   ",
    "unit_number": "1116.0153",
    "name": "Hall in Tirol",
    "abbr": "H   ",
    "lat": "47.2769",
    "lng": "11.5013",
    "arrival": null,
    "departure": "2023-10-30T06:19:00Z"
  },
  {
    "train_number": "861   ",
    "unit_number": "1116.0153",
    "name": "Innsbruck Hbf  (in I)",
    "abbr": "I   ",
    "lat": "47.2634",
    "lng": "11.4017",
    "arrival": "2023-10-30T06:06:00Z",
    "departure": "2023-10-30T06:13:00Z"
  },
  {
    "train_number": "19446 ",
    "unit_number": "1116.0153",
    "name": "Innsbruck Hbf  (in I)",
    "abbr": "I   ",
    "lat": "47.2634",
    "lng": "11.4017",
    "arrival": "2023-10-30T04:08:00Z",
    "departure": "2023-10-30T04:14:00Z"
  },
  {
    "train_number": "19446 ",
    "unit_number": "1116.0153",
    "name": "Hall in Tirol",
    "abbr": "H   ",
    "lat": "47.2769",
    "lng": "11.5013",
    "arrival": null,
    "departure": "2023-10-30T04:02:00Z"
  },
  {
    "train_number": "19446 ",
    "unit_number": "1116.0153",
    "name": "Wörgl Hbf-T. N. (in W)",
    "abbr": "Wtn ",
    "lat": "47.4824",
    "lng": "12.033",
    "arrival": null,
    "departure": "2023-10-30T03:40:00Z"
  },
  {
    "train_number": "19446 ",
    "unit_number": "1116.0153",
    "name": "Wörgl Hbf (in W)",
    "abbr": "W   ",
    "lat": "47.4912",
    "lng": "12.0603",
    "arrival": null,
    "departure": "2023-10-30T03:39:00Z"
  },
  {
    "train_number": "19446 ",
    "unit_number": "1116.0153",
    "name": "Kitzbühel",
    "abbr": "Kzb ",
    "lat": "47.4542",
    "lng": "12.391",
    "arrival": null,
    "departure": "2023-10-30T03:13:00Z"
  }
]
