[
  {
    "train_number": "47257 ",
    "unit_number": "1116.0016",
    "name": "St.Veit a.d.Glan (in Vps)",
    "abbr": "Vps ",
    "lat": "46.7704",
    "lng": "14.3672",
    "arrival": null,
    "departure": "2023-08-21T23:28:00Z"
  },
  {
    "train_number": "47257 ",
    "unit_number": "1116.0016",
    "name": "Zeltweg",
    "abbr": "Zg  ",
    "lat": "47.1887",
    "lng": "14.7425",
    "arrival": null,
    "departure": "2023-08-21T22:07:00Z"
  },
  {
    "train_number": "47257 ",
    "unit_number": "1116.0016",
    "name": "Leoben Hbf (in Leb)",
    "abbr": "Leb ",
    "lat": "47.3867",
    "lng": "15.0898",
    "arrival": null,
    "departure": "2023-08-21T21:21:00Z"
  },
  {
    "train_number": "47257 ",
    "unit_number": "1116.0016",
    "name": "Bruck a.d.Mur (in Bm)",
    "abbr": "Bm  ",
    "lat": "47.4134",
    "lng": "15.2797",
    "arrival": null,
    "departure": "2023-08-21T21:04:00Z"
  },
  {
    "train_number": "47257 ",
    "unit_number": "1116.0016",
    "name": "Mürzzuschlag (in Mz)",
    "abbr": "Mz  ",
    "lat": "47.6079",
    "lng": "15.677",
    "arrival": null,
    "departure": "2023-08-21T20:16:00Z"
  },
  {
    "train_number": "47257 ",
    "unit_number": "1116.0016",
    "name": "Payerbach-Reichenau",
    "abbr": "Pr  ",
    "lat": "47.696",
    "lng": "15.8632",
    "arrival": null,
    "departure": "2023-08-21T19:33:00Z"
  },
  {
    "train_number": "47257 ",
    "unit_number": "1116.0016",
    "name": "Neunkirchen N.Ö.",
    "abbr": "Nek ",
    "lat": "47.731",
    "lng": "16.0826",
    "arrival": null,
    "departure": "2023-08-21T18:51:00Z"
  },
  {
    "train_number": "47257 ",
    "unit_number": "1116.0016",
    "name": "Wr. Neustadt Hbf (in Nb)",
    "abbr": "Nb  ",
    "lat": "47.8113",
    "lng": "16.2337",
    "arrival": null,
    "departure": "2023-08-21T18:36:00Z"
  },
  {
    "train_number": "47257 ",
    "unit_number": "1116.0016",
    "name": "Ebenfurth (in Ef)",
    "abbr": "Ef  ",
    "lat": "47.8777",
    "lng": "16.3621",
    "arrival": null,
    "departure": "2023-08-21T17:37:00Z"
  },
  {
    "train_number": null,
    "unit_number": "1116.0016",
    "name": "Kledering (in Zur)",
    "abbr": "Za  ",
    "lat": "48.1453",
    "lng": "16.43",
    "arrival": null,
    "departure": "2023-08-21T14:46:00Z"
  },
  {
    "train_number": null,
    "unit_number": "1116.0016",
    "name": "Wien Zvbf (in Zur)",
    "abbr": "Zur ",
    "lat": "48.1453",
    "lng": "16.43",
    "arrival": null,
    "departure": "2023-08-21T10:43:00Z"
  },
  {
    "train_number": "54076 ",
    "unit_number": "1116.0016",
    "name": "Wien Meidling (in Wbf)",
    "abbr": "Mi  ",
    "lat": "48.1747",
    "lng": "16.3348",
    "arrival": null,
    "departure": "2023-08-21T09:11:00Z"
  },
  {
    "train_number": "54076 ",
    "unit_number": "1116.0016",
    "name": "Mödling",
    "abbr": "Md  ",
    "lat": "48.0858",
    "lng": "16.2958",
    "arrival": null,
    "departure": "2023-08-21T08:59:00Z"
  },
  {
    "train_number": "54076 ",
    "unit_number": "1116.0016",
    "name": "Leobersdorf",
    "abbr": "Lb  ",
    "lat": "47.9375",
    "lng": "16.2313",
    "arrival": null,
    "departure": "2023-08-21T08:46:00Z"
  },
  {
    "train_number": "54076 ",
    "unit_number": "1116.0016",
    "name": "Wr. Neustadt Hbf (in Nb)",
    "abbr": "Nb  ",
    "lat": "47.8113",
    "lng": "16.2337",
    "arrival": null,
    "departure": "2023-08-21T08:36:00Z"
  },
  {
    "train_number": "54076 ",
    "unit_number": "1116.0016",
    "name": "Neunkirchen N.Ö.",
    "abbr": "Nek ",
    "lat": "47.731",
    "lng": "16.0826",
    "arrival": null,
    "departure": "2023-08-21T08:26:00Z"
  },
  {
    "train_number": "54076 ",
    "unit_number": "1116.0016",
    "name": "Payerbach-Reichenau",
    "abbr": "Pr  ",
    "lat": "47.696",
    "lng": "15.8632",
    "arrival": null,
    "departure": "2023-08-21T07:59:00Z"
  },
  {
    "train_number": "54076 ",
    "unit_number": "1116.0016",
    "name": "Mürzzuschlag (in Mz)",
    "abbr": "Mz  ",
    "lat": "47.6079",
    "lng": "15.677",
    "arrival": null,
    "departure": "2023-08-21T07:21:00Z"
  },
  {
    "train_number": "54076 ",
    "unit_number": "1116.0016",
    "name": "Bruck a.d.Mur (in Bm)",
    "abbr": "Bm  ",
    "lat": "47.4134",
    "lng": "15.2797",
    "arrival": null,
    "departure": "2023-08-21T06:39:00Z"
  },
  {
    "train_number": "66777 ",
    "unit_number": "1116.0016",
    "name": "Graz Vbf (in G)",
    "abbr": "Gi  ",
    "lat": "47.0885",
    "lng": "15.4077",
    "arrival": "2023-08-20T14:44:00Z",
    "departure": "2023-08-21T05:58:00Z"
  }
]
