[
  {
    "train_number": "55087 ",
    "unit_number": "1116.0016",
    "name": "Pöchlarn",
    "abbr": "Poe ",
    "lat": "48.208",
    "lng": "15.2148",
    "arrival": null,
    "departure": "2023-10-06T21:18:00Z"
  },
  {
    "train_number": "55087 ",
    "unit_number": "1116.0016",
    "name": "Ybbs a.d.Donau",
    "abbr": "Y   ",
    "lat": "48.158",
    "lng": "15.0981",
    "arrival": null,
    "departure": "2023-10-06T21:09:00Z"
  },
  {
    "train_number": "55087 ",
    "unit_number": "1116.0016",
    "name": "Amstetten (in Ams)",
    "abbr": "Ams ",
    "lat": "48.1215",
    "lng": "14.8792",
    "arrival": null,
    "departure": "2023-10-06T20:58:00Z"
  },
  {
    "train_number": "55087 ",
    "unit_number": "1116.0016",
    "name": "St.Valentin (in Sv)",
    "abbr": "Sv  ",
    "lat": "48.1784",
    "lng": "14.5219",
    "arrival": null,
    "departure": "2023-10-06T20:26:00Z"
  },
  {
    "train_number": "55087 ",
    "unit_number": "1116.0016",
    "name": "Enns",
    "abbr": "Ens ",
    "lat": "48.2212",
    "lng": "14.4668",
    "arrival": null,
    "departure": "2023-10-06T20:19:00Z"
  },
  {
    "train_number": "55087 ",
    "unit_number": "1116.0016",
    "name": "Linz Hbf",
    "abbr": "Lz  ",
    "lat": "48.2908",
    "lng": "14.2927",
    "arrival": null,
    "departure": "2023-10-06T19:53:00Z"
  },
  {
    "train_number": null,
    "unit_number": "1116.0016",
    "name": "Wels Vbf (in Wev)",
    "abbr": "Wev ",
    "lat": "48.1834",
    "lng": "14.0628",
    "arrival": null,
    "departure": "2023-10-06T19:34:00Z"
  },
  {
    "train_number": "91200 ",
    "unit_number": "1116.0016",
    "name": "Linz Hbf",
    "abbr": "Lz  ",
    "lat": "48.2908",
    "lng": "14.2927",
    "arrival": null,
    "departure": "2023-10-06T15:38:00Z"
  },
  {
    "train_number": "91200 ",
    "unit_number": "1116.0016",
    "name": "Linz Vbf-West (in Lzv)",
    "abbr": "Lr  ",
    "lat": "48.276",
    "lng": "14.3154",
    "arrival": "2023-10-06T15:14:00Z",
    "departure": "2023-10-06T15:30:00Z"
  },
  {
    "train_number": "91200 ",
    "unit_number": "1116.0016",
    "name": "Enns",
    "abbr": "Ens ",
    "lat": "48.2212",
    "lng": "14.4668",
    "arrival": null,
    "departure": "2023-10-06T15:04:00Z"
  },
  {
    "train_number": "91200 ",
    "unit_number": "1116.0016",
    "name": "St.Valentin (in Sv)",
    "abbr": "Sv  ",
    "lat": "48.1784",
    "lng": "14.5219",
    "arrival": null,
    "departure": "2023-10-06T15:00:00Z"
  },
  {
    "train_number": "91200 ",
    "unit_number": "1116.0016",
    "name": "Amstetten (in Ams)",
    "abbr": "Ams ",
    "lat": "48.1215",
    "lng": "14.8792",
    "arrival": null,
    "departure": "2023-10-06T14:33:00Z"
  },
  {
    "train_number": "91200 ",
    "unit_number": "1116.0016",
    "name": "Ybbs a.d.Donau",
    "abbr": "Y   ",
    "lat": "48.158",
    "lng": "15.0981",
    "arrival": null,
    "departure": "2023-10-06T14:21:00Z"
  },
  {
    "train_number": "91200 ",
    "unit_number": "1116.0016",
    "name": "Pöchlarn",
    "abbr": "Poe ",
    "lat": "48.208",
    "lng": "15.2148",
    "arrival": null,
    "departure": "2023-10-06T14:11:00Z"
  },
  {
    "train_number": null,
    "unit_number": "1116.0016",
    "name": "Kledering (in Zur)",
    "abbr": "Za  ",
    "lat": "48.1331",
    "lng": "16.4396",
    "arrival": null,
    "departure": "2023-10-06T12:00:00Z"
  },
  {
    "train_number": "59204 ",
    "unit_number": "1116.0016",
    "name": "Wien Zvbf (in Zur)",
    "abbr": "Zur ",
    "lat": "48.1453",
    "lng": "16.43",
    "arrival": null,
    "departure": "2023-10-06T11:19:00Z"
  },
  {
    "train_number": "Rübe  ",
    "unit_number": "1116.0016",
    "name": "Ebenfurth (in Ef)",
    "abbr": "Ef  ",
    "lat": "47.8777",
    "lng": "16.3621",
    "arrival": "2023-10-06T10:18:00Z",
    "departure": "2023-10-06T10:19:00Z"
  },
  {
    "train_number": "41126 ",
    "unit_number": "1116.0016",
    "name": "Kledering (in Zur)",
    "abbr": "Za  ",
    "lat": "48.1331",
    "lng": "16.4396",
    "arrival": "2023-10-06T06:02:00Z",
    "departure": "2023-10-06T08:28:00Z"
  },
  {
    "train_number": "41126 ",
    "unit_number": "1116.0016",
    "name": "Parndorf",
    "abbr": "Par ",
    "lat": "47.987",
    "lng": "16.8702",
    "arrival": null,
    "departure": "2023-10-06T05:30:00Z"
  },
  {
    "train_number": "41126 ",
    "unit_number": "1116.0016",
    "name": "Hegyeshalom",
    "abbr": "He  ",
    "lat": "47.9139",
    "lng": "17.1455",
    "arrival": "2023-10-06T04:12:00Z",
    "departure": "2023-10-06T05:10:00Z"
  }
]
