[
  {
    "train_number": "547   ",
    "unit_number": "1116.0231",
    "name": "Pöchlarn",
    "abbr": "Poe ",
    "lat": "48.208",
    "lng": "15.2148",
    "arrival": null,
    "departure": "2023-09-22T08:17:00Z"
  },
  {
    "train_number": "547   ",
    "unit_number": "1116.0231",
    "name": "Ybbs a.d.Donau",
    "abbr": "Y   ",
    "lat": "48.158",
    "lng": "15.0981",
    "arrival": null,
    "departure": "2023-09-22T08:14:00Z"
  },
  {
    "train_number": "547   ",
    "unit_number": "1116.0231",
    "name": "Amstetten (in Ams)",
    "abbr": "Ams ",
    "lat": "48.1215",
    "lng": "14.8792",
    "arrival": "2023-09-22T08:05:00Z",
    "departure": "2023-09-22T08:07:00Z"
  },
  {
    "train_number": "547   ",
    "unit_number": "1116.0231",
    "name": "St.Valentin (in Sv)",
    "abbr": "Sv  ",
    "lat": "48.1784",
    "lng": "14.5219",
    "arrival": "2023-09-22T07:46:00Z",
    "departure": "2023-09-22T07:50:00Z"
  },
  {
    "train_number": "547   ",
    "unit_number": "1116.0231",
    "name": "Linz Hbf",
    "abbr": "Lz  ",
    "lat": "48.2908",
    "lng": "14.2927",
    "arrival": "2023-09-22T07:30:00Z",
    "departure": "2023-09-22T07:32:00Z"
  },
  {
    "train_number": "547   ",
    "unit_number": "1116.0231",
    "name": "Wels Hbf",
    "abbr": "We  ",
    "lat": "48.1662",
    "lng": "14.0273",
    "arrival": "2023-09-22T07:14:00Z",
    "departure": "2023-09-22T07:16:00Z"
  },
  {
    "train_number": "547   ",
    "unit_number": "1116.0231",
    "name": "Attnang-Puchheim",
    "abbr": "At  ",
    "lat": "48.0112",
    "lng": "13.7193",
    "arrival": "2023-09-22T06:58:00Z",
    "departure": "2023-09-22T07:00:00Z"
  },
  {
    "train_number": "547   ",
    "unit_number": "1116.0231",
    "name": "Steindorf b.Straßw. (in Nst)",
    "abbr": "Nst ",
    "lat": "47.9676",
    "lng": "13.2406",
    "arrival": null,
    "departure": "2023-09-22T06:31:00Z"
  },
  {
    "train_number": "848   ",
    "unit_number": "1116.0231",
    "name": "Salzburg Hbf (in Sb)",
    "abbr": "Sb  ",
    "lat": "47.8135",
    "lng": "13.0466",
    "arrival": "2023-09-22T05:49:00Z",
    "departure": "2023-09-22T06:11:00Z"
  },
  {
    "train_number": "848   ",
    "unit_number": "1116.0231",
    "name": "Steindorf b.Straßw. (in Nst)",
    "abbr": "Nst ",
    "lat": "47.9676",
    "lng": "13.2406",
    "arrival": null,
    "departure": "2023-09-22T05:29:00Z"
  },
  {
    "train_number": "848   ",
    "unit_number": "1116.0231",
    "name": "Attnang-Puchheim",
    "abbr": "At  ",
    "lat": "48.0112",
    "lng": "13.7193",
    "arrival": "2023-09-22T04:59:00Z",
    "departure": "2023-09-22T05:01:00Z"
  },
  {
    "train_number": "848   ",
    "unit_number": "1116.0231",
    "name": "Wels Hbf",
    "abbr": "We  ",
    "lat": "48.1662",
    "lng": "14.0273",
    "arrival": "2023-09-22T04:44:00Z",
    "departure": "2023-09-22T04:46:00Z"
  },
  {
    "train_number": "848   ",
    "unit_number": "1116.0231",
    "name": "Linz Hbf",
    "abbr": "Lz  ",
    "lat": "48.2908",
    "lng": "14.2927",
    "arrival": "2023-09-22T04:28:00Z",
    "departure": "2023-09-22T04:30:00Z"
  },
  {
    "train_number": "848   ",
    "unit_number": "1116.0231",
    "name": "St.Valentin (in Sv)",
    "abbr": "Sv  ",
    "lat": "48.1784",
    "lng": "14.5219",
    "arrival": "2023-09-22T04:14:00Z",
    "departure": "2023-09-22T04:15:00Z"
  },
  {
    "train_number": "848   ",
    "unit_number": "1116.0231",
    "name": "Amstetten (in Ams)",
    "abbr": "Ams ",
    "lat": "48.1215",
    "lng": "14.8792",
    "arrival": "2023-09-22T03:53:00Z",
    "departure": "2023-09-22T04:00:00Z"
  },
  {
    "train_number": "848   ",
    "unit_number": "1116.0231",
    "name": "Ybbs a.d.Donau",
    "abbr": "Y   ",
    "lat": "48.158",
    "lng": "15.0981",
    "arrival": null,
    "departure": "2023-09-22T03:46:00Z"
  },
  {
    "train_number": "848   ",
    "unit_number": "1116.0231",
    "name": "Pöchlarn",
    "abbr": "Poe ",
    "lat": "48.208",
    "lng": "15.2148",
    "arrival": null,
    "departure": "2023-09-22T03:43:00Z"
  },
  {
    "train_number": "848   ",
    "unit_number": "1116.0231",
    "name": "St.Pölten Hbf (in Pb)",
    "abbr": "Pb  ",
    "lat": "48.2081",
    "lng": "15.6237",
    "arrival": "2023-09-22T03:28:00Z",
    "departure": "2023-09-22T03:30:00Z"
  },
  {
    "train_number": "848   ",
    "unit_number": "1116.0231",
    "name": "Wien Meidling (in Wbf)",
    "abbr": "Mi  ",
    "lat": "48.1747",
    "lng": "16.3348",
    "arrival": "2023-09-22T03:00:00Z",
    "departure": "2023-09-22T03:02:00Z"
  },
  {
    "train_number": null,
    "unit_number": "1116.0231",
    "name": "Wien Hauptbahnhof (in Wbf)",
    "abbr": "Wbf ",
    "lat": "48.1747",
    "lng": "16.3348",
    "arrival": null,
    "departure": "2023-09-22T02:55:00Z"
  }
]
