[
  {
    "train_number": "90003 ",
    "unit_number": "1116.0165",
    "name": "Graz Hbf (in G)",
    "abbr": "G   ",
    "lat": "47.0733",
    "lng": "15.4163",
    "arrival": null,
    "departure": "2023-10-16T23:23:00Z"
  },
  {
    "train_number": "90003 ",
    "unit_number": "1116.0165",
    "name": "Graz Vbf (in G)",
    "abbr": "Gi  ",
    "lat": "47.0885",
    "lng": "15.4077",
    "arrival": "2023-10-16T23:16:00Z",
    "departure": "2023-10-16T23:21:00Z"
  },
  {
    "train_number": "90003 ",
    "unit_number": "1116.0165",
    "name": "Leoben Hbf (in Leb)",
    "abbr": "Leb ",
    "lat": "47.3867",
    "lng": "15.0898",
    "arrival": null,
    "departure": "2023-10-16T22:25:00Z"
  },
  {
    "train_number": "90003 ",
    "unit_number": "1116.0165",
    "name": "St.Michael (in M)",
    "abbr": "M   ",
    "lat": "47.3445",
    "lng": "15.0103",
    "arrival": null,
    "departure": "2023-10-16T22:18:00Z"
  },
  {
    "train_number": "90003 ",
    "unit_number": "1116.0165",
    "name": "Selzthal (in Sl)",
    "abbr": "Sl  ",
    "lat": "47.5505",
    "lng": "14.3134",
    "arrival": "2023-10-16T21:23:00Z",
    "departure": "2023-10-16T21:33:00Z"
  },
  {
    "train_number": "90003 ",
    "unit_number": "1116.0165",
    "name": "Kirchdorf a.d.Krems",
    "abbr": "Kik ",
    "lat": "47.9051",
    "lng": "14.1167",
    "arrival": null,
    "departure": "2023-10-16T20:36:00Z"
  },
  {
    "train_number": "90003 ",
    "unit_number": "1116.0165",
    "name": "Linz Hbf",
    "abbr": "Lz  ",
    "lat": "48.2908",
    "lng": "14.2927",
    "arrival": null,
    "departure": "2023-10-16T19:53:00Z"
  },
  {
    "train_number": "90003 ",
    "unit_number": "1116.0165",
    "name": "Linz Vbf-West (in Lzv)",
    "abbr": "Lr  ",
    "lat": "48.276",
    "lng": "14.3154",
    "arrival": "2023-10-16T19:46:00Z",
    "departure": "2023-10-16T19:49:00Z"
  },
  {
    "train_number": "90003 ",
    "unit_number": "1116.0165",
    "name": "Enns",
    "abbr": "Ens ",
    "lat": "48.2212",
    "lng": "14.4668",
    "arrival": null,
    "departure": "2023-10-16T19:35:00Z"
  },
  {
    "train_number": "18103 ",
    "unit_number": "1116.0165",
    "name": "St.Valentin (in Sv)",
    "abbr": "Sv  ",
    "lat": "48.1784",
    "lng": "14.5219",
    "arrival": "2023-10-16T19:10:00Z",
    "departure": "2023-10-16T19:30:00Z"
  },
  {
    "train_number": "18103 ",
    "unit_number": "1116.0165",
    "name": "Enns",
    "abbr": "Ens ",
    "lat": "48.2212",
    "lng": "14.4668",
    "arrival": null,
    "departure": "2023-10-16T19:03:00Z"
  },
  {
    "train_number": null,
    "unit_number": "1116.0165",
    "name": "Linz Hbf",
    "abbr": "Lz  ",
    "lat": "48.2908",
    "lng": "14.2927",
    "arrival": null,
    "departure": "2023-10-16T18:48:00Z"
  },
  {
    "train_number": "44501 ",
    "unit_number": "1116.0165",
    "name": "Freistadt",
    "abbr": "Fr  ",
    "lat": "48.4952",
    "lng": "14.4815",
    "arrival": null,
    "departure": "2023-10-16T05:01:00Z"
  },
  {
    "train_number": "44500 ",
    "unit_number": "1116.0165",
    "name": "Summerau",
    "abbr": "Smr ",
    "lat": "48.5572",
    "lng": "14.4489",
    "arrival": "2023-10-16T02:10:00Z",
    "departure": "2023-10-16T04:51:00Z"
  }
]
