[
  {
    "train_number": "64    ",
    "unit_number": "1116.0231",
    "name": "Freilassing",
    "abbr": "MFL ",
    "lat": "47.8368",
    "lng": "12.9764",
    "arrival": "2023-10-09T15:06:00Z",
    "departure": "2023-10-09T15:06:00Z"
  },
  {
    "train_number": "64    ",
    "unit_number": "1116.0231",
    "name": "Salzburg Liefering (in Sb)",
    "abbr": "Lfg ",
    "lat": "47.8229",
    "lng": "13.0021",
    "arrival": null,
    "departure": "2023-10-09T15:04:00Z"
  },
  {
    "train_number": "30064 ",
    "unit_number": "1116.0231",
    "name": "Salzburg Hbf (in Sb)",
    "abbr": "Sb  ",
    "lat": "47.8135",
    "lng": "13.0466",
    "arrival": "2023-10-09T14:53:00Z",
    "departure": "2023-10-09T15:00:00Z"
  },
  {
    "train_number": "30064 ",
    "unit_number": "1116.0231",
    "name": "Steindorf b.Straßw. (in Nst)",
    "abbr": "Nst ",
    "lat": "47.9676",
    "lng": "13.2406",
    "arrival": null,
    "departure": "2023-10-09T14:34:00Z"
  },
  {
    "train_number": "30064 ",
    "unit_number": "1116.0231",
    "name": "Attnang-Puchheim",
    "abbr": "At  ",
    "lat": "48.0112",
    "lng": "13.7193",
    "arrival": null,
    "departure": "2023-10-09T14:11:00Z"
  },
  {
    "train_number": "30064 ",
    "unit_number": "1116.0231",
    "name": "Wels Hbf",
    "abbr": "We  ",
    "lat": "48.1662",
    "lng": "14.0273",
    "arrival": null,
    "departure": "2023-10-09T13:58:00Z"
  },
  {
    "train_number": "30064 ",
    "unit_number": "1116.0231",
    "name": "Linz Hbf",
    "abbr": "Lz  ",
    "lat": "48.2908",
    "lng": "14.2927",
    "arrival": "2023-10-09T13:43:00Z",
    "departure": "2023-10-09T13:45:00Z"
  },
  {
    "train_number": "30064 ",
    "unit_number": "1116.0231",
    "name": "St.Valentin (in Sv)",
    "abbr": "Sv  ",
    "lat": "48.1784",
    "lng": "14.5219",
    "arrival": null,
    "departure": "2023-10-09T13:31:00Z"
  },
  {
    "train_number": "30064 ",
    "unit_number": "1116.0231",
    "name": "Amstetten (in Ams)",
    "abbr": "Ams ",
    "lat": "48.1215",
    "lng": "14.8792",
    "arrival": null,
    "departure": "2023-10-09T13:19:00Z"
  },
  {
    "train_number": "30064 ",
    "unit_number": "1116.0231",
    "name": "Ybbs a.d.Donau",
    "abbr": "Y   ",
    "lat": "48.158",
    "lng": "15.0981",
    "arrival": null,
    "departure": "2023-10-09T13:14:00Z"
  },
  {
    "train_number": "30064 ",
    "unit_number": "1116.0231",
    "name": "Pöchlarn",
    "abbr": "Poe ",
    "lat": "48.208",
    "lng": "15.2148",
    "arrival": null,
    "departure": "2023-10-09T13:10:00Z"
  },
  {
    "train_number": "30064 ",
    "unit_number": "1116.0231",
    "name": "St.Pölten Hbf (in Pb)",
    "abbr": "Pb  ",
    "lat": "48.2081",
    "lng": "15.6237",
    "arrival": "2023-10-09T12:57:00Z",
    "departure": "2023-10-09T12:59:00Z"
  },
  {
    "train_number": "30064 ",
    "unit_number": "1116.0231",
    "name": "Wien Meidling (in Wbf)",
    "abbr": "Mi  ",
    "lat": "48.1747",
    "lng": "16.3348",
    "arrival": "2023-10-09T12:33:00Z",
    "departure": "2023-10-09T12:35:00Z"
  },
  {
    "train_number": "62    ",
    "unit_number": "1116.0231",
    "name": "Wien Hauptbahnhof (in Wbf)",
    "abbr": "Wbf ",
    "lat": "48.185",
    "lng": "16.3778",
    "arrival": "2023-10-09T10:21:00Z",
    "departure": "2023-10-09T12:28:00Z"
  },
  {
    "train_number": "62    ",
    "unit_number": "1116.0231",
    "name": "Wien Zvbf (in Zur)",
    "abbr": "Zur ",
    "lat": "48.1453",
    "lng": "16.43",
    "arrival": "2023-10-09T10:12:00Z",
    "departure": "2023-10-09T10:14:00Z"
  },
  {
    "train_number": "62    ",
    "unit_number": "1116.0231",
    "name": "Parndorf",
    "abbr": "Par ",
    "lat": "47.987",
    "lng": "16.8702",
    "arrival": null,
    "departure": "2023-10-09T09:45:00Z"
  },
  {
    "train_number": "62    ",
    "unit_number": "1116.0231",
    "name": "Hegyeshalom",
    "abbr": "He  ",
    "lat": "47.9139",
    "lng": "17.1455",
    "arrival": "2023-10-09T09:29:00Z",
    "departure": "2023-10-09T09:32:00Z"
  },
  {
    "train_number": "62    ",
    "unit_number": "1116.0231",
    "name": "Tatabanya",
    "abbr": "TB  ",
    "lat": "47.587",
    "lng": "18.3923",
    "arrival": "2023-10-09T08:25:00Z",
    "departure": "2023-10-09T08:26:00Z"
  },
  {
    "train_number": "62    ",
    "unit_number": "1116.0231",
    "name": "Budapest-Ferencvaros",
    "abbr": "BUFE",
    "lat": "47.4687",
    "lng": "19.0882",
    "arrival": null,
    "departure": "2023-10-09T07:47:00Z"
  },
  {
    "train_number": "67    ",
    "unit_number": "1116.0231",
    "name": "Budapest Keleti",
    "abbr": "BPK ",
    "lat": "47.501",
    "lng": "19.0869",
    "arrival": "2023-10-08T18:19:00Z",
    "departure": "2023-10-09T07:40:00Z"
  }
]
