[
  {
    "train_number": "767   ",
    "unit_number": "1116.0249",
    "name": "Freilassing",
    "abbr": "MFL ",
    "lat": "47.8368",
    "lng": "12.9764",
    "arrival": null,
    "departure": "2023-10-11T11:57:00Z"
  },
  {
    "train_number": "767   ",
    "unit_number": "1116.0249",
    "name": "Traunstein",
    "abbr": "MTS ",
    "lat": "47.8697",
    "lng": "12.6391",
    "arrival": null,
    "departure": "2023-10-11T11:41:00Z"
  },
  {
    "train_number": "767   ",
    "unit_number": "1116.0249",
    "name": "Kufstein",
    "abbr": "K   ",
    "lat": "47.5833",
    "lng": "12.1657",
    "arrival": "2023-10-11T10:51:00Z",
    "departure": "2023-10-11T10:53:00Z"
  },
  {
    "train_number": "767   ",
    "unit_number": "1116.0249",
    "name": "Wörgl Hbf (in W)",
    "abbr": "W   ",
    "lat": "47.4912",
    "lng": "12.0603",
    "arrival": "2023-10-11T10:41:00Z",
    "departure": "2023-10-11T10:43:00Z"
  },
  {
    "train_number": "767   ",
    "unit_number": "1116.0249",
    "name": "Wörgl Hbf-T. N. (in W)",
    "abbr": "Wtn ",
    "lat": "47.4824",
    "lng": "12.033",
    "arrival": null,
    "departure": "2023-10-11T10:39:00Z"
  },
  {
    "train_number": "767   ",
    "unit_number": "1116.0249",
    "name": "Hall in Tirol",
    "abbr": "H   ",
    "lat": "47.2769",
    "lng": "11.5013",
    "arrival": null,
    "departure": "2023-10-11T10:24:00Z"
  },
  {
    "train_number": "668   ",
    "unit_number": "1116.0249",
    "name": "Innsbruck Hbf  (in I)",
    "abbr": "I   ",
    "lat": "47.2634",
    "lng": "11.4017",
    "arrival": "2023-10-11T06:46:00Z",
    "departure": "2023-10-11T10:17:00Z"
  },
  {
    "train_number": "668   ",
    "unit_number": "1116.0249",
    "name": "Hall in Tirol",
    "abbr": "H   ",
    "lat": "47.2769",
    "lng": "11.5013",
    "arrival": null,
    "departure": "2023-10-11T06:41:00Z"
  },
  {
    "train_number": "668   ",
    "unit_number": "1116.0249",
    "name": "Jenbach",
    "abbr": "Jb  ",
    "lat": "47.3884",
    "lng": "11.7783",
    "arrival": "2023-10-11T06:29:00Z",
    "departure": "2023-10-11T06:31:00Z"
  },
  {
    "train_number": "668   ",
    "unit_number": "1116.0249",
    "name": "Wörgl Hbf-T. N. (in W)",
    "abbr": "Wtn ",
    "lat": "47.4824",
    "lng": "12.033",
    "arrival": null,
    "departure": "2023-10-11T06:19:00Z"
  },
  {
    "train_number": "668   ",
    "unit_number": "1116.0249",
    "name": "Wörgl Hbf (in W)",
    "abbr": "W   ",
    "lat": "47.4912",
    "lng": "12.0603",
    "arrival": "2023-10-11T06:15:00Z",
    "departure": "2023-10-11T06:17:00Z"
  },
  {
    "train_number": "668   ",
    "unit_number": "1116.0249",
    "name": "Kufstein",
    "abbr": "K   ",
    "lat": "47.5833",
    "lng": "12.1657",
    "arrival": null,
    "departure": "2023-10-11T06:08:00Z"
  },
  {
    "train_number": "668   ",
    "unit_number": "1116.0249",
    "name": "Traunstein",
    "abbr": "MTS ",
    "lat": "47.8697",
    "lng": "12.6391",
    "arrival": null,
    "departure": "2023-10-11T05:18:00Z"
  },
  {
    "train_number": "668   ",
    "unit_number": "1116.0249",
    "name": "Freilassing",
    "abbr": "MFL ",
    "lat": "47.8368",
    "lng": "12.9764",
    "arrival": null,
    "departure": "2023-10-11T05:02:00Z"
  },
  {
    "train_number": "668   ",
    "unit_number": "1116.0249",
    "name": "Salzburg Liefering (in Sb)",
    "abbr": "Lfg ",
    "lat": "47.8229",
    "lng": "13.0021",
    "arrival": null,
    "departure": "2023-10-11T05:00:00Z"
  },
  {
    "train_number": "668   ",
    "unit_number": "1116.0249",
    "name": "Salzburg Hbf (in Sb)",
    "abbr": "Sb  ",
    "lat": "47.8135",
    "lng": "13.0466",
    "arrival": "2023-10-11T04:49:00Z",
    "departure": "2023-10-11T04:56:00Z"
  },
  {
    "train_number": "668   ",
    "unit_number": "1116.0249",
    "name": "Steindorf b.Straßw. (in Nst)",
    "abbr": "Nst ",
    "lat": "47.9676",
    "lng": "13.2406",
    "arrival": null,
    "departure": "2023-10-11T04:29:00Z"
  },
  {
    "train_number": "668   ",
    "unit_number": "1116.0249",
    "name": "Attnang-Puchheim",
    "abbr": "At  ",
    "lat": "48.0112",
    "lng": "13.7193",
    "arrival": "2023-10-11T03:59:00Z",
    "departure": "2023-10-11T04:01:00Z"
  },
  {
    "train_number": "668   ",
    "unit_number": "1116.0249",
    "name": "Wels Hbf",
    "abbr": "We  ",
    "lat": "48.1662",
    "lng": "14.0273",
    "arrival": "2023-10-11T03:44:00Z",
    "departure": "2023-10-11T03:46:00Z"
  },
  {
    "train_number": "845   ",
    "unit_number": "1116.0249",
    "name": "Linz Hbf",
    "abbr": "Lz  ",
    "lat": "48.2908",
    "lng": "14.2927",
    "arrival": "2023-10-10T21:30:00Z",
    "departure": "2023-10-11T03:30:00Z"
  }
]
