[
  {
    "train_number": "66470 ",
    "unit_number": "1116.0157",
    "name": "Wolfurt (in Wo)",
    "abbr": "Wo  ",
    "lat": "47.457",
    "lng": "9.74133",
    "arrival": "2023-11-06T00:15:00Z",
    "departure": "2023-11-06T08:30:00Z"
  },
  {
    "train_number": "66470 ",
    "unit_number": "1116.0157",
    "name": "Dornbirn (in Do)",
    "abbr": "Do  ",
    "lat": "47.4176",
    "lng": "9.73871",
    "arrival": null,
    "departure": "2023-11-06T00:10:00Z"
  },
  {
    "train_number": "66470 ",
    "unit_number": "1116.0157",
    "name": "Feldkirch",
    "abbr": "Fk  ",
    "lat": "47.2417",
    "lng": "9.60519",
    "arrival": "2023-11-05T23:41:00Z",
    "departure": "2023-11-05T23:51:00Z"
  },
  {
    "train_number": "44196 ",
    "unit_number": "1116.0157",
    "name": "Bludenz",
    "abbr": "B   ",
    "lat": "47.155",
    "lng": "9.81448",
    "arrival": "2023-11-05T06:14:00Z",
    "departure": "2023-11-05T23:25:00Z"
  },
  {
    "train_number": "44196 ",
    "unit_number": "1116.0157",
    "name": "Feldkirch",
    "abbr": "Fk  ",
    "lat": "47.2417",
    "lng": "9.60519",
    "arrival": null,
    "departure": "2023-11-05T05:57:00Z"
  },
  {
    "train_number": "44196 ",
    "unit_number": "1116.0157",
    "name": "Dornbirn (in Do)",
    "abbr": "Do  ",
    "lat": "47.4176",
    "lng": "9.73871",
    "arrival": null,
    "departure": "2023-11-05T05:38:00Z"
  },
  {
    "train_number": "44196 ",
    "unit_number": "1116.0157",
    "name": "Wolfurt (in Wo)",
    "abbr": "Wo  ",
    "lat": "47.457",
    "lng": "9.74133",
    "arrival": "2023-11-05T05:24:00Z",
    "departure": "2023-11-05T05:34:00Z"
  },
  {
    "train_number": "44196 ",
    "unit_number": "1116.0157",
    "name": "Bregenz (in Bg)",
    "abbr": "Bg  ",
    "lat": "47.5029",
    "lng": "9.73947",
    "arrival": null,
    "departure": "2023-11-05T05:17:00Z"
  },
  {
    "train_number": "44196 ",
    "unit_number": "1116.0157",
    "name": "Lindau-Reutin (in Lir)",
    "abbr": "Lir ",
    "lat": "47.5525",
    "lng": "9.70313",
    "arrival": "2023-11-05T04:04:00Z",
    "departure": "2023-11-05T05:09:00Z"
  }
]
