[
  {
    "train_number": "657   ",
    "unit_number": "1116.0153",
    "name": "Mödling",
    "abbr": "Md  ",
    "lat": "48.0858",
    "lng": "16.2958",
    "arrival": null,
    "departure": "2023-09-05T12:13:00Z"
  },
  {
    "train_number": "657   ",
    "unit_number": "1116.0153",
    "name": "Wien Meidling (in Wbf)",
    "abbr": "Mi  ",
    "lat": "48.1747",
    "lng": "16.3348",
    "arrival": "2023-09-05T12:03:00Z",
    "departure": "2023-09-05T12:05:00Z"
  },
  {
    "train_number": "691   ",
    "unit_number": "1116.0153",
    "name": "Wien Hauptbahnhof (in Wbf)",
    "abbr": "Wbf ",
    "lat": "48.1747",
    "lng": "16.3348",
    "arrival": "2023-09-05T11:15:00Z",
    "departure": "2023-09-05T11:58:00Z"
  },
  {
    "train_number": "691   ",
    "unit_number": "1116.0153",
    "name": "Wien Meidling (in Wbf)",
    "abbr": "Mi  ",
    "lat": "48.1747",
    "lng": "16.3348",
    "arrival": "2023-09-05T11:08:00Z",
    "departure": "2023-09-05T11:10:00Z"
  },
  {
    "train_number": "691   ",
    "unit_number": "1116.0153",
    "name": "St.Pölten Hbf (in Pb)",
    "abbr": "Pb  ",
    "lat": "48.2081",
    "lng": "15.6237",
    "arrival": "2023-09-05T10:40:00Z",
    "departure": "2023-09-05T10:42:00Z"
  },
  {
    "train_number": "691   ",
    "unit_number": "1116.0153",
    "name": "Pöchlarn",
    "abbr": "Poe ",
    "lat": "48.208",
    "lng": "15.2148",
    "arrival": null,
    "departure": "2023-09-05T10:27:00Z"
  },
  {
    "train_number": "691   ",
    "unit_number": "1116.0153",
    "name": "Ybbs a.d.Donau",
    "abbr": "Y   ",
    "lat": "48.158",
    "lng": "15.0981",
    "arrival": null,
    "departure": "2023-09-05T10:24:00Z"
  },
  {
    "train_number": "691   ",
    "unit_number": "1116.0153",
    "name": "Amstetten (in Ams)",
    "abbr": "Ams ",
    "lat": "48.1215",
    "lng": "14.8792",
    "arrival": "2023-09-05T10:10:00Z",
    "departure": "2023-09-05T10:17:00Z"
  },
  {
    "train_number": "691   ",
    "unit_number": "1116.0153",
    "name": "St.Valentin (in Sv)",
    "abbr": "Sv  ",
    "lat": "48.1784",
    "lng": "14.5219",
    "arrival": "2023-09-05T09:54:00Z",
    "departure": "2023-09-05T09:56:00Z"
  },
  {
    "train_number": "691   ",
    "unit_number": "1116.0153",
    "name": "Enns",
    "abbr": "Ens ",
    "lat": "48.2212",
    "lng": "14.4668",
    "arrival": null,
    "departure": "2023-09-05T09:47:00Z"
  },
  {
    "train_number": "691   ",
    "unit_number": "1116.0153",
    "name": "Linz Hbf",
    "abbr": "Lz  ",
    "lat": "48.2908",
    "lng": "14.2927",
    "arrival": "2023-09-05T09:30:00Z",
    "departure": "2023-09-05T09:32:00Z"
  },
  {
    "train_number": "691   ",
    "unit_number": "1116.0153",
    "name": "Wels Hbf",
    "abbr": "We  ",
    "lat": "48.1662",
    "lng": "14.0273",
    "arrival": "2023-09-05T09:14:00Z",
    "departure": "2023-09-05T09:16:00Z"
  },
  {
    "train_number": "691   ",
    "unit_number": "1116.0153",
    "name": "Attnang-Puchheim",
    "abbr": "At  ",
    "lat": "48.0112",
    "lng": "13.7193",
    "arrival": "2023-09-05T08:58:00Z",
    "departure": "2023-09-05T09:00:00Z"
  },
  {
    "train_number": "691   ",
    "unit_number": "1116.0153",
    "name": "Steindorf b.Straßw. (in Nst)",
    "abbr": "Nst ",
    "lat": "47.9676",
    "lng": "13.2406",
    "arrival": null,
    "departure": "2023-09-05T08:31:00Z"
  },
  {
    "train_number": "691   ",
    "unit_number": "1116.0153",
    "name": "Salzburg Hbf (in Sb)",
    "abbr": "Sb  ",
    "lat": "47.8135",
    "lng": "13.0466",
    "arrival": "2023-09-05T07:48:00Z",
    "departure": "2023-09-05T08:11:00Z"
  },
  {
    "train_number": "691   ",
    "unit_number": "1116.0153",
    "name": "Salzburg Gnigl-Einfgr. (in Sb)",
    "abbr": "Sre ",
    "lat": "47.8075",
    "lng": "13.0687",
    "arrival": null,
    "departure": "2023-09-05T07:43:00Z"
  },
  {
    "train_number": "691   ",
    "unit_number": "1116.0153",
    "name": "Bischofshofen (in Bo)",
    "abbr": "Bo  ",
    "lat": "47.42",
    "lng": "13.2199",
    "arrival": "2023-09-05T07:05:00Z",
    "departure": "2023-09-05T07:07:00Z"
  },
  {
    "train_number": "691   ",
    "unit_number": "1116.0153",
    "name": "Schwarzach-St.Veit",
    "abbr": "Swa ",
    "lat": "47.3186",
    "lng": "13.1561",
    "arrival": "2023-09-05T06:48:00Z",
    "departure": "2023-09-05T06:52:00Z"
  },
  {
    "train_number": "691   ",
    "unit_number": "1116.0153",
    "name": "Villach Hbf",
    "abbr": "Vb  ",
    "lat": "46.6186",
    "lng": "13.8484",
    "arrival": "2023-09-05T05:13:00Z",
    "departure": "2023-09-05T05:16:00Z"
  },
  {
    "train_number": "698   ",
    "unit_number": "1116.0153",
    "name": "Klagenfurt Hbf (in Kt)",
    "abbr": "Kt  ",
    "lat": "46.6156",
    "lng": "14.3137",
    "arrival": "2023-09-04T19:16:00Z",
    "departure": "2023-09-05T04:45:00Z"
  }
]
