[
  {
    "train_number": "88406 ",
    "unit_number": "1116.0157",
    "name": "Innsbruck Hbf  (in I)",
    "abbr": "I   ",
    "lat": "47.2634",
    "lng": "11.4017",
    "arrival": "2023-11-08T02:09:00Z",
    "departure": "2023-11-08T04:43:00Z"
  },
  {
    "train_number": "54449 ",
    "unit_number": "1116.0157",
    "name": "Hall in Tirol",
    "abbr": "H   ",
    "lat": "47.2769",
    "lng": "11.5013",
    "arrival": "2023-11-08T01:23:00Z",
    "departure": "2023-11-08T02:01:00Z"
  },
  {
    "train_number": "54449 ",
    "unit_number": "1116.0157",
    "name": "Innsbruck Hbf  (in I)",
    "abbr": "I   ",
    "lat": "47.2634",
    "lng": "11.4017",
    "arrival": "2023-11-08T01:05:00Z",
    "departure": "2023-11-08T01:13:00Z"
  },
  {
    "train_number": "54449 ",
    "unit_number": "1116.0157",
    "name": "Imst-Pitztal",
    "abbr": "Im  ",
    "lat": "47.219",
    "lng": "10.7619",
    "arrival": "2023-11-08T00:06:00Z",
    "departure": "2023-11-08T00:23:00Z"
  },
  {
    "train_number": "54449 ",
    "unit_number": "1116.0157",
    "name": "Landeck-Zams",
    "abbr": "Le  ",
    "lat": "47.148",
    "lng": "10.5782",
    "arrival": "2023-11-07T23:45:00Z",
    "departure": "2023-11-07T23:51:00Z"
  },
  {
    "train_number": "Ty1116",
    "unit_number": "1116.0157",
    "name": "Bludenz",
    "abbr": "B   ",
    "lat": "47.155",
    "lng": "9.81448",
    "arrival": "2023-11-07T15:00:00Z",
    "departure": "2023-11-07T22:47:00Z"
  },
  {
    "train_number": "5559  ",
    "unit_number": "1116.0157",
    "name": "Feldkirch",
    "abbr": "Fk  ",
    "lat": "47.2417",
    "lng": "9.60519",
    "arrival": "2023-11-07T07:42:00Z",
    "departure": "2023-11-07T07:44:00Z"
  },
  {
    "train_number": "5559  ",
    "unit_number": "1116.0157",
    "name": "Dornbirn (in Do)",
    "abbr": "Do  ",
    "lat": "47.4176",
    "lng": "9.73871",
    "arrival": "2023-11-07T07:20:00Z",
    "departure": "2023-11-07T07:22:00Z"
  },
  {
    "train_number": "5559  ",
    "unit_number": "1116.0157",
    "name": "Wolfurt (in Wo)",
    "abbr": "Wo  ",
    "lat": "47.457",
    "lng": "9.74133",
    "arrival": null,
    "departure": "2023-11-07T07:17:00Z"
  },
  {
    "train_number": "5559  ",
    "unit_number": "1116.0157",
    "name": "Bregenz (in Bg)",
    "abbr": "Bg  ",
    "lat": "47.5029",
    "lng": "9.73947",
    "arrival": "2023-11-07T07:10:00Z",
    "departure": "2023-11-07T07:11:00Z"
  },
  {
    "train_number": "5559  ",
    "unit_number": "1116.0157",
    "name": "Lindau-Reutin (in Lir)",
    "abbr": "Lir ",
    "lat": "47.5525",
    "lng": "9.70313",
    "arrival": "2023-11-07T06:58:00Z",
    "departure": "2023-11-07T07:00:00Z"
  },
  {
    "train_number": "5552  ",
    "unit_number": "1116.0157",
    "name": "Lindau-Insel (in Lir)",
    "abbr": "L   ",
    "lat": "47.5449",
    "lng": "9.68079",
    "arrival": "2023-11-07T06:33:00Z",
    "departure": "2023-11-07T06:55:00Z"
  },
  {
    "train_number": "5552  ",
    "unit_number": "1116.0157",
    "name": "Lindau-Reutin (in Lir)",
    "abbr": "Lir ",
    "lat": "47.5525",
    "lng": "9.70313",
    "arrival": "2023-11-07T06:28:00Z",
    "departure": "2023-11-07T06:29:00Z"
  },
  {
    "train_number": "5552  ",
    "unit_number": "1116.0157",
    "name": "Bregenz (in Bg)",
    "abbr": "Bg  ",
    "lat": "47.5029",
    "lng": "9.73947",
    "arrival": "2023-11-07T06:18:00Z",
    "departure": "2023-11-07T06:19:00Z"
  },
  {
    "train_number": "5552  ",
    "unit_number": "1116.0157",
    "name": "Wolfurt (in Wo)",
    "abbr": "Wo  ",
    "lat": "47.457",
    "lng": "9.74133",
    "arrival": null,
    "departure": "2023-11-07T06:12:00Z"
  },
  {
    "train_number": "5552  ",
    "unit_number": "1116.0157",
    "name": "Dornbirn (in Do)",
    "abbr": "Do  ",
    "lat": "47.4176",
    "lng": "9.73871",
    "arrival": "2023-11-07T06:08:00Z",
    "departure": "2023-11-07T06:09:00Z"
  },
  {
    "train_number": "5552  ",
    "unit_number": "1116.0157",
    "name": "Feldkirch",
    "abbr": "Fk  ",
    "lat": "47.2417",
    "lng": "9.60519",
    "arrival": "2023-11-07T05:45:00Z",
    "departure": "2023-11-07T05:47:00Z"
  },
  {
    "train_number": "88386 ",
    "unit_number": "1116.0157",
    "name": "Bludenz",
    "abbr": "B   ",
    "lat": "47.155",
    "lng": "9.81448",
    "arrival": "2023-11-06T23:44:00Z",
    "departure": "2023-11-07T05:30:00Z"
  }
]
