[
  {
    "train_number": "45851 ",
    "unit_number": "1116.0016",
    "name": "Salzburg Gnigl-Einfgr. (in Sb)",
    "abbr": "Sre ",
    "lat": "47.8075",
    "lng": "13.0687",
    "arrival": null,
    "departure": "2023-08-22T23:02:00Z"
  },
  {
    "train_number": "45851 ",
    "unit_number": "1116.0016",
    "name": "Bischofshofen (in Bo)",
    "abbr": "Bo  ",
    "lat": "47.42",
    "lng": "13.2199",
    "arrival": null,
    "departure": "2023-08-22T22:26:00Z"
  },
  {
    "train_number": "45851 ",
    "unit_number": "1116.0016",
    "name": "Schwarzach-St.Veit",
    "abbr": "Swa ",
    "lat": "47.3186",
    "lng": "13.1561",
    "arrival": "2023-08-22T21:58:00Z",
    "departure": "2023-08-22T22:16:00Z"
  },
  {
    "train_number": "45851 ",
    "unit_number": "1116.0016",
    "name": "Kitzbühel",
    "abbr": "Kzb ",
    "lat": "47.4542",
    "lng": "12.391",
    "arrival": null,
    "departure": "2023-08-22T20:46:00Z"
  },
  {
    "train_number": "45851 ",
    "unit_number": "1116.0016",
    "name": "Wörgl Hbf (in W)",
    "abbr": "W   ",
    "lat": "47.4912",
    "lng": "12.0603",
    "arrival": "2023-08-22T19:10:00Z",
    "departure": "2023-08-22T20:18:00Z"
  },
  {
    "train_number": "45851 ",
    "unit_number": "1116.0016",
    "name": "Wörgl Hbf-T. N. (in W)",
    "abbr": "Wtn ",
    "lat": "47.4824",
    "lng": "12.033",
    "arrival": null,
    "departure": "2023-08-22T19:08:00Z"
  },
  {
    "train_number": "45851 ",
    "unit_number": "1116.0016",
    "name": "Hall in Tirol",
    "abbr": "H   ",
    "lat": "47.2769",
    "lng": "11.5013",
    "arrival": "2023-08-22T17:54:00Z",
    "departure": "2023-08-22T18:34:00Z"
  },
  {
    "train_number": "64452 ",
    "unit_number": "1116.0016",
    "name": "Innsbruck Hbf  (in I)",
    "abbr": "I   ",
    "lat": "47.2634",
    "lng": "11.4017",
    "arrival": "2023-08-22T15:50:00Z",
    "departure": "2023-08-22T17:45:00Z"
  },
  {
    "train_number": "54443 ",
    "unit_number": "1116.0016",
    "name": "Hall in Tirol",
    "abbr": "H   ",
    "lat": "47.2769",
    "lng": "11.5013",
    "arrival": "2023-08-22T14:04:00Z",
    "departure": "2023-08-22T15:39:00Z"
  },
  {
    "train_number": "54443 ",
    "unit_number": "1116.0016",
    "name": "Innsbruck Hbf  (in I)",
    "abbr": "I   ",
    "lat": "47.2634",
    "lng": "11.4017",
    "arrival": "2023-08-22T13:42:00Z",
    "departure": "2023-08-22T13:55:00Z"
  },
  {
    "train_number": "54443 ",
    "unit_number": "1116.0016",
    "name": "Imst-Pitztal",
    "abbr": "Im  ",
    "lat": "47.219",
    "lng": "10.7619",
    "arrival": "2023-08-22T12:57:00Z",
    "departure": "2023-08-22T12:59:00Z"
  },
  {
    "train_number": "54443 ",
    "unit_number": "1116.0016",
    "name": "Landeck-Zams",
    "abbr": "Le  ",
    "lat": "47.148",
    "lng": "10.5782",
    "arrival": "2023-08-22T12:32:00Z",
    "departure": "2023-08-22T12:38:00Z"
  },
  {
    "train_number": "54443 ",
    "unit_number": "1116.0016",
    "name": "Bludenz",
    "abbr": "B   ",
    "lat": "47.155",
    "lng": "9.81448",
    "arrival": "2023-08-22T11:14:00Z",
    "departure": "2023-08-22T11:34:00Z"
  },
  {
    "train_number": "54443 ",
    "unit_number": "1116.0016",
    "name": "Feldkirch",
    "abbr": "Fk  ",
    "lat": "47.2417",
    "lng": "9.60519",
    "arrival": "2023-08-22T10:36:00Z",
    "departure": "2023-08-22T10:54:00Z"
  },
  {
    "train_number": "54443 ",
    "unit_number": "1116.0016",
    "name": "Dornbirn (in Do)",
    "abbr": "Do  ",
    "lat": "47.4176",
    "lng": "9.73871",
    "arrival": null,
    "departure": "2023-08-22T10:15:00Z"
  },
  {
    "train_number": "45854 ",
    "unit_number": "1116.0016",
    "name": "Wolfurt (in Wo)",
    "abbr": "Wo  ",
    "lat": "47.457",
    "lng": "9.74133",
    "arrival": "2023-08-22T05:16:00Z",
    "departure": "2023-08-22T10:07:00Z"
  },
  {
    "train_number": "45854 ",
    "unit_number": "1116.0016",
    "name": "Dornbirn (in Do)",
    "abbr": "Do  ",
    "lat": "47.4176",
    "lng": "9.73871",
    "arrival": null,
    "departure": "2023-08-22T05:11:00Z"
  },
  {
    "train_number": "45854 ",
    "unit_number": "1116.0016",
    "name": "Feldkirch",
    "abbr": "Fk  ",
    "lat": "47.2417",
    "lng": "9.60519",
    "arrival": "2023-08-22T04:42:00Z",
    "departure": "2023-08-22T04:50:00Z"
  },
  {
    "train_number": "45854 ",
    "unit_number": "1116.0016",
    "name": "Bludenz",
    "abbr": "B   ",
    "lat": "47.155",
    "lng": "9.81448",
    "arrival": "2023-08-22T04:12:00Z",
    "departure": "2023-08-22T04:26:00Z"
  },
  {
    "train_number": "45854 ",
    "unit_number": "1116.0016",
    "name": "Landeck-Zams",
    "abbr": "Le  ",
    "lat": "47.148",
    "lng": "10.5782",
    "arrival": "2023-08-22T03:07:00Z",
    "departure": "2023-08-22T03:15:00Z"
  }
]
