[
  {
    "train_number": "2238  ",
    "unit_number": "1116.0157",
    "name": "Hollabrunn",
    "abbr": "Oh  ",
    "lat": "48.563",
    "lng": "16.0722",
    "arrival": "2023-10-15T13:44:00Z",
    "departure": "2023-10-15T13:45:00Z"
  },
  {
    "train_number": "2238  ",
    "unit_number": "1116.0157",
    "name": "Stockerau (in Su)",
    "abbr": "Su  ",
    "lat": "48.3824",
    "lng": "16.2126",
    "arrival": "2023-10-15T13:27:00Z",
    "departure": "2023-10-15T13:28:00Z"
  },
  {
    "train_number": "2238  ",
    "unit_number": "1116.0157",
    "name": "Korneuburg",
    "abbr": "Ko  ",
    "lat": "48.3429",
    "lng": "16.3289",
    "arrival": "2023-10-15T13:19:00Z",
    "departure": "2023-10-15T13:20:00Z"
  },
  {
    "train_number": "2238  ",
    "unit_number": "1116.0157",
    "name": "Floridsdorf (in F)",
    "abbr": "F   ",
    "lat": "48.2568",
    "lng": "16.4004",
    "arrival": "2023-10-15T13:09:00Z",
    "departure": "2023-10-15T13:11:00Z"
  },
  {
    "train_number": "2237  ",
    "unit_number": "1116.0157",
    "name": "Wien Meidling (in Wbf)",
    "abbr": "Mi  ",
    "lat": "48.1747",
    "lng": "16.3348",
    "arrival": "2023-10-15T11:44:00Z",
    "departure": "2023-10-15T12:44:00Z"
  },
  {
    "train_number": "2237  ",
    "unit_number": "1116.0157",
    "name": "Floridsdorf (in F)",
    "abbr": "F   ",
    "lat": "48.2568",
    "lng": "16.4004",
    "arrival": "2023-10-15T11:17:00Z",
    "departure": "2023-10-15T11:19:00Z"
  },
  {
    "train_number": "2237  ",
    "unit_number": "1116.0157",
    "name": "Korneuburg",
    "abbr": "Ko  ",
    "lat": "48.3429",
    "lng": "16.3289",
    "arrival": "2023-10-15T11:08:00Z",
    "departure": "2023-10-15T11:09:00Z"
  },
  {
    "train_number": "2237  ",
    "unit_number": "1116.0157",
    "name": "Stockerau (in Su)",
    "abbr": "Su  ",
    "lat": "48.3824",
    "lng": "16.2126",
    "arrival": "2023-10-15T11:01:00Z",
    "departure": "2023-10-15T11:02:00Z"
  },
  {
    "train_number": "2237  ",
    "unit_number": "1116.0157",
    "name": "Hollabrunn",
    "abbr": "Oh  ",
    "lat": "48.563",
    "lng": "16.0722",
    "arrival": "2023-10-15T10:43:00Z",
    "departure": "2023-10-15T10:45:00Z"
  },
  {
    "train_number": "2218  ",
    "unit_number": "1116.0157",
    "name": "Retz",
    "abbr": "R   ",
    "lat": "48.7539",
    "lng": "15.9574",
    "arrival": "2023-10-15T09:12:00Z",
    "departure": "2023-10-15T10:16:00Z"
  },
  {
    "train_number": "2218  ",
    "unit_number": "1116.0157",
    "name": "Hollabrunn",
    "abbr": "Oh  ",
    "lat": "48.563",
    "lng": "16.0722",
    "arrival": "2023-10-15T08:44:00Z",
    "departure": "2023-10-15T08:45:00Z"
  },
  {
    "train_number": "2218  ",
    "unit_number": "1116.0157",
    "name": "Stockerau (in Su)",
    "abbr": "Su  ",
    "lat": "48.3824",
    "lng": "16.2126",
    "arrival": "2023-10-15T08:27:00Z",
    "departure": "2023-10-15T08:28:00Z"
  },
  {
    "train_number": "2218  ",
    "unit_number": "1116.0157",
    "name": "Korneuburg",
    "abbr": "Ko  ",
    "lat": "48.3429",
    "lng": "16.3289",
    "arrival": "2023-10-15T08:19:00Z",
    "departure": "2023-10-15T08:20:00Z"
  },
  {
    "train_number": "2218  ",
    "unit_number": "1116.0157",
    "name": "Floridsdorf (in F)",
    "abbr": "F   ",
    "lat": "48.2568",
    "lng": "16.4004",
    "arrival": "2023-10-15T08:09:00Z",
    "departure": "2023-10-15T08:11:00Z"
  },
  {
    "train_number": "2217  ",
    "unit_number": "1116.0157",
    "name": "Wien Meidling (in Wbf)",
    "abbr": "Mi  ",
    "lat": "48.1747",
    "lng": "16.3348",
    "arrival": "2023-10-15T06:44:00Z",
    "departure": "2023-10-15T07:44:00Z"
  },
  {
    "train_number": "2217  ",
    "unit_number": "1116.0157",
    "name": "Floridsdorf (in F)",
    "abbr": "F   ",
    "lat": "48.2568",
    "lng": "16.4004",
    "arrival": "2023-10-15T06:17:00Z",
    "departure": "2023-10-15T06:19:00Z"
  },
  {
    "train_number": "2217  ",
    "unit_number": "1116.0157",
    "name": "Korneuburg",
    "abbr": "Ko  ",
    "lat": "48.3429",
    "lng": "16.3289",
    "arrival": "2023-10-15T06:08:00Z",
    "departure": "2023-10-15T06:09:00Z"
  },
  {
    "train_number": "2217  ",
    "unit_number": "1116.0157",
    "name": "Stockerau (in Su)",
    "abbr": "Su  ",
    "lat": "48.3824",
    "lng": "16.2126",
    "arrival": "2023-10-15T06:01:00Z",
    "departure": "2023-10-15T06:02:00Z"
  },
  {
    "train_number": "2217  ",
    "unit_number": "1116.0157",
    "name": "Hollabrunn",
    "abbr": "Oh  ",
    "lat": "48.563",
    "lng": "16.0722",
    "arrival": "2023-10-15T05:43:00Z",
    "departure": "2023-10-15T05:45:00Z"
  },
  {
    "train_number": "Vhz   ",
    "unit_number": "1116.0157",
    "name": "Retz",
    "abbr": "R   ",
    "lat": "48.7539",
    "lng": "15.9574",
    "arrival": "2023-10-15T05:15:00Z",
    "departure": "2023-10-15T05:16:00Z"
  }
]
