[
  {
    "train_number": "42221 ",
    "unit_number": "1116.0016",
    "name": "Wr. Neustadt Hbf (in Nb)",
    "abbr": "Nb  ",
    "lat": "47.8113",
    "lng": "16.2337",
    "arrival": null,
    "departure": "2023-08-16T18:55:00Z"
  },
  {
    "train_number": "42221 ",
    "unit_number": "1116.0016",
    "name": "Ebenfurth (in Ef)",
    "abbr": "Ef  ",
    "lat": "47.8777",
    "lng": "16.3621",
    "arrival": null,
    "departure": "2023-08-16T18:45:00Z"
  },
  {
    "train_number": null,
    "unit_number": "1116.0016",
    "name": "Kledering (in Zur)",
    "abbr": "Za  ",
    "lat": "48.1453",
    "lng": "16.43",
    "arrival": null,
    "departure": "2023-08-16T17:03:00Z"
  },
  {
    "train_number": "55072 ",
    "unit_number": "1116.0016",
    "name": "Wien Zvbf (in Zur)",
    "abbr": "Zur ",
    "lat": "48.1453",
    "lng": "16.43",
    "arrival": null,
    "departure": "2023-08-16T16:56:00Z"
  },
  {
    "train_number": "55072 ",
    "unit_number": "1116.0016",
    "name": "Ebenfurth (in Ef)",
    "abbr": "Ef  ",
    "lat": "47.8777",
    "lng": "16.3621",
    "arrival": null,
    "departure": "2023-08-16T16:08:00Z"
  },
  {
    "train_number": "55072 ",
    "unit_number": "1116.0016",
    "name": "Wr. Neustadt Hbf (in Nb)",
    "abbr": "Nb  ",
    "lat": "47.8113",
    "lng": "16.2337",
    "arrival": null,
    "departure": "2023-08-16T15:58:00Z"
  },
  {
    "train_number": "55072 ",
    "unit_number": "1116.0016",
    "name": "Neunkirchen N.Ö.",
    "abbr": "Nek ",
    "lat": "47.731",
    "lng": "16.0826",
    "arrival": null,
    "departure": "2023-08-16T15:48:00Z"
  },
  {
    "train_number": "55072 ",
    "unit_number": "1116.0016",
    "name": "Payerbach-Reichenau",
    "abbr": "Pr  ",
    "lat": "47.696",
    "lng": "15.8632",
    "arrival": null,
    "departure": "2023-08-16T15:04:00Z"
  },
  {
    "train_number": "55072 ",
    "unit_number": "1116.0016",
    "name": "Mürzzuschlag (in Mz)",
    "abbr": "Mz  ",
    "lat": "47.6079",
    "lng": "15.677",
    "arrival": null,
    "departure": "2023-08-16T14:26:00Z"
  },
  {
    "train_number": "55072 ",
    "unit_number": "1116.0016",
    "name": "Bruck a.d.Mur (in Bm)",
    "abbr": "Bm  ",
    "lat": "47.4134",
    "lng": "15.2797",
    "arrival": null,
    "departure": "2023-08-16T13:57:00Z"
  },
  {
    "train_number": "54703 ",
    "unit_number": "1116.0016",
    "name": "Graz Vbf (in G)",
    "abbr": "Gi  ",
    "lat": "47.0885",
    "lng": "15.4077",
    "arrival": "2023-08-16T11:26:00Z",
    "departure": "2023-08-16T13:12:00Z"
  },
  {
    "train_number": "54703 ",
    "unit_number": "1116.0016",
    "name": "Bruck a.d.Mur (in Bm)",
    "abbr": "Bm  ",
    "lat": "47.4134",
    "lng": "15.2797",
    "arrival": null,
    "departure": "2023-08-16T10:41:00Z"
  },
  {
    "train_number": "54703 ",
    "unit_number": "1116.0016",
    "name": "Mürzzuschlag (in Mz)",
    "abbr": "Mz  ",
    "lat": "47.6079",
    "lng": "15.677",
    "arrival": null,
    "departure": "2023-08-16T10:00:00Z"
  },
  {
    "train_number": "54703 ",
    "unit_number": "1116.0016",
    "name": "Payerbach-Reichenau",
    "abbr": "Pr  ",
    "lat": "47.696",
    "lng": "15.8632",
    "arrival": null,
    "departure": "2023-08-16T09:24:00Z"
  },
  {
    "train_number": "54703 ",
    "unit_number": "1116.0016",
    "name": "Neunkirchen N.Ö.",
    "abbr": "Nek ",
    "lat": "47.731",
    "lng": "16.0826",
    "arrival": null,
    "departure": "2023-08-16T09:09:00Z"
  },
  {
    "train_number": "54703 ",
    "unit_number": "1116.0016",
    "name": "Wr. Neustadt Hbf (in Nb)",
    "abbr": "Nb  ",
    "lat": "47.8113",
    "lng": "16.2337",
    "arrival": null,
    "departure": "2023-08-16T08:58:00Z"
  },
  {
    "train_number": "54703 ",
    "unit_number": "1116.0016",
    "name": "Leobersdorf",
    "abbr": "Lb  ",
    "lat": "47.9375",
    "lng": "16.2313",
    "arrival": null,
    "departure": "2023-08-16T08:49:00Z"
  },
  {
    "train_number": "54703 ",
    "unit_number": "1116.0016",
    "name": "Mödling",
    "abbr": "Md  ",
    "lat": "48.0858",
    "lng": "16.2958",
    "arrival": null,
    "departure": "2023-08-16T08:28:00Z"
  },
  {
    "train_number": "54703 ",
    "unit_number": "1116.0016",
    "name": "Wien Meidling (in Wbf)",
    "abbr": "Mi  ",
    "lat": "48.1747",
    "lng": "16.3348",
    "arrival": null,
    "departure": "2023-08-16T08:12:00Z"
  },
  {
    "train_number": null,
    "unit_number": "1116.0016",
    "name": "Wien Zvbf (in Zur)",
    "abbr": "Zur ",
    "lat": "48.1453",
    "lng": "16.43",
    "arrival": null,
    "departure": "2023-08-16T07:40:00Z"
  }
]
