[
  {
    "train_number": "56658 ",
    "unit_number": "1116.0157",
    "name": "Zeltweg",
    "abbr": "Zg  ",
    "lat": "47.1887",
    "lng": "14.7425",
    "arrival": null,
    "departure": "2023-08-24T20:15:00Z"
  },
  {
    "train_number": "56658 ",
    "unit_number": "1116.0157",
    "name": "St.Veit a.d.Glan (in Vps)",
    "abbr": "Vps ",
    "lat": "46.7704",
    "lng": "14.3672",
    "arrival": null,
    "departure": "2023-08-24T18:55:00Z"
  },
  {
    "train_number": "56658 ",
    "unit_number": "1116.0157",
    "name": "Klagenfurt Hbf (in Kt)",
    "abbr": "Kt  ",
    "lat": "46.6156",
    "lng": "14.3137",
    "arrival": null,
    "departure": "2023-08-24T18:37:00Z"
  },
  {
    "train_number": "56658 ",
    "unit_number": "1116.0157",
    "name": "Villach Hbf",
    "abbr": "Vb  ",
    "lat": "46.6186",
    "lng": "13.8484",
    "arrival": null,
    "departure": "2023-08-24T18:10:00Z"
  },
  {
    "train_number": null,
    "unit_number": "1116.0157",
    "name": "Villach Süd Gvbf Ausfgr",
    "abbr": "Va  ",
    "lat": "46.5674",
    "lng": "13.8238",
    "arrival": null,
    "departure": "2023-08-24T17:59:00Z"
  },
  {
    "train_number": "44253 ",
    "unit_number": "1116.0157",
    "name": "Tarvisio Boscoverde",
    "abbr": "Tbv ",
    "lat": "46.5059",
    "lng": "13.6081",
    "arrival": "2023-08-24T15:45:00Z",
    "departure": "2023-08-24T16:55:00Z"
  },
  {
    "train_number": null,
    "unit_number": "1116.0157",
    "name": "Villach Süd Gvbf Ausfgr",
    "abbr": "Va  ",
    "lat": "46.5674",
    "lng": "13.8238",
    "arrival": null,
    "departure": "2023-08-24T15:22:00Z"
  },
  {
    "train_number": "54507 ",
    "unit_number": "1116.0157",
    "name": "Villach Hbf",
    "abbr": "Vb  ",
    "lat": "46.6186",
    "lng": "13.8484",
    "arrival": null,
    "departure": "2023-08-24T12:22:00Z"
  },
  {
    "train_number": "54507 ",
    "unit_number": "1116.0157",
    "name": "Klagenfurt Hbf (in Kt)",
    "abbr": "Kt  ",
    "lat": "46.6156",
    "lng": "14.3137",
    "arrival": null,
    "departure": "2023-08-24T11:45:00Z"
  },
  {
    "train_number": "54507 ",
    "unit_number": "1116.0157",
    "name": "St.Veit a.d.Glan (in Vps)",
    "abbr": "Vps ",
    "lat": "46.7704",
    "lng": "14.3672",
    "arrival": null,
    "departure": "2023-08-24T11:30:00Z"
  },
  {
    "train_number": "54507 ",
    "unit_number": "1116.0157",
    "name": "Zeltweg",
    "abbr": "Zg  ",
    "lat": "47.1887",
    "lng": "14.7425",
    "arrival": null,
    "departure": "2023-08-24T10:05:00Z"
  },
  {
    "train_number": "54507 ",
    "unit_number": "1116.0157",
    "name": "Leoben Hbf (in Leb)",
    "abbr": "Leb ",
    "lat": "47.3867",
    "lng": "15.0898",
    "arrival": null,
    "departure": "2023-08-24T08:44:00Z"
  },
  {
    "train_number": "54507 ",
    "unit_number": "1116.0157",
    "name": "Bruck a.d.Mur (in Bm)",
    "abbr": "Bm  ",
    "lat": "47.4134",
    "lng": "15.2797",
    "arrival": null,
    "departure": "2023-08-24T08:25:00Z"
  },
  {
    "train_number": "54507 ",
    "unit_number": "1116.0157",
    "name": "Mürzzuschlag (in Mz)",
    "abbr": "Mz  ",
    "lat": "47.6079",
    "lng": "15.677",
    "arrival": null,
    "departure": "2023-08-24T07:37:00Z"
  },
  {
    "train_number": "54507 ",
    "unit_number": "1116.0157",
    "name": "Payerbach-Reichenau",
    "abbr": "Pr  ",
    "lat": "47.696",
    "lng": "15.8632",
    "arrival": null,
    "departure": "2023-08-24T06:57:00Z"
  },
  {
    "train_number": "54507 ",
    "unit_number": "1116.0157",
    "name": "Neunkirchen N.Ö.",
    "abbr": "Nek ",
    "lat": "47.731",
    "lng": "16.0826",
    "arrival": null,
    "departure": "2023-08-24T06:19:00Z"
  },
  {
    "train_number": "54507 ",
    "unit_number": "1116.0157",
    "name": "Wr. Neust.Hbf-Ausf. (in Nb)",
    "abbr": "Nr  ",
    "lat": "47.8113",
    "lng": "16.2337",
    "arrival": "2023-08-24T05:54:00Z",
    "departure": "2023-08-24T06:01:00Z"
  },
  {
    "train_number": "54507 ",
    "unit_number": "1116.0157",
    "name": "Wr. Neustadt Hbf (in Nb)",
    "abbr": "Nb  ",
    "lat": "47.8113",
    "lng": "16.2337",
    "arrival": null,
    "departure": "2023-08-24T05:50:00Z"
  },
  {
    "train_number": "54507 ",
    "unit_number": "1116.0157",
    "name": "Ebenfurth (in Ef)",
    "abbr": "Ef  ",
    "lat": "47.8777",
    "lng": "16.3621",
    "arrival": null,
    "departure": "2023-08-24T05:38:00Z"
  },
  {
    "train_number": null,
    "unit_number": "1116.0157",
    "name": "Wien Zvbf (in Zur)",
    "abbr": "Zur ",
    "lat": "48.1453",
    "lng": "16.43",
    "arrival": null,
    "departure": "2023-08-24T05:03:00Z"
  }
]
