[
  {
    "train_number": "640   ",
    "unit_number": "1116.0249",
    "name": "Steindorf b.Straßw. (in Nst)",
    "abbr": "Nst ",
    "lat": "47.9676",
    "lng": "13.2406",
    "arrival": null,
    "departure": "2023-10-03T11:29:00Z"
  },
  {
    "train_number": "640   ",
    "unit_number": "1116.0249",
    "name": "Attnang-Puchheim",
    "abbr": "At  ",
    "lat": "48.0112",
    "lng": "13.7193",
    "arrival": "2023-10-03T10:59:00Z",
    "departure": "2023-10-03T11:01:00Z"
  },
  {
    "train_number": "640   ",
    "unit_number": "1116.0249",
    "name": "Wels Hbf",
    "abbr": "We  ",
    "lat": "48.1662",
    "lng": "14.0273",
    "arrival": "2023-10-03T10:44:00Z",
    "departure": "2023-10-03T10:46:00Z"
  },
  {
    "train_number": "640   ",
    "unit_number": "1116.0249",
    "name": "Linz Hbf",
    "abbr": "Lz  ",
    "lat": "48.2908",
    "lng": "14.2927",
    "arrival": "2023-10-03T10:28:00Z",
    "departure": "2023-10-03T10:30:00Z"
  },
  {
    "train_number": "640   ",
    "unit_number": "1116.0249",
    "name": "St.Valentin (in Sv)",
    "abbr": "Sv  ",
    "lat": "48.1784",
    "lng": "14.5219",
    "arrival": "2023-10-03T10:10:00Z",
    "departure": "2023-10-03T10:14:00Z"
  },
  {
    "train_number": "640   ",
    "unit_number": "1116.0249",
    "name": "Amstetten (in Ams)",
    "abbr": "Ams ",
    "lat": "48.1215",
    "lng": "14.8792",
    "arrival": "2023-10-03T09:53:00Z",
    "departure": "2023-10-03T09:55:00Z"
  },
  {
    "train_number": "640   ",
    "unit_number": "1116.0249",
    "name": "Ybbs a.d.Donau",
    "abbr": "Y   ",
    "lat": "48.158",
    "lng": "15.0981",
    "arrival": null,
    "departure": "2023-10-03T09:46:00Z"
  },
  {
    "train_number": "640   ",
    "unit_number": "1116.0249",
    "name": "Pöchlarn",
    "abbr": "Poe ",
    "lat": "48.208",
    "lng": "15.2148",
    "arrival": null,
    "departure": "2023-10-03T09:43:00Z"
  },
  {
    "train_number": "640   ",
    "unit_number": "1116.0249",
    "name": "St.Pölten Hbf (in Pb)",
    "abbr": "Pb  ",
    "lat": "48.2081",
    "lng": "15.6237",
    "arrival": "2023-10-03T09:28:00Z",
    "departure": "2023-10-03T09:30:00Z"
  },
  {
    "train_number": "640   ",
    "unit_number": "1116.0249",
    "name": "Wien Meidling (in Wbf)",
    "abbr": "Mi  ",
    "lat": "48.1747",
    "lng": "16.3348",
    "arrival": "2023-10-03T09:00:00Z",
    "departure": "2023-10-03T09:02:00Z"
  },
  {
    "train_number": "554   ",
    "unit_number": "1116.0249",
    "name": "Wien Meidling (in Wbf)",
    "abbr": "Mi  ",
    "lat": "48.1747",
    "lng": "16.3348",
    "arrival": "2023-10-03T07:55:00Z",
    "departure": "2023-10-03T07:57:00Z"
  },
  {
    "train_number": "554   ",
    "unit_number": "1116.0249",
    "name": "Mödling",
    "abbr": "Md  ",
    "lat": "48.0858",
    "lng": "16.2958",
    "arrival": null,
    "departure": "2023-10-03T07:46:00Z"
  },
  {
    "train_number": "554   ",
    "unit_number": "1116.0249",
    "name": "Leobersdorf",
    "abbr": "Lb  ",
    "lat": "47.9375",
    "lng": "16.2313",
    "arrival": null,
    "departure": "2023-10-03T07:39:00Z"
  },
  {
    "train_number": "554   ",
    "unit_number": "1116.0249",
    "name": "Wr. Neustadt Hbf (in Nb)",
    "abbr": "Nb  ",
    "lat": "47.8113",
    "lng": "16.2337",
    "arrival": "2023-10-03T07:28:00Z",
    "departure": "2023-10-03T07:32:00Z"
  },
  {
    "train_number": "554   ",
    "unit_number": "1116.0249",
    "name": "Neunkirchen N.Ö.",
    "abbr": "Nek ",
    "lat": "47.731",
    "lng": "16.0826",
    "arrival": null,
    "departure": "2023-10-03T07:19:00Z"
  },
  {
    "train_number": "554   ",
    "unit_number": "1116.0249",
    "name": "Payerbach-Reichenau",
    "abbr": "Pr  ",
    "lat": "47.696",
    "lng": "15.8632",
    "arrival": null,
    "departure": "2023-10-03T07:08:00Z"
  },
  {
    "train_number": "554   ",
    "unit_number": "1116.0249",
    "name": "Mürzzuschlag (in Mz)",
    "abbr": "Mz  ",
    "lat": "47.6079",
    "lng": "15.677",
    "arrival": "2023-10-03T06:30:00Z",
    "departure": "2023-10-03T06:32:00Z"
  },
  {
    "train_number": "554   ",
    "unit_number": "1116.0249",
    "name": "Bruck a.d.Mur (in Bm)",
    "abbr": "Bm  ",
    "lat": "47.4134",
    "lng": "15.2797",
    "arrival": "2023-10-03T06:00:00Z",
    "departure": "2023-10-03T06:02:00Z"
  },
  {
    "train_number": "554   ",
    "unit_number": "1116.0249",
    "name": "Graz Vbf (in G)",
    "abbr": "Gi  ",
    "lat": "47.0885",
    "lng": "15.4077",
    "arrival": null,
    "departure": "2023-10-03T05:28:00Z"
  },
  {
    "train_number": "853   ",
    "unit_number": "1116.0249",
    "name": "Graz Hbf (in G)",
    "abbr": "G   ",
    "lat": "47.0733",
    "lng": "15.4163",
    "arrival": "2023-10-02T22:34:00Z",
    "departure": "2023-10-03T05:25:00Z"
  }
]
