[
  {
    "train_number": "446   ",
    "unit_number": "1116.0157",
    "name": "Attnang-Puchheim",
    "abbr": "At  ",
    "lat": "48.0112",
    "lng": "13.7193",
    "arrival": "2023-08-27T23:15:00Z",
    "departure": "2023-08-27T23:17:00Z"
  },
  {
    "train_number": "446   ",
    "unit_number": "1116.0157",
    "name": "Wels Hbf",
    "abbr": "We  ",
    "lat": "48.1662",
    "lng": "14.0273",
    "arrival": "2023-08-27T22:57:00Z",
    "departure": "2023-08-27T22:59:00Z"
  },
  {
    "train_number": "446   ",
    "unit_number": "1116.0157",
    "name": "Linz Hbf",
    "abbr": "Lz  ",
    "lat": "48.2908",
    "lng": "14.2927",
    "arrival": "2023-08-27T22:40:00Z",
    "departure": "2023-08-27T22:42:00Z"
  },
  {
    "train_number": "446   ",
    "unit_number": "1116.0157",
    "name": "St.Valentin (in Sv)",
    "abbr": "Sv  ",
    "lat": "48.1784",
    "lng": "14.5219",
    "arrival": "2023-08-27T22:24:00Z",
    "departure": "2023-08-27T22:26:00Z"
  },
  {
    "train_number": "446   ",
    "unit_number": "1116.0157",
    "name": "Amstetten (in Ams)",
    "abbr": "Ams ",
    "lat": "48.1215",
    "lng": "14.8792",
    "arrival": "2023-08-27T22:05:00Z",
    "departure": "2023-08-27T22:07:00Z"
  },
  {
    "train_number": "446   ",
    "unit_number": "1116.0157",
    "name": "Ybbs a.d.Donau",
    "abbr": "Y   ",
    "lat": "48.158",
    "lng": "15.0981",
    "arrival": null,
    "departure": "2023-08-27T21:54:00Z"
  },
  {
    "train_number": "446   ",
    "unit_number": "1116.0157",
    "name": "Pöchlarn",
    "abbr": "Poe ",
    "lat": "48.208",
    "lng": "15.2148",
    "arrival": null,
    "departure": "2023-08-27T21:48:00Z"
  },
  {
    "train_number": "446   ",
    "unit_number": "1116.0157",
    "name": "St.Pölten Hbf (in Pb)",
    "abbr": "Pb  ",
    "lat": "48.2081",
    "lng": "15.6237",
    "arrival": "2023-08-27T21:26:00Z",
    "departure": "2023-08-27T21:28:00Z"
  },
  {
    "train_number": "446   ",
    "unit_number": "1116.0157",
    "name": "Wien Meidling (in Wbf)",
    "abbr": "Mi  ",
    "lat": "48.1747",
    "lng": "16.3348",
    "arrival": "2023-08-27T20:50:00Z",
    "departure": "2023-08-27T20:53:00Z"
  },
  {
    "train_number": "446   ",
    "unit_number": "1116.0157",
    "name": "Wien Hauptbahnhof (in Wbf)",
    "abbr": "Wbf ",
    "lat": "48.1747",
    "lng": "16.3348",
    "arrival": "2023-08-27T20:36:00Z",
    "departure": "2023-08-27T20:45:00Z"
  },
  {
    "train_number": "447   ",
    "unit_number": "1116.0157",
    "name": "Wien Hbf Autoreis. (in Wbf)",
    "abbr": "Of  ",
    "lat": "48.1747",
    "lng": "16.3348",
    "arrival": "2023-08-27T05:14:00Z",
    "departure": "2023-08-27T20:34:00Z"
  },
  {
    "train_number": "447   ",
    "unit_number": "1116.0157",
    "name": "Wien Hauptbahnhof (in Wbf)",
    "abbr": "Wbf ",
    "lat": "48.1747",
    "lng": "16.3348",
    "arrival": "2023-08-27T05:08:00Z",
    "departure": "2023-08-27T05:12:00Z"
  },
  {
    "train_number": "447   ",
    "unit_number": "1116.0157",
    "name": "Wien Meidling (in Wbf)",
    "abbr": "Mi  ",
    "lat": "48.1747",
    "lng": "16.3348",
    "arrival": "2023-08-27T04:58:00Z",
    "departure": "2023-08-27T05:01:00Z"
  },
  {
    "train_number": "447   ",
    "unit_number": "1116.0157",
    "name": "St.Pölten Hbf (in Pb)",
    "abbr": "Pb  ",
    "lat": "48.2081",
    "lng": "15.6237",
    "arrival": "2023-08-27T04:20:00Z",
    "departure": "2023-08-27T04:28:00Z"
  },
  {
    "train_number": "447   ",
    "unit_number": "1116.0157",
    "name": "Pöchlarn",
    "abbr": "Poe ",
    "lat": "48.208",
    "lng": "15.2148",
    "arrival": null,
    "departure": "2023-08-27T03:50:00Z"
  },
  {
    "train_number": "447   ",
    "unit_number": "1116.0157",
    "name": "Ybbs a.d.Donau",
    "abbr": "Y   ",
    "lat": "48.158",
    "lng": "15.0981",
    "arrival": null,
    "departure": "2023-08-27T03:40:00Z"
  },
  {
    "train_number": "447   ",
    "unit_number": "1116.0157",
    "name": "Amstetten (in Ams)",
    "abbr": "Ams ",
    "lat": "48.1215",
    "lng": "14.8792",
    "arrival": "2023-08-27T03:24:00Z",
    "departure": "2023-08-27T03:26:00Z"
  },
  {
    "train_number": "447   ",
    "unit_number": "1116.0157",
    "name": "St.Valentin (in Sv)",
    "abbr": "Sv  ",
    "lat": "48.1784",
    "lng": "14.5219",
    "arrival": "2023-08-27T03:04:00Z",
    "departure": "2023-08-27T03:06:00Z"
  },
  {
    "train_number": "447   ",
    "unit_number": "1116.0157",
    "name": "Linz Hbf",
    "abbr": "Lz  ",
    "lat": "48.2908",
    "lng": "14.2927",
    "arrival": "2023-08-27T02:43:00Z",
    "departure": "2023-08-27T02:48:00Z"
  },
  {
    "train_number": "447   ",
    "unit_number": "1116.0157",
    "name": "Wels Hbf",
    "abbr": "We  ",
    "lat": "48.1662",
    "lng": "14.0273",
    "arrival": "2023-08-27T02:24:00Z",
    "departure": "2023-08-27T02:26:00Z"
  }
]
