[
  {
    "train_number": "54958 ",
    "unit_number": "1116.0165",
    "name": "Villach Hbf",
    "abbr": "Vb  ",
    "lat": "46.6186",
    "lng": "13.8484",
    "arrival": null,
    "departure": "2023-08-31T18:29:00Z"
  },
  {
    "train_number": null,
    "unit_number": "1116.0165",
    "name": "Villach Süd Gvbf Ausfgr",
    "abbr": "Va  ",
    "lat": "46.5674",
    "lng": "13.8238",
    "arrival": null,
    "departure": "2023-08-31T18:18:00Z"
  },
  {
    "train_number": "44253 ",
    "unit_number": "1116.0165",
    "name": "Tarvisio Boscoverde",
    "abbr": "Tbv ",
    "lat": "46.5059",
    "lng": "13.6081",
    "arrival": "2023-08-31T15:45:00Z",
    "departure": "2023-08-31T16:55:00Z"
  },
  {
    "train_number": null,
    "unit_number": "1116.0165",
    "name": "Villach Süd Gvbf Ausfgr",
    "abbr": "Va  ",
    "lat": "46.5674",
    "lng": "13.8238",
    "arrival": null,
    "departure": "2023-08-31T15:22:00Z"
  },
  {
    "train_number": "49405 ",
    "unit_number": "1116.0165",
    "name": "Rosenbach",
    "abbr": "Rn  ",
    "lat": "46.5309",
    "lng": "14.0354",
    "arrival": null,
    "departure": "2023-08-31T13:15:00Z"
  },
  {
    "train_number": "49405 ",
    "unit_number": "1116.0165",
    "name": "Villach Westbf",
    "abbr": "Vf  ",
    "lat": "46.6186",
    "lng": "13.8484",
    "arrival": "2023-08-31T11:29:00Z",
    "departure": "2023-08-31T12:48:00Z"
  },
  {
    "train_number": "49405 ",
    "unit_number": "1116.0165",
    "name": "Villach Hbf",
    "abbr": "Vb  ",
    "lat": "46.6186",
    "lng": "13.8484",
    "arrival": null,
    "departure": "2023-08-31T11:25:00Z"
  },
  {
    "train_number": "49405 ",
    "unit_number": "1116.0165",
    "name": "Klagenfurt Hbf (in Kt)",
    "abbr": "Kt  ",
    "lat": "46.6156",
    "lng": "14.3137",
    "arrival": null,
    "departure": "2023-08-31T10:50:00Z"
  },
  {
    "train_number": "49405 ",
    "unit_number": "1116.0165",
    "name": "St.Veit a.d.Glan (in Vps)",
    "abbr": "Vps ",
    "lat": "46.7704",
    "lng": "14.3672",
    "arrival": null,
    "departure": "2023-08-31T10:31:00Z"
  },
  {
    "train_number": "49405 ",
    "unit_number": "1116.0165",
    "name": "Zeltweg",
    "abbr": "Zg  ",
    "lat": "47.1887",
    "lng": "14.7425",
    "arrival": null,
    "departure": "2023-08-31T09:08:00Z"
  },
  {
    "train_number": "49405 ",
    "unit_number": "1116.0165",
    "name": "Leoben Hbf (in Leb)",
    "abbr": "Leb ",
    "lat": "47.3867",
    "lng": "15.0898",
    "arrival": null,
    "departure": "2023-08-31T08:38:00Z"
  },
  {
    "train_number": "49405 ",
    "unit_number": "1116.0165",
    "name": "Bruck a.d.Mur (in Bm)",
    "abbr": "Bm  ",
    "lat": "47.4134",
    "lng": "15.2797",
    "arrival": null,
    "departure": "2023-08-31T08:21:00Z"
  },
  {
    "train_number": "49405 ",
    "unit_number": "1116.0165",
    "name": "Mürzzuschlag (in Mz)",
    "abbr": "Mz  ",
    "lat": "47.6079",
    "lng": "15.677",
    "arrival": null,
    "departure": "2023-08-31T07:17:00Z"
  },
  {
    "train_number": "49405 ",
    "unit_number": "1116.0165",
    "name": "Payerbach-Reichenau",
    "abbr": "Pr  ",
    "lat": "47.696",
    "lng": "15.8632",
    "arrival": null,
    "departure": "2023-08-31T06:32:00Z"
  },
  {
    "train_number": "49405 ",
    "unit_number": "1116.0165",
    "name": "Neunkirchen N.Ö.",
    "abbr": "Nek ",
    "lat": "47.731",
    "lng": "16.0826",
    "arrival": null,
    "departure": "2023-08-31T05:57:00Z"
  },
  {
    "train_number": "49405 ",
    "unit_number": "1116.0165",
    "name": "Wr. Neustadt Hbf (in Nb)",
    "abbr": "Nb  ",
    "lat": "47.8113",
    "lng": "16.2337",
    "arrival": null,
    "departure": "2023-08-31T05:44:00Z"
  },
  {
    "train_number": "49405 ",
    "unit_number": "1116.0165",
    "name": "Ebenfurth (in Ef)",
    "abbr": "Ef  ",
    "lat": "47.8777",
    "lng": "16.3621",
    "arrival": null,
    "departure": "2023-08-31T05:28:00Z"
  },
  {
    "train_number": "49405 ",
    "unit_number": "1116.0165",
    "name": "Wien Zvbf (in Zur)",
    "abbr": "Zur ",
    "lat": "48.1453",
    "lng": "16.43",
    "arrival": "2023-08-31T04:37:00Z",
    "departure": "2023-08-31T04:40:00Z"
  },
  {
    "train_number": "49405 ",
    "unit_number": "1116.0165",
    "name": "Gänserndorf",
    "abbr": "Gae ",
    "lat": "48.3401",
    "lng": "16.7324",
    "arrival": null,
    "departure": "2023-08-31T03:51:00Z"
  },
  {
    "train_number": "49405 ",
    "unit_number": "1116.0165",
    "name": "Hohenau",
    "abbr": "Nh  ",
    "lat": "48.5981",
    "lng": "16.9008",
    "arrival": "2023-08-31T02:52:00Z",
    "departure": "2023-08-31T03:24:00Z"
  }
]
