[
  {
    "train_number": "2229  ",
    "unit_number": "1116.0157",
    "name": "Wien Meidling (in Wbf)",
    "abbr": "Mi  ",
    "lat": "48.1747",
    "lng": "16.3348",
    "arrival": "2023-09-18T09:44:00Z",
    "departure": "2023-09-18T10:44:00Z"
  },
  {
    "train_number": "2229  ",
    "unit_number": "1116.0157",
    "name": "Floridsdorf (in F)",
    "abbr": "F   ",
    "lat": "48.2568",
    "lng": "16.4004",
    "arrival": "2023-09-18T09:17:00Z",
    "departure": "2023-09-18T09:19:00Z"
  },
  {
    "train_number": "2229  ",
    "unit_number": "1116.0157",
    "name": "Korneuburg",
    "abbr": "Ko  ",
    "lat": "48.3429",
    "lng": "16.3289",
    "arrival": "2023-09-18T09:08:00Z",
    "departure": "2023-09-18T09:09:00Z"
  },
  {
    "train_number": "2229  ",
    "unit_number": "1116.0157",
    "name": "Stockerau (in Su)",
    "abbr": "Su  ",
    "lat": "48.3824",
    "lng": "16.2126",
    "arrival": "2023-09-18T09:01:00Z",
    "departure": "2023-09-18T09:02:00Z"
  },
  {
    "train_number": "2229  ",
    "unit_number": "1116.0157",
    "name": "Hollabrunn",
    "abbr": "Oh  ",
    "lat": "48.563",
    "lng": "16.0722",
    "arrival": "2023-09-18T08:43:00Z",
    "departure": "2023-09-18T08:45:00Z"
  },
  {
    "train_number": "2210  ",
    "unit_number": "1116.0157",
    "name": "Retz",
    "abbr": "R   ",
    "lat": "48.7539",
    "lng": "15.9574",
    "arrival": "2023-09-18T07:12:00Z",
    "departure": "2023-09-18T08:16:00Z"
  },
  {
    "train_number": "2210  ",
    "unit_number": "1116.0157",
    "name": "Hollabrunn",
    "abbr": "Oh  ",
    "lat": "48.563",
    "lng": "16.0722",
    "arrival": "2023-09-18T06:44:00Z",
    "departure": "2023-09-18T06:45:00Z"
  },
  {
    "train_number": "2210  ",
    "unit_number": "1116.0157",
    "name": "Stockerau (in Su)",
    "abbr": "Su  ",
    "lat": "48.3824",
    "lng": "16.2126",
    "arrival": "2023-09-18T06:27:00Z",
    "departure": "2023-09-18T06:28:00Z"
  },
  {
    "train_number": "2210  ",
    "unit_number": "1116.0157",
    "name": "Korneuburg",
    "abbr": "Ko  ",
    "lat": "48.3429",
    "lng": "16.3289",
    "arrival": "2023-09-18T06:19:00Z",
    "departure": "2023-09-18T06:20:00Z"
  },
  {
    "train_number": "2210  ",
    "unit_number": "1116.0157",
    "name": "Floridsdorf (in F)",
    "abbr": "F   ",
    "lat": "48.2568",
    "lng": "16.4004",
    "arrival": "2023-09-18T06:09:00Z",
    "departure": "2023-09-18T06:11:00Z"
  },
  {
    "train_number": "2210  ",
    "unit_number": "1116.0157",
    "name": "Wien Meidling (in Wbf)",
    "abbr": "Mi  ",
    "lat": "48.1747",
    "lng": "16.3348",
    "arrival": "2023-09-18T05:42:00Z",
    "departure": "2023-09-18T05:44:00Z"
  },
  {
    "train_number": "2210  ",
    "unit_number": "1116.0157",
    "name": "Mödling",
    "abbr": "Md  ",
    "lat": "48.0858",
    "lng": "16.2958",
    "arrival": "2023-09-18T05:29:00Z",
    "departure": "2023-09-18T05:30:00Z"
  },
  {
    "train_number": "2210  ",
    "unit_number": "1116.0157",
    "name": "Leobersdorf",
    "abbr": "Lb  ",
    "lat": "47.9375",
    "lng": "16.2313",
    "arrival": "2023-09-18T05:13:00Z",
    "departure": "2023-09-18T05:14:00Z"
  },
  {
    "train_number": "2307  ",
    "unit_number": "1116.0157",
    "name": "Wr. Neustadt Hbf (in Nb)",
    "abbr": "Nb  ",
    "lat": "47.8113",
    "lng": "16.2337",
    "arrival": "2023-09-18T04:47:00Z",
    "departure": "2023-09-18T05:03:00Z"
  },
  {
    "train_number": "2307  ",
    "unit_number": "1116.0157",
    "name": "Leobersdorf",
    "abbr": "Lb  ",
    "lat": "47.9375",
    "lng": "16.2313",
    "arrival": "2023-09-18T04:35:00Z",
    "departure": "2023-09-18T04:35:00Z"
  },
  {
    "train_number": "2307  ",
    "unit_number": "1116.0157",
    "name": "Mödling",
    "abbr": "Md  ",
    "lat": "48.0858",
    "lng": "16.2958",
    "arrival": "2023-09-18T04:18:00Z",
    "departure": "2023-09-18T04:19:00Z"
  },
  {
    "train_number": "2307  ",
    "unit_number": "1116.0157",
    "name": "Wien Meidling (in Wbf)",
    "abbr": "Mi  ",
    "lat": "48.1747",
    "lng": "16.3348",
    "arrival": "2023-09-18T04:04:00Z",
    "departure": "2023-09-18T04:07:00Z"
  },
  {
    "train_number": "2307  ",
    "unit_number": "1116.0157",
    "name": "Floridsdorf (in F)",
    "abbr": "F   ",
    "lat": "48.2568",
    "lng": "16.4004",
    "arrival": "2023-09-18T03:38:00Z",
    "departure": "2023-09-18T03:39:00Z"
  },
  {
    "train_number": "2307  ",
    "unit_number": "1116.0157",
    "name": "Gänserndorf",
    "abbr": "Gae ",
    "lat": "48.3401",
    "lng": "16.7324",
    "arrival": "2023-09-18T03:14:00Z",
    "departure": "2023-09-18T03:15:00Z"
  },
  {
    "train_number": "2307  ",
    "unit_number": "1116.0157",
    "name": "Hohenau",
    "abbr": "Nh  ",
    "lat": "48.5981",
    "lng": "16.9008",
    "arrival": "2023-09-18T02:42:00Z",
    "departure": "2023-09-18T02:42:00Z"
  }
]
