[
  {
    "train_number": "632   ",
    "unit_number": "1116.0153",
    "name": "Bruck a.d.Mur (in Bm)",
    "abbr": "Bm  ",
    "lat": "47.4134",
    "lng": "15.2797",
    "arrival": null,
    "departure": "2023-10-24T17:46:00Z"
  },
  {
    "train_number": "632   ",
    "unit_number": "1116.0153",
    "name": "Leoben Hbf (in Leb)",
    "abbr": "Leb ",
    "lat": "47.3867",
    "lng": "15.0898",
    "arrival": "2023-10-24T17:36:00Z",
    "departure": "2023-10-24T17:37:00Z"
  },
  {
    "train_number": "632   ",
    "unit_number": "1116.0153",
    "name": "Zeltweg",
    "abbr": "Zg  ",
    "lat": "47.1887",
    "lng": "14.7425",
    "arrival": null,
    "departure": "2023-10-24T17:12:00Z"
  },
  {
    "train_number": "632   ",
    "unit_number": "1116.0153",
    "name": "St.Veit a.d.Glan (in Vps)",
    "abbr": "Vps ",
    "lat": "46.7704",
    "lng": "14.3672",
    "arrival": "2023-10-24T15:51:00Z",
    "departure": "2023-10-24T15:53:00Z"
  },
  {
    "train_number": "632   ",
    "unit_number": "1116.0153",
    "name": "Klagenfurt Hbf (in Kt)",
    "abbr": "Kt  ",
    "lat": "46.6156",
    "lng": "14.3137",
    "arrival": "2023-10-24T15:37:00Z",
    "departure": "2023-10-24T15:39:00Z"
  },
  {
    "train_number": "632   ",
    "unit_number": "1116.0153",
    "name": "Villach Hbf",
    "abbr": "Vb  ",
    "lat": "46.6186",
    "lng": "13.8484",
    "arrival": "2023-10-24T15:09:00Z",
    "departure": "2023-10-24T15:14:00Z"
  },
  {
    "train_number": "533   ",
    "unit_number": "1116.0153",
    "name": "Villach Hbf",
    "abbr": "Vb  ",
    "lat": "46.6186",
    "lng": "13.8484",
    "arrival": "2023-10-24T10:46:00Z",
    "departure": "2023-10-24T10:50:00Z"
  },
  {
    "train_number": "533   ",
    "unit_number": "1116.0153",
    "name": "Klagenfurt Hbf (in Kt)",
    "abbr": "Kt  ",
    "lat": "46.6156",
    "lng": "14.3137",
    "arrival": "2023-10-24T10:20:00Z",
    "departure": "2023-10-24T10:22:00Z"
  },
  {
    "train_number": "533   ",
    "unit_number": "1116.0153",
    "name": "St.Veit a.d.Glan (in Vps)",
    "abbr": "Vps ",
    "lat": "46.7704",
    "lng": "14.3672",
    "arrival": "2023-10-24T10:06:00Z",
    "departure": "2023-10-24T10:08:00Z"
  },
  {
    "train_number": "533   ",
    "unit_number": "1116.0153",
    "name": "Zeltweg",
    "abbr": "Zg  ",
    "lat": "47.1887",
    "lng": "14.7425",
    "arrival": null,
    "departure": "2023-10-24T08:48:00Z"
  },
  {
    "train_number": "533   ",
    "unit_number": "1116.0153",
    "name": "Leoben Hbf (in Leb)",
    "abbr": "Leb ",
    "lat": "47.3867",
    "lng": "15.0898",
    "arrival": "2023-10-24T08:21:00Z",
    "departure": "2023-10-24T08:23:00Z"
  },
  {
    "train_number": "533   ",
    "unit_number": "1116.0153",
    "name": "Bruck a.d.Mur (in Bm)",
    "abbr": "Bm  ",
    "lat": "47.4134",
    "lng": "15.2797",
    "arrival": null,
    "departure": "2023-10-24T08:12:00Z"
  },
  {
    "train_number": "533   ",
    "unit_number": "1116.0153",
    "name": "Mürzzuschlag (in Mz)",
    "abbr": "Mz  ",
    "lat": "47.6079",
    "lng": "15.677",
    "arrival": null,
    "departure": "2023-10-24T07:46:00Z"
  },
  {
    "train_number": "533   ",
    "unit_number": "1116.0153",
    "name": "Payerbach-Reichenau",
    "abbr": "Pr  ",
    "lat": "47.696",
    "lng": "15.8632",
    "arrival": null,
    "departure": "2023-10-24T07:12:00Z"
  },
  {
    "train_number": "533   ",
    "unit_number": "1116.0153",
    "name": "Neunkirchen N.Ö.",
    "abbr": "Nek ",
    "lat": "47.731",
    "lng": "16.0826",
    "arrival": null,
    "departure": "2023-10-24T07:01:00Z"
  },
  {
    "train_number": "533   ",
    "unit_number": "1116.0153",
    "name": "Wr. Neustadt Hbf (in Nb)",
    "abbr": "Nb  ",
    "lat": "47.8113",
    "lng": "16.2337",
    "arrival": "2023-10-24T06:50:00Z",
    "departure": "2023-10-24T06:52:00Z"
  },
  {
    "train_number": "533   ",
    "unit_number": "1116.0153",
    "name": "Leobersdorf",
    "abbr": "Lb  ",
    "lat": "47.9375",
    "lng": "16.2313",
    "arrival": null,
    "departure": "2023-10-24T06:43:00Z"
  },
  {
    "train_number": "533   ",
    "unit_number": "1116.0153",
    "name": "Mödling",
    "abbr": "Md  ",
    "lat": "48.0858",
    "lng": "16.2958",
    "arrival": null,
    "departure": "2023-10-24T06:34:00Z"
  },
  {
    "train_number": "533   ",
    "unit_number": "1116.0153",
    "name": "Wien Meidling (in Wbf)",
    "abbr": "Mi  ",
    "lat": "48.1747",
    "lng": "16.3348",
    "arrival": "2023-10-24T06:23:00Z",
    "departure": "2023-10-24T06:25:00Z"
  },
  {
    "train_number": null,
    "unit_number": "1116.0153",
    "name": "Wien Hauptbahnhof (in Wbf)",
    "abbr": "Wbf ",
    "lat": "48.185",
    "lng": "16.3778",
    "arrival": null,
    "departure": "2023-10-24T06:18:00Z"
  }
]
