[
  {
    "train_number": "18421 ",
    "unit_number": "1116.0231",
    "name": "Wien Zvbf-Einfgr. (in Zur)",
    "abbr": "Ze  ",
    "lat": "48.1453",
    "lng": "16.43",
    "arrival": "2023-09-17T22:02:00Z",
    "departure": "2023-09-18T03:25:00Z"
  },
  {
    "train_number": "18421 ",
    "unit_number": "1116.0231",
    "name": "Tulln a. d. Donau (in Tu)",
    "abbr": "Tu  ",
    "lat": "48.3275",
    "lng": "16.0644",
    "arrival": null,
    "departure": "2023-09-17T21:12:00Z"
  },
  {
    "train_number": "18421 ",
    "unit_number": "1116.0231",
    "name": "Absdorf-Hippersdorf (in Ah)",
    "abbr": "Ah  ",
    "lat": "48.4018",
    "lng": "15.9862",
    "arrival": null,
    "departure": "2023-09-17T20:59:00Z"
  },
  {
    "train_number": "91236 ",
    "unit_number": "1116.0231",
    "name": "Absdorf-Hippersdorf (in Ah)",
    "abbr": "Ah  ",
    "lat": "48.4018",
    "lng": "15.9862",
    "arrival": null,
    "departure": "2023-09-17T19:31:00Z"
  },
  {
    "train_number": "91236 ",
    "unit_number": "1116.0231",
    "name": "Stockerau (in Su)",
    "abbr": "Su  ",
    "lat": "48.3824",
    "lng": "16.2126",
    "arrival": null,
    "departure": "2023-09-17T19:20:00Z"
  },
  {
    "train_number": "91236 ",
    "unit_number": "1116.0231",
    "name": "Korneuburg",
    "abbr": "Ko  ",
    "lat": "48.3429",
    "lng": "16.3289",
    "arrival": null,
    "departure": "2023-09-17T19:15:00Z"
  },
  {
    "train_number": "91235 ",
    "unit_number": "1116.0231",
    "name": "Korneuburg",
    "abbr": "Ko  ",
    "lat": "48.3429",
    "lng": "16.3289",
    "arrival": null,
    "departure": "2023-09-17T14:22:00Z"
  },
  {
    "train_number": "91235 ",
    "unit_number": "1116.0231",
    "name": "Stockerau (in Su)",
    "abbr": "Su  ",
    "lat": "48.3824",
    "lng": "16.2126",
    "arrival": null,
    "departure": "2023-09-17T14:00:00Z"
  },
  {
    "train_number": "91235 ",
    "unit_number": "1116.0231",
    "name": "Absdorf-Hippersdorf (in Ah)",
    "abbr": "Ah  ",
    "lat": "48.4018",
    "lng": "15.9862",
    "arrival": null,
    "departure": "2023-09-17T13:34:00Z"
  },
  {
    "train_number": "18455 ",
    "unit_number": "1116.0231",
    "name": "Absdorf-Hippersdorf (in Ah)",
    "abbr": "Ah  ",
    "lat": "48.4018",
    "lng": "15.9862",
    "arrival": null,
    "departure": "2023-09-17T12:15:00Z"
  },
  {
    "train_number": "18455 ",
    "unit_number": "1116.0231",
    "name": "Stockerau (in Su)",
    "abbr": "Su  ",
    "lat": "48.3824",
    "lng": "16.2126",
    "arrival": null,
    "departure": "2023-09-17T11:59:00Z"
  },
  {
    "train_number": "18455 ",
    "unit_number": "1116.0231",
    "name": "Korneuburg",
    "abbr": "Ko  ",
    "lat": "48.3429",
    "lng": "16.3289",
    "arrival": null,
    "departure": "2023-09-17T11:50:00Z"
  },
  {
    "train_number": null,
    "unit_number": "1116.0231",
    "name": "Wien Zvbf-Einfgr. (in Zur)",
    "abbr": "Ze  ",
    "lat": "48.1453",
    "lng": "16.43",
    "arrival": null,
    "departure": "2023-09-17T11:22:00Z"
  }
]
