[
  {
    "train_number": "559   ",
    "unit_number": "1116.0249",
    "name": "Bruck a.d.Mur (in Bm)",
    "abbr": "Bm  ",
    "lat": "47.4134",
    "lng": "15.2797",
    "arrival": "2023-08-19T09:57:00Z",
    "departure": "2023-08-19T09:59:00Z"
  },
  {
    "train_number": "559   ",
    "unit_number": "1116.0249",
    "name": "Mürzzuschlag (in Mz)",
    "abbr": "Mz  ",
    "lat": "47.6079",
    "lng": "15.677",
    "arrival": "2023-08-19T09:28:00Z",
    "departure": "2023-08-19T09:30:00Z"
  },
  {
    "train_number": "559   ",
    "unit_number": "1116.0249",
    "name": "Payerbach-Reichenau",
    "abbr": "Pr  ",
    "lat": "47.696",
    "lng": "15.8632",
    "arrival": null,
    "departure": "2023-08-19T08:52:00Z"
  },
  {
    "train_number": "559   ",
    "unit_number": "1116.0249",
    "name": "Neunkirchen N.Ö.",
    "abbr": "Nek ",
    "lat": "47.731",
    "lng": "16.0826",
    "arrival": null,
    "departure": "2023-08-19T08:41:00Z"
  },
  {
    "train_number": "559   ",
    "unit_number": "1116.0249",
    "name": "Wr. Neustadt Hbf (in Nb)",
    "abbr": "Nb  ",
    "lat": "47.8113",
    "lng": "16.2337",
    "arrival": "2023-08-19T08:28:00Z",
    "departure": "2023-08-19T08:32:00Z"
  },
  {
    "train_number": "559   ",
    "unit_number": "1116.0249",
    "name": "Leobersdorf",
    "abbr": "Lb  ",
    "lat": "47.9375",
    "lng": "16.2313",
    "arrival": null,
    "departure": "2023-08-19T08:21:00Z"
  },
  {
    "train_number": "559   ",
    "unit_number": "1116.0249",
    "name": "Mödling",
    "abbr": "Md  ",
    "lat": "48.0858",
    "lng": "16.2958",
    "arrival": null,
    "departure": "2023-08-19T08:13:00Z"
  },
  {
    "train_number": "559   ",
    "unit_number": "1116.0249",
    "name": "Wien Meidling (in Wbf)",
    "abbr": "Mi  ",
    "lat": "48.1747",
    "lng": "16.3348",
    "arrival": "2023-08-19T08:03:00Z",
    "departure": "2023-08-19T08:05:00Z"
  },
  {
    "train_number": "543   ",
    "unit_number": "1116.0249",
    "name": "Wien Hauptbahnhof (in Wbf)",
    "abbr": "Wbf ",
    "lat": "48.1747",
    "lng": "16.3348",
    "arrival": "2023-08-19T07:15:00Z",
    "departure": "2023-08-19T07:58:00Z"
  },
  {
    "train_number": "543   ",
    "unit_number": "1116.0249",
    "name": "Wien Meidling (in Wbf)",
    "abbr": "Mi  ",
    "lat": "48.1747",
    "lng": "16.3348",
    "arrival": "2023-08-19T07:08:00Z",
    "departure": "2023-08-19T07:10:00Z"
  },
  {
    "train_number": "543   ",
    "unit_number": "1116.0249",
    "name": "St.Pölten Hbf (in Pb)",
    "abbr": "Pb  ",
    "lat": "48.2081",
    "lng": "15.6237",
    "arrival": "2023-08-19T06:40:00Z",
    "departure": "2023-08-19T06:42:00Z"
  },
  {
    "train_number": "543   ",
    "unit_number": "1116.0249",
    "name": "Pöchlarn",
    "abbr": "Poe ",
    "lat": "48.208",
    "lng": "15.2148",
    "arrival": null,
    "departure": "2023-08-19T06:22:00Z"
  },
  {
    "train_number": "543   ",
    "unit_number": "1116.0249",
    "name": "Ybbs a.d.Donau",
    "abbr": "Y   ",
    "lat": "48.158",
    "lng": "15.0981",
    "arrival": null,
    "departure": "2023-08-19T06:17:00Z"
  },
  {
    "train_number": "543   ",
    "unit_number": "1116.0249",
    "name": "Amstetten (in Ams)",
    "abbr": "Ams ",
    "lat": "48.1215",
    "lng": "14.8792",
    "arrival": "2023-08-19T06:05:00Z",
    "departure": "2023-08-19T06:07:00Z"
  },
  {
    "train_number": "543   ",
    "unit_number": "1116.0249",
    "name": "St.Valentin (in Sv)",
    "abbr": "Sv  ",
    "lat": "48.1784",
    "lng": "14.5219",
    "arrival": "2023-08-19T05:46:00Z",
    "departure": "2023-08-19T05:50:00Z"
  },
  {
    "train_number": "543   ",
    "unit_number": "1116.0249",
    "name": "Linz Hbf",
    "abbr": "Lz  ",
    "lat": "48.2908",
    "lng": "14.2927",
    "arrival": "2023-08-19T05:30:00Z",
    "departure": "2023-08-19T05:32:00Z"
  },
  {
    "train_number": "543   ",
    "unit_number": "1116.0249",
    "name": "Wels Hbf",
    "abbr": "We  ",
    "lat": "48.1662",
    "lng": "14.0273",
    "arrival": "2023-08-19T05:14:00Z",
    "departure": "2023-08-19T05:16:00Z"
  },
  {
    "train_number": "543   ",
    "unit_number": "1116.0249",
    "name": "Attnang-Puchheim",
    "abbr": "At  ",
    "lat": "48.0112",
    "lng": "13.7193",
    "arrival": "2023-08-19T04:58:00Z",
    "departure": "2023-08-19T05:00:00Z"
  },
  {
    "train_number": "543   ",
    "unit_number": "1116.0249",
    "name": "Steindorf b.Straßw. (in Nst)",
    "abbr": "Nst ",
    "lat": "47.9676",
    "lng": "13.2406",
    "arrival": null,
    "departure": "2023-08-19T04:31:00Z"
  },
  {
    "train_number": "744   ",
    "unit_number": "1116.0249",
    "name": "Salzburg Hbf (in Sb)",
    "abbr": "Sb  ",
    "lat": "47.8135",
    "lng": "13.0466",
    "arrival": "2023-08-18T18:49:00Z",
    "departure": "2023-08-19T04:11:00Z"
  }
]
