[
  {
    "train_number": "544   ",
    "unit_number": "1116.0231",
    "name": "Steindorf b.Straßw. (in Nst)",
    "abbr": "Nst ",
    "lat": "47.9676",
    "lng": "13.2406",
    "arrival": null,
    "departure": "2023-09-02T08:29:00Z"
  },
  {
    "train_number": "544   ",
    "unit_number": "1116.0231",
    "name": "Attnang-Puchheim",
    "abbr": "At  ",
    "lat": "48.0112",
    "lng": "13.7193",
    "arrival": "2023-09-02T07:59:00Z",
    "departure": "2023-09-02T08:01:00Z"
  },
  {
    "train_number": "544   ",
    "unit_number": "1116.0231",
    "name": "Wels Hbf",
    "abbr": "We  ",
    "lat": "48.1662",
    "lng": "14.0273",
    "arrival": "2023-09-02T07:44:00Z",
    "departure": "2023-09-02T07:46:00Z"
  },
  {
    "train_number": "544   ",
    "unit_number": "1116.0231",
    "name": "Linz Hbf",
    "abbr": "Lz  ",
    "lat": "48.2908",
    "lng": "14.2927",
    "arrival": "2023-09-02T07:28:00Z",
    "departure": "2023-09-02T07:30:00Z"
  },
  {
    "train_number": "544   ",
    "unit_number": "1116.0231",
    "name": "Enns",
    "abbr": "Ens ",
    "lat": "48.2212",
    "lng": "14.4668",
    "arrival": null,
    "departure": "2023-09-02T07:11:00Z"
  },
  {
    "train_number": "544   ",
    "unit_number": "1116.0231",
    "name": "St.Valentin (in Sv)",
    "abbr": "Sv  ",
    "lat": "48.1784",
    "lng": "14.5219",
    "arrival": "2023-09-02T07:00:00Z",
    "departure": "2023-09-02T07:04:00Z"
  },
  {
    "train_number": "544   ",
    "unit_number": "1116.0231",
    "name": "Amstetten (in Ams)",
    "abbr": "Ams ",
    "lat": "48.1215",
    "lng": "14.8792",
    "arrival": "2023-09-02T06:43:00Z",
    "departure": "2023-09-02T06:45:00Z"
  },
  {
    "train_number": "544   ",
    "unit_number": "1116.0231",
    "name": "Ybbs a.d.Donau",
    "abbr": "Y   ",
    "lat": "48.158",
    "lng": "15.0981",
    "arrival": null,
    "departure": "2023-09-02T06:36:00Z"
  },
  {
    "train_number": "544   ",
    "unit_number": "1116.0231",
    "name": "Pöchlarn",
    "abbr": "Poe ",
    "lat": "48.208",
    "lng": "15.2148",
    "arrival": null,
    "departure": "2023-09-02T06:33:00Z"
  },
  {
    "train_number": "544   ",
    "unit_number": "1116.0231",
    "name": "St.Pölten Hbf (in Pb)",
    "abbr": "Pb  ",
    "lat": "48.2081",
    "lng": "15.6237",
    "arrival": "2023-09-02T06:18:00Z",
    "departure": "2023-09-02T06:20:00Z"
  },
  {
    "train_number": "544   ",
    "unit_number": "1116.0231",
    "name": "Wien Meidling (in Wbf)",
    "abbr": "Mi  ",
    "lat": "48.1747",
    "lng": "16.3348",
    "arrival": "2023-09-02T05:50:00Z",
    "departure": "2023-09-02T05:52:00Z"
  },
  {
    "train_number": "821   ",
    "unit_number": "1116.0231",
    "name": "Wien Hauptbahnhof (in Wbf)",
    "abbr": "Wbf ",
    "lat": "48.1747",
    "lng": "16.3348",
    "arrival": "2023-09-02T05:05:00Z",
    "departure": "2023-09-02T05:45:00Z"
  },
  {
    "train_number": "821   ",
    "unit_number": "1116.0231",
    "name": "Wien Meidling (in Wbf)",
    "abbr": "Mi  ",
    "lat": "48.1747",
    "lng": "16.3348",
    "arrival": "2023-09-02T04:58:00Z",
    "departure": "2023-09-02T05:00:00Z"
  },
  {
    "train_number": "821   ",
    "unit_number": "1116.0231",
    "name": "St.Pölten Hbf (in Pb)",
    "abbr": "Pb  ",
    "lat": "48.2081",
    "lng": "15.6237",
    "arrival": "2023-09-02T04:30:00Z",
    "departure": "2023-09-02T04:32:00Z"
  },
  {
    "train_number": "821   ",
    "unit_number": "1116.0231",
    "name": "Pöchlarn",
    "abbr": "Poe ",
    "lat": "48.208",
    "lng": "15.2148",
    "arrival": null,
    "departure": "2023-09-02T04:17:00Z"
  },
  {
    "train_number": "821   ",
    "unit_number": "1116.0231",
    "name": "Ybbs a.d.Donau",
    "abbr": "Y   ",
    "lat": "48.158",
    "lng": "15.0981",
    "arrival": null,
    "departure": "2023-09-02T04:14:00Z"
  },
  {
    "train_number": "821   ",
    "unit_number": "1116.0231",
    "name": "Amstetten (in Ams)",
    "abbr": "Ams ",
    "lat": "48.1215",
    "lng": "14.8792",
    "arrival": "2023-09-02T04:00:00Z",
    "departure": "2023-09-02T04:07:00Z"
  },
  {
    "train_number": "821   ",
    "unit_number": "1116.0231",
    "name": "St.Valentin (in Sv)",
    "abbr": "Sv  ",
    "lat": "48.1784",
    "lng": "14.5219",
    "arrival": "2023-09-02T03:44:00Z",
    "departure": "2023-09-02T03:45:00Z"
  },
  {
    "train_number": "821   ",
    "unit_number": "1116.0231",
    "name": "Enns",
    "abbr": "Ens ",
    "lat": "48.2212",
    "lng": "14.4668",
    "arrival": null,
    "departure": "2023-09-02T03:36:00Z"
  },
  {
    "train_number": "841   ",
    "unit_number": "1116.0231",
    "name": "Linz Hbf",
    "abbr": "Lz  ",
    "lat": "48.2908",
    "lng": "14.2927",
    "arrival": "2023-09-01T19:30:00Z",
    "departure": "2023-09-02T03:20:00Z"
  }
]
