[
  {
    "train_number": "63881 ",
    "unit_number": "1116.0157",
    "name": "Attnang-Puchheim",
    "abbr": "At  ",
    "lat": "48.0112",
    "lng": "13.7193",
    "arrival": null,
    "departure": "2023-09-14T19:15:00Z"
  },
  {
    "train_number": "63878 ",
    "unit_number": "1116.0157",
    "name": "Attnang-Puchheim",
    "abbr": "At  ",
    "lat": "48.0112",
    "lng": "13.7193",
    "arrival": null,
    "departure": "2023-09-14T14:17:00Z"
  },
  {
    "train_number": "63878 ",
    "unit_number": "1116.0157",
    "name": "Wels Hbf",
    "abbr": "We  ",
    "lat": "48.1662",
    "lng": "14.0273",
    "arrival": null,
    "departure": "2023-09-14T13:48:00Z"
  },
  {
    "train_number": "63878 ",
    "unit_number": "1116.0157",
    "name": "Wels Vbf-Einfgr (in Wev)",
    "abbr": "Wei ",
    "lat": "48.1765",
    "lng": "14.0501",
    "arrival": null,
    "departure": "2023-09-14T13:43:00Z"
  },
  {
    "train_number": "44863 ",
    "unit_number": "1116.0157",
    "name": "Wels Vbf (in Wev)",
    "abbr": "Wev ",
    "lat": "48.1662",
    "lng": "14.0273",
    "arrival": "2023-09-14T11:03:00Z",
    "departure": "2023-09-14T13:41:00Z"
  },
  {
    "train_number": "44863 ",
    "unit_number": "1116.0157",
    "name": "Wels Vbf-Einfgr (in Wev)",
    "abbr": "Wei ",
    "lat": "48.1765",
    "lng": "14.0501",
    "arrival": "2023-09-14T10:50:00Z",
    "departure": "2023-09-14T11:00:00Z"
  },
  {
    "train_number": "44863 ",
    "unit_number": "1116.0157",
    "name": "Wels Hbf",
    "abbr": "We  ",
    "lat": "48.1662",
    "lng": "14.0273",
    "arrival": null,
    "departure": "2023-09-14T10:46:00Z"
  },
  {
    "train_number": "44863 ",
    "unit_number": "1116.0157",
    "name": "Attnang-Puchheim",
    "abbr": "At  ",
    "lat": "48.0112",
    "lng": "13.7193",
    "arrival": null,
    "departure": "2023-09-14T10:24:00Z"
  },
  {
    "train_number": "44863 ",
    "unit_number": "1116.0157",
    "name": "Steindorf b.Straßw. (in Nst)",
    "abbr": "Nst ",
    "lat": "47.9676",
    "lng": "13.2406",
    "arrival": "2023-09-14T09:04:00Z",
    "departure": "2023-09-14T09:12:00Z"
  },
  {
    "train_number": "44863 ",
    "unit_number": "1116.0157",
    "name": "Salzburg Hbf (in Sb)",
    "abbr": "Sb  ",
    "lat": "47.8135",
    "lng": "13.0466",
    "arrival": "2023-09-14T08:21:00Z",
    "departure": "2023-09-14T08:38:00Z"
  },
  {
    "train_number": "44863 ",
    "unit_number": "1116.0157",
    "name": "Salzburg Liefering (in Sb)",
    "abbr": "Lfg ",
    "lat": "47.8229",
    "lng": "13.0021",
    "arrival": null,
    "departure": "2023-09-14T08:16:00Z"
  },
  {
    "train_number": "44863 ",
    "unit_number": "1116.0157",
    "name": "Freilassing",
    "abbr": "MFL ",
    "lat": "47.8368",
    "lng": "12.9764",
    "arrival": null,
    "departure": "2023-09-14T08:14:00Z"
  },
  {
    "train_number": "44863 ",
    "unit_number": "1116.0157",
    "name": "Traunstein",
    "abbr": "MTS ",
    "lat": "47.8697",
    "lng": "12.6391",
    "arrival": null,
    "departure": "2023-09-14T07:52:00Z"
  },
  {
    "train_number": "44863 ",
    "unit_number": "1116.0157",
    "name": "Kufstein",
    "abbr": "K   ",
    "lat": "47.5833",
    "lng": "12.1657",
    "arrival": "2023-09-14T06:42:00Z",
    "departure": "2023-09-14T06:46:00Z"
  },
  {
    "train_number": "44863 ",
    "unit_number": "1116.0157",
    "name": "Wörgl Hbf (in W)",
    "abbr": "W   ",
    "lat": "47.4912",
    "lng": "12.0603",
    "arrival": "2023-09-14T06:01:00Z",
    "departure": "2023-09-14T06:30:00Z"
  },
  {
    "train_number": "44863 ",
    "unit_number": "1116.0157",
    "name": "Wörgl Hbf-T. N. (in W)",
    "abbr": "Wtn ",
    "lat": "47.4824",
    "lng": "12.033",
    "arrival": null,
    "departure": "2023-09-14T05:58:00Z"
  },
  {
    "train_number": "44858 ",
    "unit_number": "1116.0157",
    "name": "Hall in Tirol",
    "abbr": "H   ",
    "lat": "47.2769",
    "lng": "11.5013",
    "arrival": "2023-09-14T04:25:00Z",
    "departure": "2023-09-14T05:25:00Z"
  },
  {
    "train_number": "44858 ",
    "unit_number": "1116.0157",
    "name": "Wörgl Hbf-T. N. (in W)",
    "abbr": "Wtn ",
    "lat": "47.4824",
    "lng": "12.033",
    "arrival": null,
    "departure": "2023-09-14T03:50:00Z"
  },
  {
    "train_number": "44858 ",
    "unit_number": "1116.0157",
    "name": "Wörgl Hbf (in W)",
    "abbr": "W   ",
    "lat": "47.4912",
    "lng": "12.0603",
    "arrival": "2023-09-14T03:37:00Z",
    "departure": "2023-09-14T03:47:00Z"
  },
  {
    "train_number": "44858 ",
    "unit_number": "1116.0157",
    "name": "Kufstein",
    "abbr": "K   ",
    "lat": "47.5833",
    "lng": "12.1657",
    "arrival": "2023-09-14T02:52:00Z",
    "departure": "2023-09-14T03:23:00Z"
  }
]
