[
  {
    "train_number": "47320 ",
    "unit_number": "1116.0165",
    "name": "Mürzzuschlag (in Mz)",
    "abbr": "Mz  ",
    "lat": "47.6079",
    "lng": "15.677",
    "arrival": null,
    "departure": "2023-09-06T15:35:00Z"
  },
  {
    "train_number": "47320 ",
    "unit_number": "1116.0165",
    "name": "Payerbach-Reichenau",
    "abbr": "Pr  ",
    "lat": "47.696",
    "lng": "15.8632",
    "arrival": null,
    "departure": "2023-09-06T14:41:00Z"
  },
  {
    "train_number": "47320 ",
    "unit_number": "1116.0165",
    "name": "Neunkirchen N.Ö.",
    "abbr": "Nek ",
    "lat": "47.731",
    "lng": "16.0826",
    "arrival": "2023-09-06T13:58:00Z",
    "departure": "2023-09-06T14:03:00Z"
  },
  {
    "train_number": "47320 ",
    "unit_number": "1116.0165",
    "name": "Wr. Neustadt Hbf (in Nb)",
    "abbr": "Nb  ",
    "lat": "47.8113",
    "lng": "16.2337",
    "arrival": null,
    "departure": "2023-09-06T13:46:00Z"
  },
  {
    "train_number": "47320 ",
    "unit_number": "1116.0165",
    "name": "Ebenfurth (in Ef)",
    "abbr": "Ef  ",
    "lat": "47.8777",
    "lng": "16.3621",
    "arrival": null,
    "departure": "2023-09-06T13:36:00Z"
  },
  {
    "train_number": null,
    "unit_number": "1116.0165",
    "name": "Kledering (in Zur)",
    "abbr": "Za  ",
    "lat": "48.1453",
    "lng": "16.43",
    "arrival": null,
    "departure": "2023-09-06T12:37:00Z"
  },
  {
    "train_number": "54085 ",
    "unit_number": "1116.0165",
    "name": "Tulln a. d. Donau (in Tu)",
    "abbr": "Tu  ",
    "lat": "48.3275",
    "lng": "16.0644",
    "arrival": "2023-09-06T09:43:00Z",
    "departure": "2023-09-06T10:01:00Z"
  },
  {
    "train_number": "54085 ",
    "unit_number": "1116.0165",
    "name": "Pöchlarn",
    "abbr": "Poe ",
    "lat": "48.208",
    "lng": "15.2148",
    "arrival": null,
    "departure": "2023-09-06T08:05:00Z"
  },
  {
    "train_number": "54085 ",
    "unit_number": "1116.0165",
    "name": "Ybbs a.d.Donau",
    "abbr": "Y   ",
    "lat": "48.158",
    "lng": "15.0981",
    "arrival": null,
    "departure": "2023-09-06T07:54:00Z"
  },
  {
    "train_number": "54085 ",
    "unit_number": "1116.0165",
    "name": "Amstetten (in Ams)",
    "abbr": "Ams ",
    "lat": "48.1215",
    "lng": "14.8792",
    "arrival": null,
    "departure": "2023-09-06T07:39:00Z"
  },
  {
    "train_number": "54085 ",
    "unit_number": "1116.0165",
    "name": "St.Valentin (in Sv)",
    "abbr": "Sv  ",
    "lat": "48.1784",
    "lng": "14.5219",
    "arrival": null,
    "departure": "2023-09-06T07:08:00Z"
  },
  {
    "train_number": "54085 ",
    "unit_number": "1116.0165",
    "name": "Enns",
    "abbr": "Ens ",
    "lat": "48.2212",
    "lng": "14.4668",
    "arrival": null,
    "departure": "2023-09-06T07:02:00Z"
  },
  {
    "train_number": "54085 ",
    "unit_number": "1116.0165",
    "name": "Linz Hbf",
    "abbr": "Lz  ",
    "lat": "48.2908",
    "lng": "14.2927",
    "arrival": null,
    "departure": "2023-09-06T06:18:00Z"
  },
  {
    "train_number": null,
    "unit_number": "1116.0165",
    "name": "Wels Vbf (in Wev)",
    "abbr": "Wev ",
    "lat": "48.1662",
    "lng": "14.0273",
    "arrival": null,
    "departure": "2023-09-06T05:59:00Z"
  },
  {
    "train_number": "54800 ",
    "unit_number": "1116.0165",
    "name": "Linz Hbf",
    "abbr": "Lz  ",
    "lat": "48.2908",
    "lng": "14.2927",
    "arrival": null,
    "departure": "2023-09-06T04:16:00Z"
  },
  {
    "train_number": "54800 ",
    "unit_number": "1116.0165",
    "name": "Linz Vbf-West (in Lzv)",
    "abbr": "Lr  ",
    "lat": "48.2607",
    "lng": "14.2927",
    "arrival": "2023-09-06T04:05:00Z",
    "departure": "2023-09-06T04:08:00Z"
  },
  {
    "train_number": "54800 ",
    "unit_number": "1116.0165",
    "name": "St.Valentin (in Sv)",
    "abbr": "Sv  ",
    "lat": "48.1784",
    "lng": "14.5219",
    "arrival": null,
    "departure": "2023-09-06T03:43:00Z"
  },
  {
    "train_number": "54800 ",
    "unit_number": "1116.0165",
    "name": "Amstetten (in Ams)",
    "abbr": "Ams ",
    "lat": "48.1215",
    "lng": "14.8792",
    "arrival": null,
    "departure": "2023-09-06T03:18:00Z"
  },
  {
    "train_number": "54800 ",
    "unit_number": "1116.0165",
    "name": "Ybbs a.d.Donau",
    "abbr": "Y   ",
    "lat": "48.158",
    "lng": "15.0981",
    "arrival": null,
    "departure": "2023-09-06T03:06:00Z"
  },
  {
    "train_number": "54800 ",
    "unit_number": "1116.0165",
    "name": "Pöchlarn",
    "abbr": "Poe ",
    "lat": "48.208",
    "lng": "15.2148",
    "arrival": null,
    "departure": "2023-09-06T02:59:00Z"
  }
]
