[
  {
    "train_number": "88622 ",
    "unit_number": "1116.0165",
    "name": "Werndorf",
    "abbr": "Wr  ",
    "lat": "46.9171",
    "lng": "15.477",
    "arrival": null,
    "departure": "2023-09-02T14:39:00Z"
  },
  {
    "train_number": "49417 ",
    "unit_number": "1116.0165",
    "name": "Spielfeld-Straß",
    "abbr": "Sd  ",
    "lat": "46.71",
    "lng": "15.6282",
    "arrival": "2023-09-02T13:21:00Z",
    "departure": "2023-09-02T14:20:00Z"
  },
  {
    "train_number": "49417 ",
    "unit_number": "1116.0165",
    "name": "Werndorf",
    "abbr": "Wr  ",
    "lat": "46.9171",
    "lng": "15.477",
    "arrival": null,
    "departure": "2023-09-02T12:35:00Z"
  },
  {
    "train_number": "49417 ",
    "unit_number": "1116.0165",
    "name": "Graz Hbf (in G)",
    "abbr": "G   ",
    "lat": "47.0733",
    "lng": "15.4163",
    "arrival": null,
    "departure": "2023-09-02T12:00:00Z"
  },
  {
    "train_number": "49417 ",
    "unit_number": "1116.0165",
    "name": "Graz Vbf (in G)",
    "abbr": "Gi  ",
    "lat": "47.0885",
    "lng": "15.4077",
    "arrival": null,
    "departure": "2023-09-02T11:57:00Z"
  },
  {
    "train_number": "49417 ",
    "unit_number": "1116.0165",
    "name": "Bruck a.d.Mur (in Bm)",
    "abbr": "Bm  ",
    "lat": "47.4134",
    "lng": "15.2797",
    "arrival": null,
    "departure": "2023-09-02T11:13:00Z"
  },
  {
    "train_number": "49417 ",
    "unit_number": "1116.0165",
    "name": "Mürzzuschlag (in Mz)",
    "abbr": "Mz  ",
    "lat": "47.6079",
    "lng": "15.677",
    "arrival": null,
    "departure": "2023-09-02T10:03:00Z"
  },
  {
    "train_number": "49417 ",
    "unit_number": "1116.0165",
    "name": "Payerbach-Reichenau",
    "abbr": "Pr  ",
    "lat": "47.696",
    "lng": "15.8632",
    "arrival": null,
    "departure": "2023-09-02T08:57:00Z"
  },
  {
    "train_number": "49417 ",
    "unit_number": "1116.0165",
    "name": "Neunkirchen N.Ö.",
    "abbr": "Nek ",
    "lat": "47.731",
    "lng": "16.0826",
    "arrival": null,
    "departure": "2023-09-02T07:56:00Z"
  },
  {
    "train_number": "49417 ",
    "unit_number": "1116.0165",
    "name": "Wr. Neustadt Hbf (in Nb)",
    "abbr": "Nb  ",
    "lat": "47.8113",
    "lng": "16.2337",
    "arrival": null,
    "departure": "2023-09-02T07:45:00Z"
  },
  {
    "train_number": "49417 ",
    "unit_number": "1116.0165",
    "name": "Ebenfurth (in Ef)",
    "abbr": "Ef  ",
    "lat": "47.8777",
    "lng": "16.3621",
    "arrival": null,
    "departure": "2023-09-02T07:34:00Z"
  },
  {
    "train_number": "49417 ",
    "unit_number": "1116.0165",
    "name": "Wien Zvbf (in Zur)",
    "abbr": "Zur ",
    "lat": "48.1453",
    "lng": "16.43",
    "arrival": "2023-09-02T06:37:00Z",
    "departure": "2023-09-02T06:58:00Z"
  },
  {
    "train_number": "49417 ",
    "unit_number": "1116.0165",
    "name": "Gänserndorf",
    "abbr": "Gae ",
    "lat": "48.3401",
    "lng": "16.7324",
    "arrival": null,
    "departure": "2023-09-02T05:52:00Z"
  },
  {
    "train_number": "49417 ",
    "unit_number": "1116.0165",
    "name": "Hohenau",
    "abbr": "Nh  ",
    "lat": "48.5981",
    "lng": "16.9008",
    "arrival": "2023-09-02T05:20:00Z",
    "departure": "2023-09-02T05:23:00Z"
  }
]
