[
  {
    "train_number": "766   ",
    "unit_number": "1116.0249",
    "name": "St.Valentin (in Sv)",
    "abbr": "Sv  ",
    "lat": "48.1784",
    "lng": "14.5219",
    "arrival": null,
    "departure": "2023-10-06T10:31:00Z"
  },
  {
    "train_number": "766   ",
    "unit_number": "1116.0249",
    "name": "Amstetten (in Ams)",
    "abbr": "Ams ",
    "lat": "48.1215",
    "lng": "14.8792",
    "arrival": null,
    "departure": "2023-10-06T10:19:00Z"
  },
  {
    "train_number": "766   ",
    "unit_number": "1116.0249",
    "name": "Ybbs a.d.Donau",
    "abbr": "Y   ",
    "lat": "48.158",
    "lng": "15.0981",
    "arrival": null,
    "departure": "2023-10-06T10:14:00Z"
  },
  {
    "train_number": "766   ",
    "unit_number": "1116.0249",
    "name": "Pöchlarn",
    "abbr": "Poe ",
    "lat": "48.208",
    "lng": "15.2148",
    "arrival": null,
    "departure": "2023-10-06T10:10:00Z"
  },
  {
    "train_number": "766   ",
    "unit_number": "1116.0249",
    "name": "St.Pölten Hbf (in Pb)",
    "abbr": "Pb  ",
    "lat": "48.2081",
    "lng": "15.6237",
    "arrival": "2023-10-06T09:57:00Z",
    "departure": "2023-10-06T09:59:00Z"
  },
  {
    "train_number": "766   ",
    "unit_number": "1116.0249",
    "name": "Wien Meidling (in Wbf)",
    "abbr": "Mi  ",
    "lat": "48.1747",
    "lng": "16.3348",
    "arrival": "2023-10-06T09:33:00Z",
    "departure": "2023-10-06T09:35:00Z"
  },
  {
    "train_number": "530   ",
    "unit_number": "1116.0249",
    "name": "Wien Hauptbahnhof (in Wbf)",
    "abbr": "Wbf ",
    "lat": "48.185",
    "lng": "16.3778",
    "arrival": "2023-10-06T07:42:00Z",
    "departure": "2023-10-06T09:28:00Z"
  },
  {
    "train_number": "530   ",
    "unit_number": "1116.0249",
    "name": "Wien Meidling (in Wbf)",
    "abbr": "Mi  ",
    "lat": "48.1747",
    "lng": "16.3348",
    "arrival": "2023-10-06T07:35:00Z",
    "departure": "2023-10-06T07:37:00Z"
  },
  {
    "train_number": "530   ",
    "unit_number": "1116.0249",
    "name": "Mödling",
    "abbr": "Md  ",
    "lat": "48.0858",
    "lng": "16.2958",
    "arrival": null,
    "departure": "2023-10-06T07:25:00Z"
  },
  {
    "train_number": "530   ",
    "unit_number": "1116.0249",
    "name": "Leobersdorf",
    "abbr": "Lb  ",
    "lat": "47.9375",
    "lng": "16.2313",
    "arrival": null,
    "departure": "2023-10-06T07:15:00Z"
  },
  {
    "train_number": "530   ",
    "unit_number": "1116.0249",
    "name": "Wr. Neustadt Hbf (in Nb)",
    "abbr": "Nb  ",
    "lat": "47.8113",
    "lng": "16.2337",
    "arrival": "2023-10-06T07:06:00Z",
    "departure": "2023-10-06T07:08:00Z"
  },
  {
    "train_number": "530   ",
    "unit_number": "1116.0249",
    "name": "Neunkirchen N.Ö.",
    "abbr": "Nek ",
    "lat": "47.731",
    "lng": "16.0826",
    "arrival": null,
    "departure": "2023-10-06T06:58:00Z"
  },
  {
    "train_number": "530   ",
    "unit_number": "1116.0249",
    "name": "Payerbach-Reichenau",
    "abbr": "Pr  ",
    "lat": "47.696",
    "lng": "15.8632",
    "arrival": null,
    "departure": "2023-10-06T06:47:00Z"
  },
  {
    "train_number": "530   ",
    "unit_number": "1116.0249",
    "name": "Mürzzuschlag (in Mz)",
    "abbr": "Mz  ",
    "lat": "47.6079",
    "lng": "15.677",
    "arrival": null,
    "departure": "2023-10-06T06:11:00Z"
  },
  {
    "train_number": "530   ",
    "unit_number": "1116.0249",
    "name": "Bruck a.d.Mur (in Bm)",
    "abbr": "Bm  ",
    "lat": "47.4134",
    "lng": "15.2797",
    "arrival": null,
    "departure": "2023-10-06T05:47:00Z"
  },
  {
    "train_number": "530   ",
    "unit_number": "1116.0249",
    "name": "Leoben Hbf (in Leb)",
    "abbr": "Leb ",
    "lat": "47.3867",
    "lng": "15.0898",
    "arrival": "2023-10-06T05:36:00Z",
    "departure": "2023-10-06T05:37:00Z"
  },
  {
    "train_number": "530   ",
    "unit_number": "1116.0249",
    "name": "Zeltweg",
    "abbr": "Zg  ",
    "lat": "47.1887",
    "lng": "14.7425",
    "arrival": null,
    "departure": "2023-10-06T05:12:00Z"
  },
  {
    "train_number": "530   ",
    "unit_number": "1116.0249",
    "name": "St.Veit a.d.Glan (in Vps)",
    "abbr": "Vps ",
    "lat": "46.7704",
    "lng": "14.3672",
    "arrival": "2023-10-06T04:00:00Z",
    "departure": "2023-10-06T04:01:00Z"
  },
  {
    "train_number": "530   ",
    "unit_number": "1116.0249",
    "name": "Klagenfurt Hbf (in Kt)",
    "abbr": "Kt  ",
    "lat": "46.6156",
    "lng": "14.3137",
    "arrival": "2023-10-06T03:46:00Z",
    "departure": "2023-10-06T03:48:00Z"
  },
  {
    "train_number": "631   ",
    "unit_number": "1116.0249",
    "name": "Villach Hbf",
    "abbr": "Vb  ",
    "lat": "46.6186",
    "lng": "13.8484",
    "arrival": "2023-10-05T18:46:00Z",
    "departure": "2023-10-06T03:25:00Z"
  }
]
