[
  {
    "train_number": "2372  ",
    "unit_number": "1116.0157",
    "name": "Mödling",
    "abbr": "Md  ",
    "lat": "48.0858",
    "lng": "16.2958",
    "arrival": "2023-09-28T20:39:00Z",
    "departure": "2023-09-28T20:40:00Z"
  },
  {
    "train_number": "2372  ",
    "unit_number": "1116.0157",
    "name": "Leobersdorf",
    "abbr": "Lb  ",
    "lat": "47.9375",
    "lng": "16.2313",
    "arrival": "2023-09-28T20:22:00Z",
    "departure": "2023-09-28T20:23:00Z"
  },
  {
    "train_number": "1969  ",
    "unit_number": "1116.0157",
    "name": "Wr. Neustadt Hbf (in Nb)",
    "abbr": "Nb  ",
    "lat": "47.8113",
    "lng": "16.2337",
    "arrival": "2023-09-28T18:51:00Z",
    "departure": "2023-09-28T20:11:00Z"
  },
  {
    "train_number": "1969  ",
    "unit_number": "1116.0157",
    "name": "Leobersdorf",
    "abbr": "Lb  ",
    "lat": "47.9375",
    "lng": "16.2313",
    "arrival": null,
    "departure": "2023-09-28T18:43:00Z"
  },
  {
    "train_number": "1969  ",
    "unit_number": "1116.0157",
    "name": "Mödling",
    "abbr": "Md  ",
    "lat": "48.0858",
    "lng": "16.2958",
    "arrival": null,
    "departure": "2023-09-28T18:34:00Z"
  },
  {
    "train_number": "1969  ",
    "unit_number": "1116.0157",
    "name": "Wien Meidling (in Wbf)",
    "abbr": "Mi  ",
    "lat": "48.1747",
    "lng": "16.3348",
    "arrival": "2023-09-28T18:23:00Z",
    "departure": "2023-09-28T18:25:00Z"
  },
  {
    "train_number": null,
    "unit_number": "1116.0157",
    "name": "Wien Hauptbahnhof (in Wbf)",
    "abbr": "Wbf ",
    "lat": "48.1747",
    "lng": "16.3348",
    "arrival": null,
    "departure": "2023-09-28T18:18:00Z"
  },
  {
    "train_number": "2221  ",
    "unit_number": "1116.0157",
    "name": "Floridsdorf (in F)",
    "abbr": "F   ",
    "lat": "48.2568",
    "lng": "16.4004",
    "arrival": "2023-09-28T07:17:00Z",
    "departure": "2023-09-28T07:19:00Z"
  },
  {
    "train_number": "2221  ",
    "unit_number": "1116.0157",
    "name": "Korneuburg",
    "abbr": "Ko  ",
    "lat": "48.3429",
    "lng": "16.3289",
    "arrival": "2023-09-28T07:08:00Z",
    "departure": "2023-09-28T07:09:00Z"
  },
  {
    "train_number": "2221  ",
    "unit_number": "1116.0157",
    "name": "Stockerau (in Su)",
    "abbr": "Su  ",
    "lat": "48.3824",
    "lng": "16.2126",
    "arrival": "2023-09-28T07:01:00Z",
    "departure": "2023-09-28T07:02:00Z"
  },
  {
    "train_number": "2221  ",
    "unit_number": "1116.0157",
    "name": "Hollabrunn",
    "abbr": "Oh  ",
    "lat": "48.563",
    "lng": "16.0722",
    "arrival": "2023-09-28T06:43:00Z",
    "departure": "2023-09-28T06:45:00Z"
  },
  {
    "train_number": "2202  ",
    "unit_number": "1116.0157",
    "name": "Retz",
    "abbr": "R   ",
    "lat": "48.7539",
    "lng": "15.9574",
    "arrival": "2023-09-28T05:12:00Z",
    "departure": "2023-09-28T06:16:00Z"
  },
  {
    "train_number": "2202  ",
    "unit_number": "1116.0157",
    "name": "Hollabrunn",
    "abbr": "Oh  ",
    "lat": "48.563",
    "lng": "16.0722",
    "arrival": "2023-09-28T04:44:00Z",
    "departure": "2023-09-28T04:45:00Z"
  },
  {
    "train_number": "2202  ",
    "unit_number": "1116.0157",
    "name": "Stockerau (in Su)",
    "abbr": "Su  ",
    "lat": "48.3824",
    "lng": "16.2126",
    "arrival": "2023-09-28T04:27:00Z",
    "departure": "2023-09-28T04:28:00Z"
  },
  {
    "train_number": "2202  ",
    "unit_number": "1116.0157",
    "name": "Korneuburg",
    "abbr": "Ko  ",
    "lat": "48.3429",
    "lng": "16.3289",
    "arrival": "2023-09-28T04:19:00Z",
    "departure": "2023-09-28T04:20:00Z"
  },
  {
    "train_number": "2202  ",
    "unit_number": "1116.0157",
    "name": "Floridsdorf (in F)",
    "abbr": "F   ",
    "lat": "48.2568",
    "lng": "16.4004",
    "arrival": "2023-09-28T04:09:00Z",
    "departure": "2023-09-28T04:11:00Z"
  },
  {
    "train_number": "2202  ",
    "unit_number": "1116.0157",
    "name": "Wien Meidling (in Wbf)",
    "abbr": "Mi  ",
    "lat": "48.1747",
    "lng": "16.3348",
    "arrival": "2023-09-28T03:42:00Z",
    "departure": "2023-09-28T03:44:00Z"
  },
  {
    "train_number": "2202  ",
    "unit_number": "1116.0157",
    "name": "Mödling",
    "abbr": "Md  ",
    "lat": "48.0858",
    "lng": "16.2958",
    "arrival": "2023-09-28T03:29:00Z",
    "departure": "2023-09-28T03:30:00Z"
  },
  {
    "train_number": "2202  ",
    "unit_number": "1116.0157",
    "name": "Leobersdorf",
    "abbr": "Lb  ",
    "lat": "47.9375",
    "lng": "16.2313",
    "arrival": "2023-09-28T03:13:00Z",
    "departure": "2023-09-28T03:14:00Z"
  },
  {
    "train_number": "Blockz",
    "unit_number": "1116.0157",
    "name": "Wr. Neustadt Hbf (in Nb)",
    "abbr": "Nb  ",
    "lat": "47.8113",
    "lng": "16.2337",
    "arrival": "2023-09-28T02:30:00Z",
    "departure": "2023-09-28T03:03:00Z"
  }
]
