[
  {
    "train_number": "558   ",
    "unit_number": "1116.0153",
    "name": "Wien Meidling (in Wbf)",
    "abbr": "Mi  ",
    "lat": "48.1747",
    "lng": "16.3348",
    "arrival": "2023-10-14T09:55:00Z",
    "departure": "2023-10-14T09:57:00Z"
  },
  {
    "train_number": "558   ",
    "unit_number": "1116.0153",
    "name": "Mödling",
    "abbr": "Md  ",
    "lat": "48.0858",
    "lng": "16.2958",
    "arrival": null,
    "departure": "2023-10-14T09:46:00Z"
  },
  {
    "train_number": "558   ",
    "unit_number": "1116.0153",
    "name": "Leobersdorf",
    "abbr": "Lb  ",
    "lat": "47.9375",
    "lng": "16.2313",
    "arrival": null,
    "departure": "2023-10-14T09:39:00Z"
  },
  {
    "train_number": "558   ",
    "unit_number": "1116.0153",
    "name": "Wr. Neustadt Hbf (in Nb)",
    "abbr": "Nb  ",
    "lat": "47.8113",
    "lng": "16.2337",
    "arrival": "2023-10-14T09:28:00Z",
    "departure": "2023-10-14T09:32:00Z"
  },
  {
    "train_number": "558   ",
    "unit_number": "1116.0153",
    "name": "Neunkirchen N.Ö.",
    "abbr": "Nek ",
    "lat": "47.731",
    "lng": "16.0826",
    "arrival": null,
    "departure": "2023-10-14T09:19:00Z"
  },
  {
    "train_number": "558   ",
    "unit_number": "1116.0153",
    "name": "Payerbach-Reichenau",
    "abbr": "Pr  ",
    "lat": "47.696",
    "lng": "15.8632",
    "arrival": null,
    "departure": "2023-10-14T09:08:00Z"
  },
  {
    "train_number": "558   ",
    "unit_number": "1116.0153",
    "name": "Mürzzuschlag (in Mz)",
    "abbr": "Mz  ",
    "lat": "47.6079",
    "lng": "15.677",
    "arrival": "2023-10-14T08:30:00Z",
    "departure": "2023-10-14T08:32:00Z"
  },
  {
    "train_number": "558   ",
    "unit_number": "1116.0153",
    "name": "Bruck a.d.Mur (in Bm)",
    "abbr": "Bm  ",
    "lat": "47.4134",
    "lng": "15.2797",
    "arrival": "2023-10-14T08:00:00Z",
    "departure": "2023-10-14T08:02:00Z"
  },
  {
    "train_number": "558   ",
    "unit_number": "1116.0153",
    "name": "Graz Vbf (in G)",
    "abbr": "Gi  ",
    "lat": "47.0885",
    "lng": "15.4077",
    "arrival": null,
    "departure": "2023-10-14T07:28:00Z"
  },
  {
    "train_number": "551   ",
    "unit_number": "1116.0153",
    "name": "Graz Hbf (in G)",
    "abbr": "G   ",
    "lat": "47.0733",
    "lng": "15.4163",
    "arrival": "2023-10-14T06:34:00Z",
    "departure": "2023-10-14T07:25:00Z"
  },
  {
    "train_number": "551   ",
    "unit_number": "1116.0153",
    "name": "Graz Vbf (in G)",
    "abbr": "Gi  ",
    "lat": "47.0885",
    "lng": "15.4077",
    "arrival": null,
    "departure": "2023-10-14T06:31:00Z"
  },
  {
    "train_number": "551   ",
    "unit_number": "1116.0153",
    "name": "Bruck a.d.Mur (in Bm)",
    "abbr": "Bm  ",
    "lat": "47.4134",
    "lng": "15.2797",
    "arrival": "2023-10-14T05:57:00Z",
    "departure": "2023-10-14T05:59:00Z"
  },
  {
    "train_number": "551   ",
    "unit_number": "1116.0153",
    "name": "Mürzzuschlag (in Mz)",
    "abbr": "Mz  ",
    "lat": "47.6079",
    "lng": "15.677",
    "arrival": "2023-10-14T05:28:00Z",
    "departure": "2023-10-14T05:30:00Z"
  },
  {
    "train_number": "551   ",
    "unit_number": "1116.0153",
    "name": "Payerbach-Reichenau",
    "abbr": "Pr  ",
    "lat": "47.696",
    "lng": "15.8632",
    "arrival": null,
    "departure": "2023-10-14T04:52:00Z"
  },
  {
    "train_number": "551   ",
    "unit_number": "1116.0153",
    "name": "Neunkirchen N.Ö.",
    "abbr": "Nek ",
    "lat": "47.731",
    "lng": "16.0826",
    "arrival": null,
    "departure": "2023-10-14T04:41:00Z"
  },
  {
    "train_number": "551   ",
    "unit_number": "1116.0153",
    "name": "Wr. Neustadt Hbf (in Nb)",
    "abbr": "Nb  ",
    "lat": "47.8113",
    "lng": "16.2337",
    "arrival": "2023-10-14T04:28:00Z",
    "departure": "2023-10-14T04:32:00Z"
  },
  {
    "train_number": "551   ",
    "unit_number": "1116.0153",
    "name": "Leobersdorf",
    "abbr": "Lb  ",
    "lat": "47.9375",
    "lng": "16.2313",
    "arrival": null,
    "departure": "2023-10-14T04:21:00Z"
  },
  {
    "train_number": "551   ",
    "unit_number": "1116.0153",
    "name": "Mödling",
    "abbr": "Md  ",
    "lat": "48.0858",
    "lng": "16.2958",
    "arrival": null,
    "departure": "2023-10-14T04:13:00Z"
  },
  {
    "train_number": "551   ",
    "unit_number": "1116.0153",
    "name": "Wien Meidling (in Wbf)",
    "abbr": "Mi  ",
    "lat": "48.1747",
    "lng": "16.3348",
    "arrival": "2023-10-14T04:03:00Z",
    "departure": "2023-10-14T04:05:00Z"
  },
  {
    "train_number": "741   ",
    "unit_number": "1116.0153",
    "name": "Wien Hauptbahnhof (in Wbf)",
    "abbr": "Wbf ",
    "lat": "48.185",
    "lng": "16.3778",
    "arrival": "2023-10-13T16:05:00Z",
    "departure": "2023-10-14T03:58:00Z"
  }
]
