[
  {
    "train_number": "5345  ",
    "unit_number": "1116.0157",
    "name": "Wörgl Hbf (in W)",
    "abbr": "W   ",
    "lat": "47.4912",
    "lng": "12.0603",
    "arrival": "2023-10-30T17:16:00Z",
    "departure": "2023-10-30T17:18:00Z"
  },
  {
    "train_number": "5345  ",
    "unit_number": "1116.0157",
    "name": "Wörgl Hbf-T. N. (in W)",
    "abbr": "Wtn ",
    "lat": "47.4824",
    "lng": "12.033",
    "arrival": null,
    "departure": "2023-10-30T17:13:00Z"
  },
  {
    "train_number": "5345  ",
    "unit_number": "1116.0157",
    "name": "Jenbach",
    "abbr": "Jb  ",
    "lat": "47.3884",
    "lng": "11.7783",
    "arrival": "2023-10-30T17:00:00Z",
    "departure": "2023-10-30T17:02:00Z"
  },
  {
    "train_number": "5345  ",
    "unit_number": "1116.0157",
    "name": "Hall in Tirol",
    "abbr": "H   ",
    "lat": "47.2769",
    "lng": "11.5013",
    "arrival": null,
    "departure": "2023-10-30T16:48:00Z"
  },
  {
    "train_number": "5344  ",
    "unit_number": "1116.0157",
    "name": "Innsbruck Hbf  (in I)",
    "abbr": "I   ",
    "lat": "47.2634",
    "lng": "11.4017",
    "arrival": "2023-10-30T06:17:00Z",
    "departure": "2023-10-30T16:40:00Z"
  },
  {
    "train_number": "5344  ",
    "unit_number": "1116.0157",
    "name": "Hall in Tirol",
    "abbr": "H   ",
    "lat": "47.2769",
    "lng": "11.5013",
    "arrival": null,
    "departure": "2023-10-30T06:11:00Z"
  },
  {
    "train_number": "5344  ",
    "unit_number": "1116.0157",
    "name": "Jenbach",
    "abbr": "Jb  ",
    "lat": "47.3884",
    "lng": "11.7783",
    "arrival": "2023-10-30T05:57:00Z",
    "departure": "2023-10-30T05:59:00Z"
  },
  {
    "train_number": "5344  ",
    "unit_number": "1116.0157",
    "name": "Wörgl Hbf-T. N. (in W)",
    "abbr": "Wtn ",
    "lat": "47.4824",
    "lng": "12.033",
    "arrival": null,
    "departure": "2023-10-30T05:43:00Z"
  },
  {
    "train_number": "5344  ",
    "unit_number": "1116.0157",
    "name": "Wörgl Hbf (in W)",
    "abbr": "----",
    "lat": "47.4912",
    "lng": "12.0603",
    "arrival": "2023-10-30T05:38:00Z",
    "departure": "2023-10-30T05:40:00Z"
  },
  {
    "train_number": "Vhz   ",
    "unit_number": "1116.0157",
    "name": "Kufstein",
    "abbr": "K   ",
    "lat": "47.5833",
    "lng": "12.1657",
    "arrival": "2023-10-30T05:29:00Z",
    "departure": "2023-10-30T05:29:00Z"
  }
]
