[
  {
    "train_number": "168   ",
    "unit_number": "1116.0249",
    "name": "St.Valentin (in Sv)",
    "abbr": "Sv  ",
    "lat": "48.1784",
    "lng": "14.5219",
    "arrival": null,
    "departure": "2023-08-29T14:24:00Z"
  },
  {
    "train_number": "168   ",
    "unit_number": "1116.0249",
    "name": "Amstetten (in Ams)",
    "abbr": "Ams ",
    "lat": "48.1215",
    "lng": "14.8792",
    "arrival": null,
    "departure": "2023-08-29T14:12:00Z"
  },
  {
    "train_number": "168   ",
    "unit_number": "1116.0249",
    "name": "Ybbs a.d.Donau",
    "abbr": "Y   ",
    "lat": "48.158",
    "lng": "15.0981",
    "arrival": null,
    "departure": "2023-08-29T14:07:00Z"
  },
  {
    "train_number": "168   ",
    "unit_number": "1116.0249",
    "name": "Pöchlarn",
    "abbr": "Poe ",
    "lat": "48.208",
    "lng": "15.2148",
    "arrival": null,
    "departure": "2023-08-29T14:03:00Z"
  },
  {
    "train_number": "168   ",
    "unit_number": "1116.0249",
    "name": "St.Pölten Hbf (in Pb)",
    "abbr": "Pb  ",
    "lat": "48.2081",
    "lng": "15.6237",
    "arrival": "2023-08-29T13:50:00Z",
    "departure": "2023-08-29T13:52:00Z"
  },
  {
    "train_number": "168   ",
    "unit_number": "1116.0249",
    "name": "Wien Meidling (in Wbf)",
    "abbr": "Mi  ",
    "lat": "48.1747",
    "lng": "16.3348",
    "arrival": "2023-08-29T13:27:00Z",
    "departure": "2023-08-29T13:29:00Z"
  },
  {
    "train_number": "534   ",
    "unit_number": "1116.0249",
    "name": "Wien Hauptbahnhof (in Wbf)",
    "abbr": "Wbf ",
    "lat": "48.1747",
    "lng": "16.3348",
    "arrival": "2023-08-29T11:42:00Z",
    "departure": "2023-08-29T13:21:00Z"
  },
  {
    "train_number": "534   ",
    "unit_number": "1116.0249",
    "name": "Wien Meidling (in Wbf)",
    "abbr": "Mi  ",
    "lat": "48.1747",
    "lng": "16.3348",
    "arrival": "2023-08-29T11:35:00Z",
    "departure": "2023-08-29T11:37:00Z"
  },
  {
    "train_number": "534   ",
    "unit_number": "1116.0249",
    "name": "Mödling",
    "abbr": "Md  ",
    "lat": "48.0858",
    "lng": "16.2958",
    "arrival": null,
    "departure": "2023-08-29T11:25:00Z"
  },
  {
    "train_number": "534   ",
    "unit_number": "1116.0249",
    "name": "Leobersdorf",
    "abbr": "Lb  ",
    "lat": "47.9375",
    "lng": "16.2313",
    "arrival": null,
    "departure": "2023-08-29T11:15:00Z"
  },
  {
    "train_number": "534   ",
    "unit_number": "1116.0249",
    "name": "Wr. Neustadt Hbf (in Nb)",
    "abbr": "Nb  ",
    "lat": "47.8113",
    "lng": "16.2337",
    "arrival": "2023-08-29T11:06:00Z",
    "departure": "2023-08-29T11:08:00Z"
  },
  {
    "train_number": "534   ",
    "unit_number": "1116.0249",
    "name": "Neunkirchen N.Ö.",
    "abbr": "Nek ",
    "lat": "47.731",
    "lng": "16.0826",
    "arrival": null,
    "departure": "2023-08-29T10:58:00Z"
  },
  {
    "train_number": "534   ",
    "unit_number": "1116.0249",
    "name": "Payerbach-Reichenau",
    "abbr": "Pr  ",
    "lat": "47.696",
    "lng": "15.8632",
    "arrival": null,
    "departure": "2023-08-29T10:47:00Z"
  },
  {
    "train_number": "534   ",
    "unit_number": "1116.0249",
    "name": "Mürzzuschlag (in Mz)",
    "abbr": "Mz  ",
    "lat": "47.6079",
    "lng": "15.677",
    "arrival": null,
    "departure": "2023-08-29T10:11:00Z"
  },
  {
    "train_number": "534   ",
    "unit_number": "1116.0249",
    "name": "Bruck a.d.Mur (in Bm)",
    "abbr": "Bm  ",
    "lat": "47.4134",
    "lng": "15.2797",
    "arrival": "2023-08-29T09:43:00Z",
    "departure": "2023-08-29T09:45:00Z"
  },
  {
    "train_number": "534   ",
    "unit_number": "1116.0249",
    "name": "Leoben Hbf (in Leb)",
    "abbr": "Leb ",
    "lat": "47.3867",
    "lng": "15.0898",
    "arrival": "2023-08-29T09:32:00Z",
    "departure": "2023-08-29T09:33:00Z"
  },
  {
    "train_number": "534   ",
    "unit_number": "1116.0249",
    "name": "Zeltweg",
    "abbr": "Zg  ",
    "lat": "47.1887",
    "lng": "14.7425",
    "arrival": null,
    "departure": "2023-08-29T09:07:00Z"
  },
  {
    "train_number": "534   ",
    "unit_number": "1116.0249",
    "name": "St.Veit a.d.Glan (in Vps)",
    "abbr": "Vps ",
    "lat": "46.7704",
    "lng": "14.3672",
    "arrival": "2023-08-29T07:51:00Z",
    "departure": "2023-08-29T07:53:00Z"
  },
  {
    "train_number": "534   ",
    "unit_number": "1116.0249",
    "name": "Klagenfurt Hbf (in Kt)",
    "abbr": "Kt  ",
    "lat": "46.6156",
    "lng": "14.3137",
    "arrival": "2023-08-29T07:37:00Z",
    "departure": "2023-08-29T07:39:00Z"
  },
  {
    "train_number": "534   ",
    "unit_number": "1116.0249",
    "name": "Villach Hbf",
    "abbr": "Vb  ",
    "lat": "46.6186",
    "lng": "13.8484",
    "arrival": "2023-08-29T07:09:00Z",
    "departure": "2023-08-29T07:14:00Z"
  }
]
