[
  {
    "train_number": "44314 ",
    "unit_number": "1116.0016",
    "name": "Hegyeshalom",
    "abbr": "He  ",
    "lat": "47.9139",
    "lng": "17.1455",
    "arrival": "2023-08-25T00:17:00Z",
    "departure": "2023-08-25T00:44:00Z"
  },
  {
    "train_number": "44314 ",
    "unit_number": "1116.0016",
    "name": "Gyoer-Rendezoe",
    "abbr": "GVR ",
    "lat": "47.6822",
    "lng": "17.634",
    "arrival": null,
    "departure": "2023-08-24T23:47:00Z"
  },
  {
    "train_number": "44314 ",
    "unit_number": "1116.0016",
    "name": "Tatabanya",
    "abbr": "TB  ",
    "lat": "47.587",
    "lng": "18.3923",
    "arrival": "2023-08-24T23:06:00Z",
    "departure": "2023-08-24T23:06:00Z"
  },
  {
    "train_number": null,
    "unit_number": "1116.0016",
    "name": "Budapest-Ferencvaros",
    "abbr": "BUFE",
    "lat": "47.4687",
    "lng": "19.0882",
    "arrival": null,
    "departure": "2023-08-24T22:12:00Z"
  },
  {
    "train_number": "44315 ",
    "unit_number": "1116.0016",
    "name": "Hegyeshalom",
    "abbr": "He  ",
    "lat": "47.9139",
    "lng": "17.1455",
    "arrival": "2023-08-24T15:58:00Z",
    "departure": "2023-08-24T17:15:00Z"
  },
  {
    "train_number": "44315 ",
    "unit_number": "1116.0016",
    "name": "Parndorf",
    "abbr": "Par ",
    "lat": "47.987",
    "lng": "16.8702",
    "arrival": null,
    "departure": "2023-08-24T15:41:00Z"
  },
  {
    "train_number": null,
    "unit_number": "1116.0016",
    "name": "Wien Zvbf (in Zur)",
    "abbr": "Zur ",
    "lat": "48.1453",
    "lng": "16.43",
    "arrival": null,
    "departure": "2023-08-24T15:06:00Z"
  },
  {
    "train_number": "45027 ",
    "unit_number": "1116.0016",
    "name": "Gänserndorf",
    "abbr": "Gae ",
    "lat": "48.3401",
    "lng": "16.7324",
    "arrival": null,
    "departure": "2023-08-24T12:51:00Z"
  },
  {
    "train_number": "45027 ",
    "unit_number": "1116.0016",
    "name": "Hohenau",
    "abbr": "Nh  ",
    "lat": "48.5981",
    "lng": "16.9008",
    "arrival": "2023-08-24T12:17:00Z",
    "departure": "2023-08-24T12:26:00Z"
  },
  {
    "train_number": "V-Tfz ",
    "unit_number": "1116.0016",
    "name": "Hohenau",
    "abbr": "Nh  ",
    "lat": "48.5981",
    "lng": "16.9008",
    "arrival": "2023-08-24T10:01:00Z",
    "departure": "2023-08-24T10:33:00Z"
  },
  {
    "train_number": "45004 ",
    "unit_number": "1116.0016",
    "name": "Gänserndorf",
    "abbr": "Gae ",
    "lat": "48.3401",
    "lng": "16.7324",
    "arrival": null,
    "departure": "2023-08-24T09:21:00Z"
  },
  {
    "train_number": null,
    "unit_number": "1116.0016",
    "name": "Wien Zvbf (in Zur)",
    "abbr": "Zur ",
    "lat": "48.1453",
    "lng": "16.43",
    "arrival": null,
    "departure": "2023-08-24T08:35:00Z"
  },
  {
    "train_number": "54093 ",
    "unit_number": "1116.0016",
    "name": "Wien Zvbf (in Zur)",
    "abbr": "Zur ",
    "lat": "48.1453",
    "lng": "16.43",
    "arrival": null,
    "departure": "2023-08-24T07:25:00Z"
  },
  {
    "train_number": "54093 ",
    "unit_number": "1116.0016",
    "name": "Pöchlarn",
    "abbr": "Poe ",
    "lat": "48.208",
    "lng": "15.2148",
    "arrival": null,
    "departure": "2023-08-24T05:20:00Z"
  },
  {
    "train_number": "54093 ",
    "unit_number": "1116.0016",
    "name": "Ybbs a.d.Donau",
    "abbr": "Y   ",
    "lat": "48.158",
    "lng": "15.0981",
    "arrival": null,
    "departure": "2023-08-24T05:10:00Z"
  },
  {
    "train_number": "54093 ",
    "unit_number": "1116.0016",
    "name": "Amstetten (in Ams)",
    "abbr": "Ams ",
    "lat": "48.1215",
    "lng": "14.8792",
    "arrival": null,
    "departure": "2023-08-24T04:58:00Z"
  },
  {
    "train_number": "54093 ",
    "unit_number": "1116.0016",
    "name": "St.Valentin (in Sv)",
    "abbr": "Sv  ",
    "lat": "48.1784",
    "lng": "14.5219",
    "arrival": null,
    "departure": "2023-08-24T04:29:00Z"
  },
  {
    "train_number": "54093 ",
    "unit_number": "1116.0016",
    "name": "Enns",
    "abbr": "Ens ",
    "lat": "48.2212",
    "lng": "14.4668",
    "arrival": null,
    "departure": "2023-08-24T04:24:00Z"
  },
  {
    "train_number": "54093 ",
    "unit_number": "1116.0016",
    "name": "Linz Vbf-Ost-Einf. (in Lzv)",
    "abbr": "Lm  ",
    "lat": "48.2607",
    "lng": "14.3257",
    "arrival": null,
    "departure": "2023-08-24T04:09:00Z"
  },
  {
    "train_number": null,
    "unit_number": "1116.0016",
    "name": "Linz Vbf-Ost Reih. (in Lzv)",
    "abbr": "Lo  ",
    "lat": "48.2607",
    "lng": "14.2927",
    "arrival": null,
    "departure": "2023-08-24T03:58:00Z"
  }
]
