[
  {
    "train_number": "2337  ",
    "unit_number": "1116.0157",
    "name": "Wien Meidling (in Wbf)",
    "abbr": "Mi  ",
    "lat": "48.1747",
    "lng": "16.3348",
    "arrival": "2023-10-09T11:34:00Z",
    "departure": "2023-10-09T11:37:00Z"
  },
  {
    "train_number": "2330  ",
    "unit_number": "1116.0157",
    "name": "Floridsdorf (in F)",
    "abbr": "F   ",
    "lat": "48.2568",
    "lng": "16.4004",
    "arrival": "2023-10-09T10:49:00Z",
    "departure": "2023-10-09T11:09:00Z"
  },
  {
    "train_number": "2330  ",
    "unit_number": "1116.0157",
    "name": "Wien Meidling (in Wbf)",
    "abbr": "Mi  ",
    "lat": "48.1747",
    "lng": "16.3348",
    "arrival": "2023-10-09T10:23:00Z",
    "departure": "2023-10-09T10:24:00Z"
  },
  {
    "train_number": "2330  ",
    "unit_number": "1116.0157",
    "name": "Mödling",
    "abbr": "Md  ",
    "lat": "48.0858",
    "lng": "16.2958",
    "arrival": "2023-10-09T10:09:00Z",
    "departure": "2023-10-09T10:10:00Z"
  },
  {
    "train_number": "2330  ",
    "unit_number": "1116.0157",
    "name": "Leobersdorf",
    "abbr": "Lb  ",
    "lat": "47.9375",
    "lng": "16.2313",
    "arrival": "2023-10-09T09:50:00Z",
    "departure": "2023-10-09T09:52:00Z"
  },
  {
    "train_number": "2330  ",
    "unit_number": "1116.0157",
    "name": "Wr. Neustadt Hbf (in Nb)",
    "abbr": "Nb  ",
    "lat": "47.8113",
    "lng": "16.2337",
    "arrival": "2023-10-09T09:25:00Z",
    "departure": "2023-10-09T09:38:00Z"
  },
  {
    "train_number": "2330  ",
    "unit_number": "1116.0157",
    "name": "Neunkirchen N.Ö.",
    "abbr": "Nek ",
    "lat": "47.731",
    "lng": "16.0826",
    "arrival": "2023-10-09T09:12:00Z",
    "departure": "2023-10-09T09:13:00Z"
  },
  {
    "train_number": "2317  ",
    "unit_number": "1116.0157",
    "name": "Payerbach-Reichenau",
    "abbr": "Pr  ",
    "lat": "47.696",
    "lng": "15.8632",
    "arrival": "2023-10-09T08:09:00Z",
    "departure": "2023-10-09T08:53:00Z"
  },
  {
    "train_number": "2317  ",
    "unit_number": "1116.0157",
    "name": "Neunkirchen N.Ö.",
    "abbr": "Nek ",
    "lat": "47.731",
    "lng": "16.0826",
    "arrival": "2023-10-09T07:48:00Z",
    "departure": "2023-10-09T07:48:00Z"
  },
  {
    "train_number": "2317  ",
    "unit_number": "1116.0157",
    "name": "Wr. Neustadt Hbf (in Nb)",
    "abbr": "Nb  ",
    "lat": "47.8113",
    "lng": "16.2337",
    "arrival": "2023-10-09T07:21:00Z",
    "departure": "2023-10-09T07:35:00Z"
  },
  {
    "train_number": "2317  ",
    "unit_number": "1116.0157",
    "name": "Leobersdorf",
    "abbr": "Lb  ",
    "lat": "47.9375",
    "lng": "16.2313",
    "arrival": "2023-10-09T07:05:00Z",
    "departure": "2023-10-09T07:06:00Z"
  },
  {
    "train_number": "2317  ",
    "unit_number": "1116.0157",
    "name": "Mödling",
    "abbr": "Md  ",
    "lat": "48.0858",
    "lng": "16.2958",
    "arrival": "2023-10-09T06:48:00Z",
    "departure": "2023-10-09T06:49:00Z"
  },
  {
    "train_number": "2317  ",
    "unit_number": "1116.0157",
    "name": "Wien Meidling (in Wbf)",
    "abbr": "Mi  ",
    "lat": "48.1747",
    "lng": "16.3348",
    "arrival": "2023-10-09T06:34:00Z",
    "departure": "2023-10-09T06:37:00Z"
  },
  {
    "train_number": "2317  ",
    "unit_number": "1116.0157",
    "name": "Floridsdorf (in F)",
    "abbr": "F   ",
    "lat": "48.2568",
    "lng": "16.4004",
    "arrival": "2023-10-09T06:08:00Z",
    "departure": "2023-10-09T06:09:00Z"
  },
  {
    "train_number": "2317  ",
    "unit_number": "1116.0157",
    "name": "Gänserndorf",
    "abbr": "Gae ",
    "lat": "48.3401",
    "lng": "16.7324",
    "arrival": "2023-10-09T05:44:00Z",
    "departure": "2023-10-09T05:45:00Z"
  },
  {
    "train_number": "2317  ",
    "unit_number": "1116.0157",
    "name": "Hohenau",
    "abbr": "Nh  ",
    "lat": "48.5981",
    "lng": "16.9008",
    "arrival": "2023-10-09T05:12:00Z",
    "departure": "2023-10-09T05:12:00Z"
  },
  {
    "train_number": "2300  ",
    "unit_number": "1116.0157",
    "name": "Hohenau",
    "abbr": "Nh  ",
    "lat": "48.5981",
    "lng": "16.9008",
    "arrival": "2023-10-09T04:17:00Z",
    "departure": "2023-10-09T04:17:00Z"
  },
  {
    "train_number": "2300  ",
    "unit_number": "1116.0157",
    "name": "Gänserndorf",
    "abbr": "Gae ",
    "lat": "48.3401",
    "lng": "16.7324",
    "arrival": "2023-10-09T03:45:00Z",
    "departure": "2023-10-09T03:45:00Z"
  },
  {
    "train_number": "2300  ",
    "unit_number": "1116.0157",
    "name": "Floridsdorf (in F)",
    "abbr": "F   ",
    "lat": "48.2568",
    "lng": "16.4004",
    "arrival": "2023-10-09T03:22:00Z",
    "departure": "2023-10-09T03:23:00Z"
  },
  {
    "train_number": null,
    "unit_number": "1116.0157",
    "name": "Wien Meidling (in Wbf)",
    "abbr": "Mi  ",
    "lat": "48.1747",
    "lng": "16.3348",
    "arrival": null,
    "departure": "2023-10-09T02:57:00Z"
  }
]
