[
  {
    "train_number": "56509 ",
    "unit_number": "1116.0157",
    "name": "Leoben Hbf (in Leb)",
    "abbr": "Leb ",
    "lat": "47.3867",
    "lng": "15.0898",
    "arrival": null,
    "departure": "2023-08-30T00:10:00Z"
  },
  {
    "train_number": "56509 ",
    "unit_number": "1116.0157",
    "name": "Bruck a.d.Mur (in Bm)",
    "abbr": "Bm  ",
    "lat": "47.4134",
    "lng": "15.2797",
    "arrival": "2023-08-29T23:56:00Z",
    "departure": "2023-08-29T23:56:00Z"
  },
  {
    "train_number": "56509 ",
    "unit_number": "1116.0157",
    "name": "Mürzzuschlag (in Mz)",
    "abbr": "Mz  ",
    "lat": "47.6079",
    "lng": "15.677",
    "arrival": null,
    "departure": "2023-08-29T23:12:00Z"
  },
  {
    "train_number": "56509 ",
    "unit_number": "1116.0157",
    "name": "Payerbach-Reichenau",
    "abbr": "Pr  ",
    "lat": "47.696",
    "lng": "15.8632",
    "arrival": null,
    "departure": "2023-08-29T22:34:00Z"
  },
  {
    "train_number": "56509 ",
    "unit_number": "1116.0157",
    "name": "Neunkirchen N.Ö.",
    "abbr": "Nek ",
    "lat": "47.731",
    "lng": "16.0826",
    "arrival": "2023-08-29T22:00:00Z",
    "departure": "2023-08-29T22:00:00Z"
  },
  {
    "train_number": "56509 ",
    "unit_number": "1116.0157",
    "name": "Wr. Neust.Hbf-Ausf. (in Nb)",
    "abbr": "Nr  ",
    "lat": "47.8113",
    "lng": "16.2337",
    "arrival": "2023-08-29T21:14:00Z",
    "departure": "2023-08-29T21:41:00Z"
  },
  {
    "train_number": "56509 ",
    "unit_number": "1116.0157",
    "name": "Wr. Neustadt Hbf (in Nb)",
    "abbr": "Nb  ",
    "lat": "47.8113",
    "lng": "16.2337",
    "arrival": null,
    "departure": "2023-08-29T21:11:00Z"
  },
  {
    "train_number": "56509 ",
    "unit_number": "1116.0157",
    "name": "Ebenfurth (in Ef)",
    "abbr": "Ef  ",
    "lat": "47.8777",
    "lng": "16.3621",
    "arrival": null,
    "departure": "2023-08-29T21:00:00Z"
  },
  {
    "train_number": null,
    "unit_number": "1116.0157",
    "name": "Wien Zvbf (in Zur)",
    "abbr": "Zur ",
    "lat": "48.1453",
    "lng": "16.43",
    "arrival": null,
    "departure": "2023-08-29T20:25:00Z"
  },
  {
    "train_number": "62017 ",
    "unit_number": "1116.0157",
    "name": "Wien Meidling (in Wbf)",
    "abbr": "Mi  ",
    "lat": "48.1747",
    "lng": "16.3348",
    "arrival": null,
    "departure": "2023-08-29T19:30:00Z"
  },
  {
    "train_number": "62017 ",
    "unit_number": "1116.0157",
    "name": "Pöchlarn",
    "abbr": "Poe ",
    "lat": "48.208",
    "lng": "15.2148",
    "arrival": null,
    "departure": "2023-08-29T18:09:00Z"
  },
  {
    "train_number": "87059 ",
    "unit_number": "1116.0157",
    "name": "Ybbs a.d.Donau",
    "abbr": "Y   ",
    "lat": "48.158",
    "lng": "15.0981",
    "arrival": "2023-08-29T16:56:00Z",
    "departure": "2023-08-29T17:57:00Z"
  },
  {
    "train_number": "18115 ",
    "unit_number": "1116.0157",
    "name": "Amstetten (in Ams)",
    "abbr": "Ams ",
    "lat": "48.1215",
    "lng": "14.8792",
    "arrival": "2023-08-29T15:25:00Z",
    "departure": "2023-08-29T16:43:00Z"
  },
  {
    "train_number": "91132 ",
    "unit_number": "1116.0157",
    "name": "St.Valentin (in Sv)",
    "abbr": "Sv  ",
    "lat": "48.1784",
    "lng": "14.5219",
    "arrival": "2023-08-29T14:42:00Z",
    "departure": "2023-08-29T15:05:00Z"
  },
  {
    "train_number": "91132 ",
    "unit_number": "1116.0157",
    "name": "Amstetten (in Ams)",
    "abbr": "Ams ",
    "lat": "48.1215",
    "lng": "14.8792",
    "arrival": null,
    "departure": "2023-08-29T14:13:00Z"
  },
  {
    "train_number": "18113 ",
    "unit_number": "1116.0157",
    "name": "Ybbs a.d.Donau",
    "abbr": "Y   ",
    "lat": "48.158",
    "lng": "15.0981",
    "arrival": "2023-08-29T13:31:00Z",
    "departure": "2023-08-29T14:00:00Z"
  },
  {
    "train_number": "87060 ",
    "unit_number": "1116.0157",
    "name": "Amstetten (in Ams)",
    "abbr": "Ams ",
    "lat": "48.1215",
    "lng": "14.8792",
    "arrival": "2023-08-29T06:07:00Z",
    "departure": "2023-08-29T13:20:00Z"
  },
  {
    "train_number": "62014 ",
    "unit_number": "1116.0157",
    "name": "Ybbs a.d.Donau",
    "abbr": "Y   ",
    "lat": "48.158",
    "lng": "15.0981",
    "arrival": "2023-08-29T05:16:00Z",
    "departure": "2023-08-29T05:55:00Z"
  },
  {
    "train_number": "62014 ",
    "unit_number": "1116.0157",
    "name": "Pöchlarn",
    "abbr": "Poe ",
    "lat": "48.208",
    "lng": "15.2148",
    "arrival": null,
    "departure": "2023-08-29T05:07:00Z"
  },
  {
    "train_number": null,
    "unit_number": "1116.0157",
    "name": "Wien Zvbf (in Zur)",
    "abbr": "Zur ",
    "lat": "48.1453",
    "lng": "16.43",
    "arrival": null,
    "departure": "2023-08-29T03:25:00Z"
  }
]
