[
  {
    "train_number": "549   ",
    "unit_number": "1116.0153",
    "name": "Amstetten (in Ams)",
    "abbr": "Ams ",
    "lat": "48.1215",
    "lng": "14.8792",
    "arrival": "2023-09-01T09:15:00Z",
    "departure": "2023-09-01T09:17:00Z"
  },
  {
    "train_number": "549   ",
    "unit_number": "1116.0153",
    "name": "St.Valentin (in Sv)",
    "abbr": "Sv  ",
    "lat": "48.1784",
    "lng": "14.5219",
    "arrival": "2023-09-01T08:54:00Z",
    "departure": "2023-09-01T08:58:00Z"
  },
  {
    "train_number": "549   ",
    "unit_number": "1116.0153",
    "name": "Enns",
    "abbr": "Ens ",
    "lat": "48.2212",
    "lng": "14.4668",
    "arrival": null,
    "departure": "2023-09-01T08:46:00Z"
  },
  {
    "train_number": "549   ",
    "unit_number": "1116.0153",
    "name": "Linz Hbf",
    "abbr": "Lz  ",
    "lat": "48.2908",
    "lng": "14.2927",
    "arrival": "2023-09-01T08:30:00Z",
    "departure": "2023-09-01T08:32:00Z"
  },
  {
    "train_number": "549   ",
    "unit_number": "1116.0153",
    "name": "Wels Hbf",
    "abbr": "We  ",
    "lat": "48.1662",
    "lng": "14.0273",
    "arrival": "2023-09-01T08:14:00Z",
    "departure": "2023-09-01T08:16:00Z"
  },
  {
    "train_number": "549   ",
    "unit_number": "1116.0153",
    "name": "Attnang-Puchheim",
    "abbr": "At  ",
    "lat": "48.0112",
    "lng": "13.7193",
    "arrival": "2023-09-01T07:58:00Z",
    "departure": "2023-09-01T08:00:00Z"
  },
  {
    "train_number": "549   ",
    "unit_number": "1116.0153",
    "name": "Steindorf b.Straßw. (in Nst)",
    "abbr": "Nst ",
    "lat": "47.9676",
    "lng": "13.2406",
    "arrival": null,
    "departure": "2023-09-01T07:31:00Z"
  },
  {
    "train_number": "540   ",
    "unit_number": "1116.0153",
    "name": "Salzburg Hbf (in Sb)",
    "abbr": "Sb  ",
    "lat": "47.8135",
    "lng": "13.0466",
    "arrival": "2023-09-01T06:49:00Z",
    "departure": "2023-09-01T07:11:00Z"
  },
  {
    "train_number": "540   ",
    "unit_number": "1116.0153",
    "name": "Steindorf b.Straßw. (in Nst)",
    "abbr": "Nst ",
    "lat": "47.9676",
    "lng": "13.2406",
    "arrival": null,
    "departure": "2023-09-01T06:29:00Z"
  },
  {
    "train_number": "540   ",
    "unit_number": "1116.0153",
    "name": "Attnang-Puchheim",
    "abbr": "At  ",
    "lat": "48.0112",
    "lng": "13.7193",
    "arrival": "2023-09-01T05:59:00Z",
    "departure": "2023-09-01T06:01:00Z"
  },
  {
    "train_number": "540   ",
    "unit_number": "1116.0153",
    "name": "Wels Hbf",
    "abbr": "We  ",
    "lat": "48.1662",
    "lng": "14.0273",
    "arrival": "2023-09-01T05:44:00Z",
    "departure": "2023-09-01T05:46:00Z"
  },
  {
    "train_number": "540   ",
    "unit_number": "1116.0153",
    "name": "Linz Hbf",
    "abbr": "Lz  ",
    "lat": "48.2908",
    "lng": "14.2927",
    "arrival": "2023-09-01T05:28:00Z",
    "departure": "2023-09-01T05:30:00Z"
  },
  {
    "train_number": "540   ",
    "unit_number": "1116.0153",
    "name": "Enns",
    "abbr": "Ens ",
    "lat": "48.2212",
    "lng": "14.4668",
    "arrival": null,
    "departure": "2023-09-01T05:11:00Z"
  },
  {
    "train_number": "540   ",
    "unit_number": "1116.0153",
    "name": "St.Valentin (in Sv)",
    "abbr": "Sv  ",
    "lat": "48.1784",
    "lng": "14.5219",
    "arrival": "2023-09-01T05:00:00Z",
    "departure": "2023-09-01T05:04:00Z"
  },
  {
    "train_number": "540   ",
    "unit_number": "1116.0153",
    "name": "Amstetten (in Ams)",
    "abbr": "Ams ",
    "lat": "48.1215",
    "lng": "14.8792",
    "arrival": "2023-09-01T04:43:00Z",
    "departure": "2023-09-01T04:45:00Z"
  },
  {
    "train_number": "540   ",
    "unit_number": "1116.0153",
    "name": "Ybbs a.d.Donau",
    "abbr": "Y   ",
    "lat": "48.158",
    "lng": "15.0981",
    "arrival": null,
    "departure": "2023-09-01T04:36:00Z"
  },
  {
    "train_number": "540   ",
    "unit_number": "1116.0153",
    "name": "Pöchlarn",
    "abbr": "Poe ",
    "lat": "48.208",
    "lng": "15.2148",
    "arrival": null,
    "departure": "2023-09-01T04:33:00Z"
  },
  {
    "train_number": "540   ",
    "unit_number": "1116.0153",
    "name": "St.Pölten Hbf (in Pb)",
    "abbr": "Pb  ",
    "lat": "48.2081",
    "lng": "15.6237",
    "arrival": "2023-09-01T04:18:00Z",
    "departure": "2023-09-01T04:20:00Z"
  },
  {
    "train_number": "540   ",
    "unit_number": "1116.0153",
    "name": "Wien Meidling (in Wbf)",
    "abbr": "Mi  ",
    "lat": "48.1747",
    "lng": "16.3348",
    "arrival": "2023-09-01T03:50:00Z",
    "departure": "2023-09-01T03:52:00Z"
  },
  {
    "train_number": "741   ",
    "unit_number": "1116.0153",
    "name": "Wien Hauptbahnhof (in Wbf)",
    "abbr": "Wbf ",
    "lat": "48.1747",
    "lng": "16.3348",
    "arrival": "2023-08-31T16:15:00Z",
    "departure": "2023-09-01T03:45:00Z"
  }
]
