[
  {
    "train_number": "18432 ",
    "unit_number": "1116.0165",
    "name": "Wien Zvbf (in Zur)",
    "abbr": "Zur ",
    "lat": "48.1453",
    "lng": "16.43",
    "arrival": null,
    "departure": "2023-09-13T00:24:00Z"
  },
  {
    "train_number": "47382 ",
    "unit_number": "1116.0165",
    "name": "Wien Zvbf (in Zur)",
    "abbr": "Zur ",
    "lat": "48.1453",
    "lng": "16.43",
    "arrival": null,
    "departure": "2023-09-12T23:35:00Z"
  },
  {
    "train_number": "47382 ",
    "unit_number": "1116.0165",
    "name": "Parndorf",
    "abbr": "Par ",
    "lat": "47.987",
    "lng": "16.8702",
    "arrival": null,
    "departure": "2023-09-12T23:05:00Z"
  },
  {
    "train_number": "18473 ",
    "unit_number": "1116.0165",
    "name": "Hegyeshalom",
    "abbr": "He  ",
    "lat": "47.9139",
    "lng": "17.1455",
    "arrival": "2023-09-12T21:46:00Z",
    "departure": "2023-09-12T22:30:00Z"
  },
  {
    "train_number": "18473 ",
    "unit_number": "1116.0165",
    "name": "Parndorf",
    "abbr": "Par ",
    "lat": "47.987",
    "lng": "16.8702",
    "arrival": null,
    "departure": "2023-09-12T21:29:00Z"
  },
  {
    "train_number": "18422 ",
    "unit_number": "1116.0165",
    "name": "Kledering (in Zur)",
    "abbr": "Za  ",
    "lat": "48.1453",
    "lng": "16.43",
    "arrival": "2023-09-12T19:43:00Z",
    "departure": "2023-09-12T21:00:00Z"
  },
  {
    "train_number": "18422 ",
    "unit_number": "1116.0165",
    "name": "Wien Zvbf (in Zur)",
    "abbr": "Zur ",
    "lat": "48.1453",
    "lng": "16.43",
    "arrival": null,
    "departure": "2023-09-12T19:41:00Z"
  },
  {
    "train_number": "18422 ",
    "unit_number": "1116.0165",
    "name": "Korneuburg",
    "abbr": "Ko  ",
    "lat": "48.3429",
    "lng": "16.3289",
    "arrival": null,
    "departure": "2023-09-12T19:03:00Z"
  },
  {
    "train_number": "18422 ",
    "unit_number": "1116.0165",
    "name": "Stockerau (in Su)",
    "abbr": "Su  ",
    "lat": "48.3824",
    "lng": "16.2126",
    "arrival": null,
    "departure": "2023-09-12T18:51:00Z"
  },
  {
    "train_number": "18422 ",
    "unit_number": "1116.0165",
    "name": "Absdorf-Hippersdorf (in Ah)",
    "abbr": "Ah  ",
    "lat": "48.4018",
    "lng": "15.9862",
    "arrival": null,
    "departure": "2023-09-12T18:31:00Z"
  },
  {
    "train_number": "91242 ",
    "unit_number": "1116.0165",
    "name": "Sigmundsherberg",
    "abbr": "Sh  ",
    "lat": "48.6852",
    "lng": "15.7462",
    "arrival": "2023-09-12T17:10:00Z",
    "departure": "2023-09-12T17:40:00Z"
  },
  {
    "train_number": "91242 ",
    "unit_number": "1116.0165",
    "name": "Absdorf-Hippersdorf (in Ah)",
    "abbr": "Ah  ",
    "lat": "48.4018",
    "lng": "15.9862",
    "arrival": null,
    "departure": "2023-09-12T16:28:00Z"
  },
  {
    "train_number": "91242 ",
    "unit_number": "1116.0165",
    "name": "Tulln a. d. Donau (in Tu)",
    "abbr": "Tu  ",
    "lat": "48.3275",
    "lng": "16.0644",
    "arrival": null,
    "departure": "2023-09-12T16:18:00Z"
  },
  {
    "train_number": "91242 ",
    "unit_number": "1116.0165",
    "name": "Kledering (in Zur)",
    "abbr": "Za  ",
    "lat": "48.1453",
    "lng": "16.43",
    "arrival": "2023-09-12T15:21:00Z",
    "departure": "2023-09-12T15:31:00Z"
  },
  {
    "train_number": "91242 ",
    "unit_number": "1116.0165",
    "name": "Wien Zvbf (in Zur)",
    "abbr": "Zur ",
    "lat": "48.1453",
    "lng": "16.43",
    "arrival": null,
    "departure": "2023-09-12T15:20:00Z"
  },
  {
    "train_number": "Ty1116",
    "unit_number": "1116.0165",
    "name": "Floridsdorf-Fbf (in F)",
    "abbr": "O   ",
    "lat": "48.2568",
    "lng": "16.4004",
    "arrival": "2023-09-12T14:00:00Z",
    "departure": "2023-09-12T15:00:00Z"
  },
  {
    "train_number": "18002 ",
    "unit_number": "1116.0165",
    "name": "Floridsdorf (in F)",
    "abbr": "----",
    "lat": "48.2568",
    "lng": "16.4004",
    "arrival": "2023-09-12T03:11:00Z",
    "departure": "2023-09-12T03:11:00Z"
  }
]
