[
  {
    "train_number": "2412  ",
    "unit_number": "1116.0157",
    "name": "Mistelbach",
    "abbr": "Mb  ",
    "lat": "48.5646",
    "lng": "16.5608",
    "arrival": "2023-10-10T16:04:00Z",
    "departure": "2023-10-10T16:05:00Z"
  },
  {
    "train_number": "2412  ",
    "unit_number": "1116.0157",
    "name": "Floridsdorf (in F)",
    "abbr": "F   ",
    "lat": "48.2568",
    "lng": "16.4004",
    "arrival": "2023-10-10T15:22:00Z",
    "departure": "2023-10-10T15:23:00Z"
  },
  {
    "train_number": "2412  ",
    "unit_number": "1116.0157",
    "name": "Wien Meidling (in Wbf)",
    "abbr": "Mi  ",
    "lat": "48.1747",
    "lng": "16.3348",
    "arrival": "2023-10-10T14:56:00Z",
    "departure": "2023-10-10T14:57:00Z"
  },
  {
    "train_number": "Vhz   ",
    "unit_number": "1116.0157",
    "name": "Wien Westbf (in Ws)",
    "abbr": "Ws  ",
    "lat": "48.1964",
    "lng": "16.3374",
    "arrival": "2023-10-10T13:11:00Z",
    "departure": "2023-10-10T14:34:00Z"
  },
  {
    "train_number": "2217  ",
    "unit_number": "1116.0157",
    "name": "Wien Meidling (in Wbf)",
    "abbr": "Mi  ",
    "lat": "48.1747",
    "lng": "16.3348",
    "arrival": "2023-10-10T06:44:00Z",
    "departure": "2023-10-10T06:49:00Z"
  },
  {
    "train_number": "2217  ",
    "unit_number": "1116.0157",
    "name": "Floridsdorf (in F)",
    "abbr": "F   ",
    "lat": "48.2568",
    "lng": "16.4004",
    "arrival": "2023-10-10T06:17:00Z",
    "departure": "2023-10-10T06:19:00Z"
  },
  {
    "train_number": "2217  ",
    "unit_number": "1116.0157",
    "name": "Korneuburg",
    "abbr": "Ko  ",
    "lat": "48.3429",
    "lng": "16.3289",
    "arrival": "2023-10-10T06:08:00Z",
    "departure": "2023-10-10T06:09:00Z"
  },
  {
    "train_number": "2217  ",
    "unit_number": "1116.0157",
    "name": "Stockerau (in Su)",
    "abbr": "Su  ",
    "lat": "48.3824",
    "lng": "16.2126",
    "arrival": "2023-10-10T06:01:00Z",
    "departure": "2023-10-10T06:02:00Z"
  },
  {
    "train_number": "2217  ",
    "unit_number": "1116.0157",
    "name": "Hollabrunn",
    "abbr": "Oh  ",
    "lat": "48.563",
    "lng": "16.0722",
    "arrival": "2023-10-10T05:43:00Z",
    "departure": "2023-10-10T05:45:00Z"
  },
  {
    "train_number": "2217  ",
    "unit_number": "1116.0157",
    "name": "Retz",
    "abbr": "R   ",
    "lat": "48.7539",
    "lng": "15.9574",
    "arrival": "2023-10-10T05:14:00Z",
    "departure": "2023-10-10T05:16:00Z"
  },
  {
    "train_number": "2217  ",
    "unit_number": "1116.0157",
    "name": "Satov",
    "abbr": "S   ",
    "lat": "48.7808",
    "lng": "16.026",
    "arrival": "2023-10-10T05:05:00Z",
    "departure": "2023-10-10T05:06:00Z"
  },
  {
    "train_number": "2282  ",
    "unit_number": "1116.0157",
    "name": "Satov",
    "abbr": "S   ",
    "lat": "48.7808",
    "lng": "16.026",
    "arrival": "2023-10-10T04:28:00Z",
    "departure": "2023-10-10T04:28:00Z"
  },
  {
    "train_number": "Vhz   ",
    "unit_number": "1116.0157",
    "name": "Retz",
    "abbr": "R   ",
    "lat": "48.7539",
    "lng": "15.9574",
    "arrival": "2023-10-10T04:00:00Z",
    "departure": "2023-10-10T04:20:00Z"
  }
]
