[
  {
    "train_number": "420   ",
    "unit_number": "1116.0165",
    "name": "Rosenheim",
    "abbr": "MRO ",
    "lat": "47.8511",
    "lng": "12.1196",
    "arrival": "2023-08-17T19:28:00Z",
    "departure": "2023-08-17T19:30:00Z"
  },
  {
    "train_number": "420   ",
    "unit_number": "1116.0165",
    "name": "Kufstein",
    "abbr": "K   ",
    "lat": "47.5833",
    "lng": "12.1657",
    "arrival": "2023-08-17T19:05:00Z",
    "departure": "2023-08-17T19:07:00Z"
  },
  {
    "train_number": "420   ",
    "unit_number": "1116.0165",
    "name": "Wörgl Hbf (in W)",
    "abbr": "W   ",
    "lat": "47.4912",
    "lng": "12.0603",
    "arrival": "2023-08-17T18:51:00Z",
    "departure": "2023-08-17T18:55:00Z"
  },
  {
    "train_number": "420   ",
    "unit_number": "1116.0165",
    "name": "Wörgl Hbf-T. N. (in W)",
    "abbr": "Wtn ",
    "lat": "47.4824",
    "lng": "12.033",
    "arrival": null,
    "departure": "2023-08-17T18:48:00Z"
  },
  {
    "train_number": "420   ",
    "unit_number": "1116.0165",
    "name": "Jenbach",
    "abbr": "Jb  ",
    "lat": "47.3884",
    "lng": "11.7783",
    "arrival": "2023-08-17T18:31:00Z",
    "departure": "2023-08-17T18:33:00Z"
  },
  {
    "train_number": "420   ",
    "unit_number": "1116.0165",
    "name": "Hall in Tirol",
    "abbr": "H   ",
    "lat": "47.2769",
    "lng": "11.5013",
    "arrival": null,
    "departure": "2023-08-17T18:19:00Z"
  },
  {
    "train_number": "97340 ",
    "unit_number": "1116.0165",
    "name": "Innsbruck Hbf  (in I)",
    "abbr": "I   ",
    "lat": "47.2634",
    "lng": "11.4017",
    "arrival": "2023-08-17T13:13:00Z",
    "departure": "2023-08-17T18:12:00Z"
  },
  {
    "train_number": "97340 ",
    "unit_number": "1116.0165",
    "name": "Imst-Pitztal",
    "abbr": "Im  ",
    "lat": "47.219",
    "lng": "10.7619",
    "arrival": null,
    "departure": "2023-08-17T12:21:00Z"
  },
  {
    "train_number": "97337 ",
    "unit_number": "1116.0165",
    "name": "Landeck-Zams",
    "abbr": "Le  ",
    "lat": "47.148",
    "lng": "10.5782",
    "arrival": "2023-08-17T10:07:00Z",
    "departure": "2023-08-17T12:05:00Z"
  },
  {
    "train_number": "97337 ",
    "unit_number": "1116.0165",
    "name": "Imst-Pitztal",
    "abbr": "Im  ",
    "lat": "47.219",
    "lng": "10.7619",
    "arrival": null,
    "departure": "2023-08-17T09:52:00Z"
  },
  {
    "train_number": "421   ",
    "unit_number": "1116.0165",
    "name": "Innsbruck Hbf  (in I)",
    "abbr": "I   ",
    "lat": "47.2634",
    "lng": "11.4017",
    "arrival": "2023-08-17T07:14:00Z",
    "departure": "2023-08-17T09:05:00Z"
  },
  {
    "train_number": "421   ",
    "unit_number": "1116.0165",
    "name": "Hall in Tirol",
    "abbr": "H   ",
    "lat": "47.2769",
    "lng": "11.5013",
    "arrival": null,
    "departure": "2023-08-17T07:07:00Z"
  },
  {
    "train_number": "421   ",
    "unit_number": "1116.0165",
    "name": "Jenbach",
    "abbr": "Jb  ",
    "lat": "47.3884",
    "lng": "11.7783",
    "arrival": "2023-08-17T06:53:00Z",
    "departure": "2023-08-17T06:55:00Z"
  },
  {
    "train_number": "421   ",
    "unit_number": "1116.0165",
    "name": "Wörgl Hbf-T. N. (in W)",
    "abbr": "Wtn ",
    "lat": "47.4824",
    "lng": "12.033",
    "arrival": null,
    "departure": "2023-08-17T06:41:00Z"
  },
  {
    "train_number": "421   ",
    "unit_number": "1116.0165",
    "name": "Wörgl Hbf (in W)",
    "abbr": "W   ",
    "lat": "47.4912",
    "lng": "12.0603",
    "arrival": "2023-08-17T06:37:00Z",
    "departure": "2023-08-17T06:39:00Z"
  },
  {
    "train_number": "421   ",
    "unit_number": "1116.0165",
    "name": "Kufstein",
    "abbr": "K   ",
    "lat": "47.5833",
    "lng": "12.1657",
    "arrival": "2023-08-17T06:26:00Z",
    "departure": "2023-08-17T06:28:00Z"
  },
  {
    "train_number": "421   ",
    "unit_number": "1116.0165",
    "name": "Rosenheim",
    "abbr": "MRO ",
    "lat": "47.8511",
    "lng": "12.1196",
    "arrival": "2023-08-17T06:02:00Z",
    "departure": "2023-08-17T06:02:00Z"
  },
  {
    "train_number": "421   ",
    "unit_number": "1116.0165",
    "name": "München Laim Rbf",
    "abbr": "MLR ",
    "lat": "48.1454",
    "lng": "11.5032",
    "arrival": null,
    "departure": "2023-08-17T05:11:00Z"
  }
]
