[
  {
    "train_number": "57901 ",
    "unit_number": "1116.0157",
    "name": "Stockerau (in Su)",
    "abbr": "Su  ",
    "lat": "48.3824",
    "lng": "16.2126",
    "arrival": null,
    "departure": "2023-09-13T18:21:00Z"
  },
  {
    "train_number": "57901 ",
    "unit_number": "1116.0157",
    "name": "Korneuburg",
    "abbr": "Ko  ",
    "lat": "48.3429",
    "lng": "16.3289",
    "arrival": null,
    "departure": "2023-09-13T18:10:00Z"
  },
  {
    "train_number": "57901 ",
    "unit_number": "1116.0157",
    "name": "Gänserndorf",
    "abbr": "Gae ",
    "lat": "48.3401",
    "lng": "16.7324",
    "arrival": null,
    "departure": "2023-09-13T17:03:00Z"
  },
  {
    "train_number": "57092 ",
    "unit_number": "1116.0157",
    "name": "Hohenau",
    "abbr": "Nh  ",
    "lat": "48.5981",
    "lng": "16.9008",
    "arrival": "2023-09-13T15:01:00Z",
    "departure": "2023-09-13T16:33:00Z"
  },
  {
    "train_number": "57092 ",
    "unit_number": "1116.0157",
    "name": "Gänserndorf",
    "abbr": "Gae ",
    "lat": "48.3401",
    "lng": "16.7324",
    "arrival": null,
    "departure": "2023-09-13T14:36:00Z"
  },
  {
    "train_number": "57092 ",
    "unit_number": "1116.0157",
    "name": "Korneuburg",
    "abbr": "Ko  ",
    "lat": "48.3429",
    "lng": "16.3289",
    "arrival": "2023-09-13T13:50:00Z",
    "departure": "2023-09-13T13:59:00Z"
  },
  {
    "train_number": "57092 ",
    "unit_number": "1116.0157",
    "name": "Stockerau (in Su)",
    "abbr": "Su  ",
    "lat": "48.3824",
    "lng": "16.2126",
    "arrival": "2023-09-13T13:16:00Z",
    "departure": "2023-09-13T13:37:00Z"
  },
  {
    "train_number": "57092 ",
    "unit_number": "1116.0157",
    "name": "Pöchlarn",
    "abbr": "Poe ",
    "lat": "48.208",
    "lng": "15.2148",
    "arrival": null,
    "departure": "2023-09-13T11:12:00Z"
  },
  {
    "train_number": "57092 ",
    "unit_number": "1116.0157",
    "name": "Ybbs a.d.Donau",
    "abbr": "Y   ",
    "lat": "48.158",
    "lng": "15.0981",
    "arrival": null,
    "departure": "2023-09-13T11:00:00Z"
  },
  {
    "train_number": "57092 ",
    "unit_number": "1116.0157",
    "name": "Amstetten (in Ams)",
    "abbr": "Ams ",
    "lat": "48.1215",
    "lng": "14.8792",
    "arrival": null,
    "departure": "2023-09-13T10:45:00Z"
  },
  {
    "train_number": "57092 ",
    "unit_number": "1116.0157",
    "name": "St.Valentin (in Sv)",
    "abbr": "Sv  ",
    "lat": "48.1784",
    "lng": "14.5219",
    "arrival": null,
    "departure": "2023-09-13T10:13:00Z"
  },
  {
    "train_number": "57092 ",
    "unit_number": "1116.0157",
    "name": "Enns",
    "abbr": "Ens ",
    "lat": "48.2212",
    "lng": "14.4668",
    "arrival": null,
    "departure": "2023-09-13T10:06:00Z"
  },
  {
    "train_number": "88119 ",
    "unit_number": "1116.0157",
    "name": "Voest Alpine Linz",
    "abbr": "Ms  ",
    "lat": "48.2607",
    "lng": "14.2927",
    "arrival": "2023-09-13T09:22:00Z",
    "departure": "2023-09-13T09:39:00Z"
  },
  {
    "train_number": null,
    "unit_number": "1116.0157",
    "name": "Linz Hbf",
    "abbr": "Lz  ",
    "lat": "48.2908",
    "lng": "14.2927",
    "arrival": null,
    "departure": "2023-09-13T09:10:00Z"
  },
  {
    "train_number": "44925 ",
    "unit_number": "1116.0157",
    "name": "Wels Vbf (in Wev)",
    "abbr": "Wev ",
    "lat": "48.1662",
    "lng": "14.0273",
    "arrival": "2023-09-13T06:03:00Z",
    "departure": "2023-09-13T06:29:00Z"
  },
  {
    "train_number": "44925 ",
    "unit_number": "1116.0157",
    "name": "Wels Vbf-Einfgr (in Wev)",
    "abbr": "Wei ",
    "lat": "48.1765",
    "lng": "14.0501",
    "arrival": "2023-09-13T05:52:00Z",
    "departure": "2023-09-13T06:00:00Z"
  },
  {
    "train_number": "44925 ",
    "unit_number": "1116.0157",
    "name": "Wels Hbf",
    "abbr": "We  ",
    "lat": "48.1662",
    "lng": "14.0273",
    "arrival": null,
    "departure": "2023-09-13T05:48:00Z"
  },
  {
    "train_number": "44925 ",
    "unit_number": "1116.0157",
    "name": "Neumarkt-Kallham (in Neu)",
    "abbr": "Neu ",
    "lat": "48.2714",
    "lng": "13.7245",
    "arrival": null,
    "departure": "2023-09-13T05:21:00Z"
  },
  {
    "train_number": "44925 ",
    "unit_number": "1116.0157",
    "name": "Schärding (in Sch)",
    "abbr": "Sch ",
    "lat": "48.4638",
    "lng": "13.4424",
    "arrival": null,
    "departure": "2023-09-13T04:49:00Z"
  },
  {
    "train_number": "44925 ",
    "unit_number": "1116.0157",
    "name": "Passau Gbf",
    "abbr": "Pag ",
    "lat": "48.5729",
    "lng": "13.4342",
    "arrival": "2023-09-13T03:25:00Z",
    "departure": "2023-09-13T04:32:00Z"
  }
]
