[
  {
    "train_number": "743   ",
    "unit_number": "1116.0153",
    "name": "Pöchlarn",
    "abbr": "Poe ",
    "lat": "48.208",
    "lng": "15.2148",
    "arrival": null,
    "departure": "2023-08-23T16:22:00Z"
  },
  {
    "train_number": "743   ",
    "unit_number": "1116.0153",
    "name": "Ybbs a.d.Donau",
    "abbr": "Y   ",
    "lat": "48.158",
    "lng": "15.0981",
    "arrival": null,
    "departure": "2023-08-23T16:17:00Z"
  },
  {
    "train_number": "743   ",
    "unit_number": "1116.0153",
    "name": "Amstetten (in Ams)",
    "abbr": "Ams ",
    "lat": "48.1215",
    "lng": "14.8792",
    "arrival": "2023-08-23T16:05:00Z",
    "departure": "2023-08-23T16:07:00Z"
  },
  {
    "train_number": "743   ",
    "unit_number": "1116.0153",
    "name": "St.Valentin (in Sv)",
    "abbr": "Sv  ",
    "lat": "48.1784",
    "lng": "14.5219",
    "arrival": "2023-08-23T15:46:00Z",
    "departure": "2023-08-23T15:50:00Z"
  },
  {
    "train_number": "743   ",
    "unit_number": "1116.0153",
    "name": "Linz Hbf",
    "abbr": "Lz  ",
    "lat": "48.2908",
    "lng": "14.2927",
    "arrival": "2023-08-23T15:30:00Z",
    "departure": "2023-08-23T15:32:00Z"
  },
  {
    "train_number": "743   ",
    "unit_number": "1116.0153",
    "name": "Wels Hbf",
    "abbr": "We  ",
    "lat": "48.1662",
    "lng": "14.0273",
    "arrival": "2023-08-23T15:14:00Z",
    "departure": "2023-08-23T15:16:00Z"
  },
  {
    "train_number": "743   ",
    "unit_number": "1116.0153",
    "name": "Attnang-Puchheim",
    "abbr": "At  ",
    "lat": "48.0112",
    "lng": "13.7193",
    "arrival": "2023-08-23T14:58:00Z",
    "departure": "2023-08-23T15:00:00Z"
  },
  {
    "train_number": "743   ",
    "unit_number": "1116.0153",
    "name": "Steindorf b.Straßw. (in Nst)",
    "abbr": "Nst ",
    "lat": "47.9676",
    "lng": "13.2406",
    "arrival": null,
    "departure": "2023-08-23T14:31:00Z"
  },
  {
    "train_number": "642   ",
    "unit_number": "1116.0153",
    "name": "Salzburg Hbf (in Sb)",
    "abbr": "Sb  ",
    "lat": "47.8135",
    "lng": "13.0466",
    "arrival": "2023-08-23T12:49:00Z",
    "departure": "2023-08-23T14:11:00Z"
  },
  {
    "train_number": "642   ",
    "unit_number": "1116.0153",
    "name": "Steindorf b.Straßw. (in Nst)",
    "abbr": "Nst ",
    "lat": "47.9676",
    "lng": "13.2406",
    "arrival": null,
    "departure": "2023-08-23T12:29:00Z"
  },
  {
    "train_number": "642   ",
    "unit_number": "1116.0153",
    "name": "Attnang-Puchheim",
    "abbr": "At  ",
    "lat": "48.0112",
    "lng": "13.7193",
    "arrival": "2023-08-23T11:59:00Z",
    "departure": "2023-08-23T12:01:00Z"
  },
  {
    "train_number": "642   ",
    "unit_number": "1116.0153",
    "name": "Wels Hbf",
    "abbr": "We  ",
    "lat": "48.1662",
    "lng": "14.0273",
    "arrival": "2023-08-23T11:44:00Z",
    "departure": "2023-08-23T11:46:00Z"
  },
  {
    "train_number": "642   ",
    "unit_number": "1116.0153",
    "name": "Linz Hbf",
    "abbr": "Lz  ",
    "lat": "48.2908",
    "lng": "14.2927",
    "arrival": "2023-08-23T11:28:00Z",
    "departure": "2023-08-23T11:30:00Z"
  },
  {
    "train_number": "642   ",
    "unit_number": "1116.0153",
    "name": "St.Valentin (in Sv)",
    "abbr": "Sv  ",
    "lat": "48.1784",
    "lng": "14.5219",
    "arrival": "2023-08-23T11:10:00Z",
    "departure": "2023-08-23T11:14:00Z"
  },
  {
    "train_number": "642   ",
    "unit_number": "1116.0153",
    "name": "Amstetten (in Ams)",
    "abbr": "Ams ",
    "lat": "48.1215",
    "lng": "14.8792",
    "arrival": "2023-08-23T10:53:00Z",
    "departure": "2023-08-23T10:55:00Z"
  },
  {
    "train_number": "642   ",
    "unit_number": "1116.0153",
    "name": "Ybbs a.d.Donau",
    "abbr": "Y   ",
    "lat": "48.158",
    "lng": "15.0981",
    "arrival": null,
    "departure": "2023-08-23T10:43:00Z"
  },
  {
    "train_number": "642   ",
    "unit_number": "1116.0153",
    "name": "Pöchlarn",
    "abbr": "Poe ",
    "lat": "48.208",
    "lng": "15.2148",
    "arrival": null,
    "departure": "2023-08-23T10:38:00Z"
  },
  {
    "train_number": "642   ",
    "unit_number": "1116.0153",
    "name": "St.Pölten Hbf (in Pb)",
    "abbr": "Pb  ",
    "lat": "48.2081",
    "lng": "15.6237",
    "arrival": "2023-08-23T10:18:00Z",
    "departure": "2023-08-23T10:20:00Z"
  },
  {
    "train_number": "642   ",
    "unit_number": "1116.0153",
    "name": "Wien Meidling (in Wbf)",
    "abbr": "Mi  ",
    "lat": "48.1747",
    "lng": "16.3348",
    "arrival": "2023-08-23T09:50:00Z",
    "departure": "2023-08-23T09:52:00Z"
  },
  {
    "train_number": "765   ",
    "unit_number": "1116.0153",
    "name": "Wien Hauptbahnhof (in Wbf)",
    "abbr": "Wbf ",
    "lat": "48.1747",
    "lng": "16.3348",
    "arrival": "2023-08-22T10:39:00Z",
    "departure": "2023-08-23T09:45:00Z"
  }
]
