[
  {
    "train_number": "2248  ",
    "unit_number": "1116.0157",
    "name": "Hollabrunn",
    "abbr": "Oh  ",
    "lat": "48.563",
    "lng": "16.0722",
    "arrival": "2023-10-06T16:21:00Z",
    "departure": "2023-10-06T16:23:00Z"
  },
  {
    "train_number": "2248  ",
    "unit_number": "1116.0157",
    "name": "Stockerau (in Su)",
    "abbr": "Su  ",
    "lat": "48.3824",
    "lng": "16.2126",
    "arrival": "2023-10-06T16:00:00Z",
    "departure": "2023-10-06T16:01:00Z"
  },
  {
    "train_number": "2248  ",
    "unit_number": "1116.0157",
    "name": "Korneuburg",
    "abbr": "Ko  ",
    "lat": "48.3429",
    "lng": "16.3289",
    "arrival": "2023-10-06T15:51:00Z",
    "departure": "2023-10-06T15:53:00Z"
  },
  {
    "train_number": "2248  ",
    "unit_number": "1116.0157",
    "name": "Floridsdorf (in F)",
    "abbr": "F   ",
    "lat": "48.2568",
    "lng": "16.4004",
    "arrival": "2023-10-06T15:39:00Z",
    "departure": "2023-10-06T15:41:00Z"
  },
  {
    "train_number": "2248  ",
    "unit_number": "1116.0157",
    "name": "Wien Meidling (in Wbf)",
    "abbr": "Mi  ",
    "lat": "48.1747",
    "lng": "16.3348",
    "arrival": "2023-10-06T15:13:00Z",
    "departure": "2023-10-06T15:14:00Z"
  },
  {
    "train_number": "2248  ",
    "unit_number": "1116.0157",
    "name": "Mödling",
    "abbr": "Md  ",
    "lat": "48.0858",
    "lng": "16.2958",
    "arrival": "2023-10-06T14:59:00Z",
    "departure": "2023-10-06T15:00:00Z"
  },
  {
    "train_number": "2248  ",
    "unit_number": "1116.0157",
    "name": "Leobersdorf",
    "abbr": "Lb  ",
    "lat": "47.9375",
    "lng": "16.2313",
    "arrival": "2023-10-06T14:44:00Z",
    "departure": "2023-10-06T14:45:00Z"
  },
  {
    "train_number": "2248  ",
    "unit_number": "1116.0157",
    "name": "Wr. Neustadt Hbf (in Nb)",
    "abbr": "Nb  ",
    "lat": "47.8113",
    "lng": "16.2337",
    "arrival": "2023-10-06T14:25:00Z",
    "departure": "2023-10-06T14:35:00Z"
  },
  {
    "train_number": "2248  ",
    "unit_number": "1116.0157",
    "name": "Neunkirchen N.Ö.",
    "abbr": "Nek ",
    "lat": "47.731",
    "lng": "16.0826",
    "arrival": "2023-10-06T14:12:00Z",
    "departure": "2023-10-06T14:13:00Z"
  },
  {
    "train_number": "2209  ",
    "unit_number": "1116.0157",
    "name": "Payerbach-Reichenau",
    "abbr": "Pr  ",
    "lat": "47.696",
    "lng": "15.8632",
    "arrival": "2023-10-06T06:09:00Z",
    "departure": "2023-10-06T13:53:00Z"
  },
  {
    "train_number": "2209  ",
    "unit_number": "1116.0157",
    "name": "Neunkirchen N.Ö.",
    "abbr": "Nek ",
    "lat": "47.731",
    "lng": "16.0826",
    "arrival": "2023-10-06T05:48:00Z",
    "departure": "2023-10-06T05:48:00Z"
  },
  {
    "train_number": "2209  ",
    "unit_number": "1116.0157",
    "name": "Wr. Neustadt Hbf (in Nb)",
    "abbr": "Nb  ",
    "lat": "47.8113",
    "lng": "16.2337",
    "arrival": "2023-10-06T05:24:00Z",
    "departure": "2023-10-06T05:35:00Z"
  },
  {
    "train_number": "2209  ",
    "unit_number": "1116.0157",
    "name": "Leobersdorf",
    "abbr": "Lb  ",
    "lat": "47.9375",
    "lng": "16.2313",
    "arrival": "2023-10-06T05:12:00Z",
    "departure": "2023-10-06T05:13:00Z"
  },
  {
    "train_number": "2209  ",
    "unit_number": "1116.0157",
    "name": "Mödling",
    "abbr": "Md  ",
    "lat": "48.0858",
    "lng": "16.2958",
    "arrival": "2023-10-06T04:58:00Z",
    "departure": "2023-10-06T04:59:00Z"
  },
  {
    "train_number": "2209  ",
    "unit_number": "1116.0157",
    "name": "Wien Meidling (in Wbf)",
    "abbr": "Mi  ",
    "lat": "48.1747",
    "lng": "16.3348",
    "arrival": "2023-10-06T04:44:00Z",
    "departure": "2023-10-06T04:45:00Z"
  },
  {
    "train_number": "2209  ",
    "unit_number": "1116.0157",
    "name": "Floridsdorf (in F)",
    "abbr": "F   ",
    "lat": "48.2568",
    "lng": "16.4004",
    "arrival": "2023-10-06T04:17:00Z",
    "departure": "2023-10-06T04:19:00Z"
  },
  {
    "train_number": "2209  ",
    "unit_number": "1116.0157",
    "name": "Korneuburg",
    "abbr": "Ko  ",
    "lat": "48.3429",
    "lng": "16.3289",
    "arrival": "2023-10-06T04:04:00Z",
    "departure": "2023-10-06T04:05:00Z"
  },
  {
    "train_number": "2209  ",
    "unit_number": "1116.0157",
    "name": "Stockerau (in Su)",
    "abbr": "Su  ",
    "lat": "48.3824",
    "lng": "16.2126",
    "arrival": "2023-10-06T03:55:00Z",
    "departure": "2023-10-06T03:56:00Z"
  },
  {
    "train_number": "2209  ",
    "unit_number": "1116.0157",
    "name": "Hollabrunn",
    "abbr": "Oh  ",
    "lat": "48.563",
    "lng": "16.0722",
    "arrival": "2023-10-06T03:38:00Z",
    "departure": "2023-10-06T03:39:00Z"
  },
  {
    "train_number": "Blockz",
    "unit_number": "1116.0157",
    "name": "Retz",
    "abbr": "R   ",
    "lat": "48.7539",
    "lng": "15.9574",
    "arrival": "2023-10-06T03:00:00Z",
    "departure": "2023-10-06T03:10:00Z"
  }
]
