[
  {
    "train_number": "2345  ",
    "unit_number": "1116.0157",
    "name": "Leobersdorf",
    "abbr": "Lb  ",
    "lat": "47.9375",
    "lng": "16.2313",
    "arrival": "2023-10-04T14:05:00Z",
    "departure": "2023-10-04T14:06:00Z"
  },
  {
    "train_number": "2345  ",
    "unit_number": "1116.0157",
    "name": "Mödling",
    "abbr": "Md  ",
    "lat": "48.0858",
    "lng": "16.2958",
    "arrival": "2023-10-04T13:48:00Z",
    "departure": "2023-10-04T13:49:00Z"
  },
  {
    "train_number": "2345  ",
    "unit_number": "1116.0157",
    "name": "Wien Meidling (in Wbf)",
    "abbr": "Mi  ",
    "lat": "48.1747",
    "lng": "16.3348",
    "arrival": "2023-10-04T13:34:00Z",
    "departure": "2023-10-04T13:37:00Z"
  },
  {
    "train_number": "Blockz",
    "unit_number": "1116.0157",
    "name": "Floridsdorf (in F)",
    "abbr": "F   ",
    "lat": "48.2568",
    "lng": "16.4004",
    "arrival": "2023-10-04T12:59:00Z",
    "departure": "2023-10-04T13:09:00Z"
  },
  {
    "train_number": "2322  ",
    "unit_number": "1116.0157",
    "name": "Wien Meidling (in Wbf)",
    "abbr": "Mi  ",
    "lat": "48.1747",
    "lng": "16.3348",
    "arrival": "2023-10-04T08:23:00Z",
    "departure": "2023-10-04T08:24:00Z"
  },
  {
    "train_number": "2322  ",
    "unit_number": "1116.0157",
    "name": "Mödling",
    "abbr": "Md  ",
    "lat": "48.0858",
    "lng": "16.2958",
    "arrival": "2023-10-04T08:09:00Z",
    "departure": "2023-10-04T08:10:00Z"
  },
  {
    "train_number": "2322  ",
    "unit_number": "1116.0157",
    "name": "Leobersdorf",
    "abbr": "Lb  ",
    "lat": "47.9375",
    "lng": "16.2313",
    "arrival": "2023-10-04T07:50:00Z",
    "departure": "2023-10-04T07:52:00Z"
  },
  {
    "train_number": "2322  ",
    "unit_number": "1116.0157",
    "name": "Wr. Neustadt Hbf (in Nb)",
    "abbr": "Nb  ",
    "lat": "47.8113",
    "lng": "16.2337",
    "arrival": "2023-10-04T07:25:00Z",
    "departure": "2023-10-04T07:38:00Z"
  },
  {
    "train_number": "2322  ",
    "unit_number": "1116.0157",
    "name": "Neunkirchen N.Ö.",
    "abbr": "Nek ",
    "lat": "47.731",
    "lng": "16.0826",
    "arrival": "2023-10-04T07:12:00Z",
    "departure": "2023-10-04T07:13:00Z"
  },
  {
    "train_number": "2211  ",
    "unit_number": "1116.0157",
    "name": "Payerbach-Reichenau",
    "abbr": "Pr  ",
    "lat": "47.696",
    "lng": "15.8632",
    "arrival": "2023-10-04T06:36:00Z",
    "departure": "2023-10-04T06:53:00Z"
  },
  {
    "train_number": "2211  ",
    "unit_number": "1116.0157",
    "name": "Neunkirchen N.Ö.",
    "abbr": "Nek ",
    "lat": "47.731",
    "lng": "16.0826",
    "arrival": "2023-10-04T06:14:00Z",
    "departure": "2023-10-04T06:15:00Z"
  },
  {
    "train_number": "2211  ",
    "unit_number": "1116.0157",
    "name": "Wr. Neustadt Hbf (in Nb)",
    "abbr": "Nb  ",
    "lat": "47.8113",
    "lng": "16.2337",
    "arrival": "2023-10-04T05:51:00Z",
    "departure": "2023-10-04T06:02:00Z"
  },
  {
    "train_number": "2211  ",
    "unit_number": "1116.0157",
    "name": "Leobersdorf",
    "abbr": "Lb  ",
    "lat": "47.9375",
    "lng": "16.2313",
    "arrival": "2023-10-04T05:41:00Z",
    "departure": "2023-10-04T05:42:00Z"
  },
  {
    "train_number": "2211  ",
    "unit_number": "1116.0157",
    "name": "Mödling",
    "abbr": "Md  ",
    "lat": "48.0858",
    "lng": "16.2958",
    "arrival": "2023-10-04T05:28:00Z",
    "departure": "2023-10-04T05:29:00Z"
  },
  {
    "train_number": "2211  ",
    "unit_number": "1116.0157",
    "name": "Wien Meidling (in Wbf)",
    "abbr": "Mi  ",
    "lat": "48.1747",
    "lng": "16.3348",
    "arrival": "2023-10-04T05:14:00Z",
    "departure": "2023-10-04T05:15:00Z"
  },
  {
    "train_number": "2211  ",
    "unit_number": "1116.0157",
    "name": "Floridsdorf (in F)",
    "abbr": "F   ",
    "lat": "48.2568",
    "lng": "16.4004",
    "arrival": "2023-10-04T04:47:00Z",
    "departure": "2023-10-04T04:49:00Z"
  },
  {
    "train_number": "2211  ",
    "unit_number": "1116.0157",
    "name": "Korneuburg",
    "abbr": "Ko  ",
    "lat": "48.3429",
    "lng": "16.3289",
    "arrival": "2023-10-04T04:34:00Z",
    "departure": "2023-10-04T04:35:00Z"
  },
  {
    "train_number": "2211  ",
    "unit_number": "1116.0157",
    "name": "Stockerau (in Su)",
    "abbr": "Su  ",
    "lat": "48.3824",
    "lng": "16.2126",
    "arrival": "2023-10-04T04:23:00Z",
    "departure": "2023-10-04T04:25:00Z"
  },
  {
    "train_number": "2211  ",
    "unit_number": "1116.0157",
    "name": "Hollabrunn",
    "abbr": "Oh  ",
    "lat": "48.563",
    "lng": "16.0722",
    "arrival": "2023-10-04T03:57:00Z",
    "departure": "2023-10-04T03:58:00Z"
  },
  {
    "train_number": "Blockz",
    "unit_number": "1116.0157",
    "name": "Retz",
    "abbr": "R   ",
    "lat": "48.7539",
    "lng": "15.9574",
    "arrival": "2023-10-04T03:20:00Z",
    "departure": "2023-10-04T03:30:00Z"
  }
]
