[
  {
    "train_number": "2342  ",
    "unit_number": "1116.0165",
    "name": "Neunkirchen N.Ö.",
    "abbr": "Nek ",
    "lat": "47.731",
    "lng": "16.0826",
    "arrival": "2023-09-16T12:12:00Z",
    "departure": "2023-09-16T12:13:00Z"
  },
  {
    "train_number": "2329  ",
    "unit_number": "1116.0165",
    "name": "Payerbach-Reichenau",
    "abbr": "Pr  ",
    "lat": "47.696",
    "lng": "15.8632",
    "arrival": "2023-09-16T11:09:00Z",
    "departure": "2023-09-16T11:53:00Z"
  },
  {
    "train_number": "2329  ",
    "unit_number": "1116.0165",
    "name": "Neunkirchen N.Ö.",
    "abbr": "Nek ",
    "lat": "47.731",
    "lng": "16.0826",
    "arrival": "2023-09-16T10:48:00Z",
    "departure": "2023-09-16T10:48:00Z"
  },
  {
    "train_number": "2329  ",
    "unit_number": "1116.0165",
    "name": "Wr. Neustadt Hbf (in Nb)",
    "abbr": "Nb  ",
    "lat": "47.8113",
    "lng": "16.2337",
    "arrival": "2023-09-16T10:21:00Z",
    "departure": "2023-09-16T10:35:00Z"
  },
  {
    "train_number": "2329  ",
    "unit_number": "1116.0165",
    "name": "Leobersdorf",
    "abbr": "Lb  ",
    "lat": "47.9375",
    "lng": "16.2313",
    "arrival": "2023-09-16T10:05:00Z",
    "departure": "2023-09-16T10:06:00Z"
  },
  {
    "train_number": "2329  ",
    "unit_number": "1116.0165",
    "name": "Mödling",
    "abbr": "Md  ",
    "lat": "48.0858",
    "lng": "16.2958",
    "arrival": "2023-09-16T09:48:00Z",
    "departure": "2023-09-16T09:49:00Z"
  },
  {
    "train_number": "2329  ",
    "unit_number": "1116.0165",
    "name": "Wien Meidling (in Wbf)",
    "abbr": "Mi  ",
    "lat": "48.1747",
    "lng": "16.3348",
    "arrival": "2023-09-16T09:34:00Z",
    "departure": "2023-09-16T09:37:00Z"
  },
  {
    "train_number": "2322  ",
    "unit_number": "1116.0165",
    "name": "Floridsdorf (in F)",
    "abbr": "F   ",
    "lat": "48.2568",
    "lng": "16.4004",
    "arrival": "2023-09-16T08:49:00Z",
    "departure": "2023-09-16T09:09:00Z"
  },
  {
    "train_number": "2322  ",
    "unit_number": "1116.0165",
    "name": "Wien Meidling (in Wbf)",
    "abbr": "Mi  ",
    "lat": "48.1747",
    "lng": "16.3348",
    "arrival": "2023-09-16T08:23:00Z",
    "departure": "2023-09-16T08:24:00Z"
  },
  {
    "train_number": "2322  ",
    "unit_number": "1116.0165",
    "name": "Mödling",
    "abbr": "Md  ",
    "lat": "48.0858",
    "lng": "16.2958",
    "arrival": "2023-09-16T08:09:00Z",
    "departure": "2023-09-16T08:10:00Z"
  },
  {
    "train_number": "2322  ",
    "unit_number": "1116.0165",
    "name": "Leobersdorf",
    "abbr": "Lb  ",
    "lat": "47.9375",
    "lng": "16.2313",
    "arrival": "2023-09-16T07:50:00Z",
    "departure": "2023-09-16T07:52:00Z"
  },
  {
    "train_number": "2322  ",
    "unit_number": "1116.0165",
    "name": "Wr. Neustadt Hbf (in Nb)",
    "abbr": "Nb  ",
    "lat": "47.8113",
    "lng": "16.2337",
    "arrival": "2023-09-16T07:25:00Z",
    "departure": "2023-09-16T07:38:00Z"
  },
  {
    "train_number": "2322  ",
    "unit_number": "1116.0165",
    "name": "Neunkirchen N.Ö.",
    "abbr": "Nek ",
    "lat": "47.731",
    "lng": "16.0826",
    "arrival": "2023-09-16T07:12:00Z",
    "departure": "2023-09-16T07:13:00Z"
  },
  {
    "train_number": "2309  ",
    "unit_number": "1116.0165",
    "name": "Payerbach-Reichenau",
    "abbr": "Pr  ",
    "lat": "47.696",
    "lng": "15.8632",
    "arrival": "2023-09-16T06:09:00Z",
    "departure": "2023-09-16T06:53:00Z"
  },
  {
    "train_number": "2309  ",
    "unit_number": "1116.0165",
    "name": "Neunkirchen N.Ö.",
    "abbr": "Nek ",
    "lat": "47.731",
    "lng": "16.0826",
    "arrival": "2023-09-16T05:48:00Z",
    "departure": "2023-09-16T05:48:00Z"
  },
  {
    "train_number": "2309  ",
    "unit_number": "1116.0165",
    "name": "Wr. Neustadt Hbf (in Nb)",
    "abbr": "Nb  ",
    "lat": "47.8113",
    "lng": "16.2337",
    "arrival": "2023-09-16T05:21:00Z",
    "departure": "2023-09-16T05:35:00Z"
  },
  {
    "train_number": "2309  ",
    "unit_number": "1116.0165",
    "name": "Leobersdorf",
    "abbr": "Lb  ",
    "lat": "47.9375",
    "lng": "16.2313",
    "arrival": "2023-09-16T05:05:00Z",
    "departure": "2023-09-16T05:06:00Z"
  },
  {
    "train_number": "2309  ",
    "unit_number": "1116.0165",
    "name": "Mödling",
    "abbr": "Md  ",
    "lat": "48.0858",
    "lng": "16.2958",
    "arrival": "2023-09-16T04:48:00Z",
    "departure": "2023-09-16T04:49:00Z"
  },
  {
    "train_number": "2309  ",
    "unit_number": "1116.0165",
    "name": "Wien Meidling (in Wbf)",
    "abbr": "Mi  ",
    "lat": "48.1747",
    "lng": "16.3348",
    "arrival": "2023-09-16T04:34:00Z",
    "departure": "2023-09-16T04:37:00Z"
  },
  {
    "train_number": "Blockz",
    "unit_number": "1116.0165",
    "name": "Floridsdorf (in F)",
    "abbr": "F   ",
    "lat": "48.2568",
    "lng": "16.4004",
    "arrival": "2023-09-16T03:59:00Z",
    "departure": "2023-09-16T04:09:00Z"
  }
]
