[
  {
    "train_number": "41431 ",
    "unit_number": "1116.0157",
    "name": "Spielfeld-Straß",
    "abbr": "Sd  ",
    "lat": "46.71",
    "lng": "15.6282",
    "arrival": "2023-08-31T01:47:00Z",
    "departure": "2023-08-31T02:08:00Z"
  },
  {
    "train_number": "41431 ",
    "unit_number": "1116.0157",
    "name": "Werndorf",
    "abbr": "Wr  ",
    "lat": "46.9171",
    "lng": "15.477",
    "arrival": null,
    "departure": "2023-08-31T01:23:00Z"
  },
  {
    "train_number": "41431 ",
    "unit_number": "1116.0157",
    "name": "Graz Hbf (in G)",
    "abbr": "G   ",
    "lat": "47.0733",
    "lng": "15.4163",
    "arrival": null,
    "departure": "2023-08-31T01:08:00Z"
  },
  {
    "train_number": "41431 ",
    "unit_number": "1116.0157",
    "name": "Graz Vbf (in G)",
    "abbr": "Gi  ",
    "lat": "47.0885",
    "lng": "15.4077",
    "arrival": null,
    "departure": "2023-08-31T01:07:00Z"
  },
  {
    "train_number": "41431 ",
    "unit_number": "1116.0157",
    "name": "Bruck a.d.Mur (in Bm)",
    "abbr": "Bm  ",
    "lat": "47.4134",
    "lng": "15.2797",
    "arrival": null,
    "departure": "2023-08-31T00:25:00Z"
  },
  {
    "train_number": "41431 ",
    "unit_number": "1116.0157",
    "name": "Mürzzuschlag (in Mz)",
    "abbr": "Mz  ",
    "lat": "47.6079",
    "lng": "15.677",
    "arrival": null,
    "departure": "2023-08-30T23:49:00Z"
  },
  {
    "train_number": "41431 ",
    "unit_number": "1116.0157",
    "name": "Payerbach-Reichenau",
    "abbr": "Pr  ",
    "lat": "47.696",
    "lng": "15.8632",
    "arrival": null,
    "departure": "2023-08-30T22:56:00Z"
  },
  {
    "train_number": "41431 ",
    "unit_number": "1116.0157",
    "name": "Neunkirchen N.Ö.",
    "abbr": "Nek ",
    "lat": "47.731",
    "lng": "16.0826",
    "arrival": null,
    "departure": "2023-08-30T22:15:00Z"
  },
  {
    "train_number": "41431 ",
    "unit_number": "1116.0157",
    "name": "Wr. Neustadt Hbf (in Nb)",
    "abbr": "Nb  ",
    "lat": "47.8113",
    "lng": "16.2337",
    "arrival": null,
    "departure": "2023-08-30T22:02:00Z"
  },
  {
    "train_number": "41431 ",
    "unit_number": "1116.0157",
    "name": "Ebenfurth (in Ef)",
    "abbr": "Ef  ",
    "lat": "47.8777",
    "lng": "16.3621",
    "arrival": null,
    "departure": "2023-08-30T21:50:00Z"
  },
  {
    "train_number": "62009 ",
    "unit_number": "1116.0157",
    "name": "Wien Meidling (in Wbf)",
    "abbr": "Mi  ",
    "lat": "48.1747",
    "lng": "16.3348",
    "arrival": null,
    "departure": "2023-08-30T20:33:00Z"
  },
  {
    "train_number": null,
    "unit_number": "1116.0157",
    "name": "Kledering (in Zur)",
    "abbr": "Za  ",
    "lat": "48.1453",
    "lng": "16.43",
    "arrival": null,
    "departure": "2023-08-30T19:50:00Z"
  },
  {
    "train_number": "62009 ",
    "unit_number": "1116.0157",
    "name": "St.Pölten Hbf (in Pb)",
    "abbr": "Pb  ",
    "lat": "48.2081",
    "lng": "15.6237",
    "arrival": null,
    "departure": "2023-08-30T19:40:00Z"
  },
  {
    "train_number": null,
    "unit_number": "1116.0157",
    "name": "St.Pölten-Fbf (in Pb)",
    "abbr": "Pw  ",
    "lat": "48.2081",
    "lng": "15.6237",
    "arrival": null,
    "departure": "2023-08-30T19:37:00Z"
  },
  {
    "train_number": "95971 ",
    "unit_number": "1116.0157",
    "name": "St.Pölten-Fbf (in Pb)",
    "abbr": "Pw  ",
    "lat": "48.2081",
    "lng": "15.6237",
    "arrival": "2023-08-30T08:45:00Z",
    "departure": "2023-08-30T09:00:00Z"
  },
  {
    "train_number": "95969 ",
    "unit_number": "1116.0157",
    "name": "St.Pölten-Fbf (in Pb)",
    "abbr": "Pw  ",
    "lat": "48.2081",
    "lng": "15.6237",
    "arrival": "2023-08-30T07:45:00Z",
    "departure": "2023-08-30T08:00:00Z"
  },
  {
    "train_number": "95967 ",
    "unit_number": "1116.0157",
    "name": "St.Pölten-Fbf (in Pb)",
    "abbr": "Pw  ",
    "lat": "48.2081",
    "lng": "15.6237",
    "arrival": "2023-08-30T06:45:00Z",
    "departure": "2023-08-30T07:00:00Z"
  },
  {
    "train_number": "Soft  ",
    "unit_number": "1116.0157",
    "name": "St.Pölten Hbf (in Pb)",
    "abbr": "Pb  ",
    "lat": "48.2081",
    "lng": "15.6237",
    "arrival": "2023-08-30T05:59:00Z",
    "departure": "2023-08-30T06:00:00Z"
  }
]
