[
  {
    "train_number": "160   ",
    "unit_number": "1116.0153",
    "name": "Freilassing",
    "abbr": "MFL ",
    "lat": "47.8368",
    "lng": "12.9764",
    "arrival": null,
    "departure": "2023-10-17T08:02:00Z"
  },
  {
    "train_number": "160   ",
    "unit_number": "1116.0153",
    "name": "Salzburg Liefering (in Sb)",
    "abbr": "Lfg ",
    "lat": "47.8229",
    "lng": "13.0021",
    "arrival": null,
    "departure": "2023-10-17T08:00:00Z"
  },
  {
    "train_number": "160   ",
    "unit_number": "1116.0153",
    "name": "Salzburg Hbf (in Sb)",
    "abbr": "Sb  ",
    "lat": "47.8135",
    "lng": "13.0466",
    "arrival": "2023-10-17T07:53:00Z",
    "departure": "2023-10-17T07:56:00Z"
  },
  {
    "train_number": "160   ",
    "unit_number": "1116.0153",
    "name": "Steindorf b.Straßw. (in Nst)",
    "abbr": "Nst ",
    "lat": "47.9676",
    "lng": "13.2406",
    "arrival": null,
    "departure": "2023-10-17T07:34:00Z"
  },
  {
    "train_number": "160   ",
    "unit_number": "1116.0153",
    "name": "Attnang-Puchheim",
    "abbr": "At  ",
    "lat": "48.0112",
    "lng": "13.7193",
    "arrival": null,
    "departure": "2023-10-17T07:11:00Z"
  },
  {
    "train_number": "160   ",
    "unit_number": "1116.0153",
    "name": "Wels Hbf",
    "abbr": "We  ",
    "lat": "48.1662",
    "lng": "14.0273",
    "arrival": null,
    "departure": "2023-10-17T06:58:00Z"
  },
  {
    "train_number": "160   ",
    "unit_number": "1116.0153",
    "name": "Linz Hbf",
    "abbr": "Lz  ",
    "lat": "48.2908",
    "lng": "14.2927",
    "arrival": "2023-10-17T06:43:00Z",
    "departure": "2023-10-17T06:45:00Z"
  },
  {
    "train_number": "160   ",
    "unit_number": "1116.0153",
    "name": "St.Valentin (in Sv)",
    "abbr": "Sv  ",
    "lat": "48.1784",
    "lng": "14.5219",
    "arrival": null,
    "departure": "2023-10-17T06:31:00Z"
  },
  {
    "train_number": "160   ",
    "unit_number": "1116.0153",
    "name": "Amstetten (in Ams)",
    "abbr": "Ams ",
    "lat": "48.1215",
    "lng": "14.8792",
    "arrival": null,
    "departure": "2023-10-17T06:19:00Z"
  },
  {
    "train_number": "160   ",
    "unit_number": "1116.0153",
    "name": "Ybbs a.d.Donau",
    "abbr": "Y   ",
    "lat": "48.158",
    "lng": "15.0981",
    "arrival": null,
    "departure": "2023-10-17T06:14:00Z"
  },
  {
    "train_number": "160   ",
    "unit_number": "1116.0153",
    "name": "Pöchlarn",
    "abbr": "Poe ",
    "lat": "48.208",
    "lng": "15.2148",
    "arrival": null,
    "departure": "2023-10-17T06:10:00Z"
  },
  {
    "train_number": "160   ",
    "unit_number": "1116.0153",
    "name": "St.Pölten Hbf (in Pb)",
    "abbr": "Pb  ",
    "lat": "48.2081",
    "lng": "15.6237",
    "arrival": "2023-10-17T05:57:00Z",
    "departure": "2023-10-17T05:59:00Z"
  },
  {
    "train_number": "160   ",
    "unit_number": "1116.0153",
    "name": "Wien Meidling (in Wbf)",
    "abbr": "Mi  ",
    "lat": "48.1747",
    "lng": "16.3348",
    "arrival": "2023-10-17T05:33:00Z",
    "departure": "2023-10-17T05:35:00Z"
  },
  {
    "train_number": "560   ",
    "unit_number": "1116.0153",
    "name": "Wien Hauptbahnhof (in Wbf)",
    "abbr": "Wbf ",
    "lat": "48.185",
    "lng": "16.3778",
    "arrival": "2023-10-17T05:21:00Z",
    "departure": "2023-10-17T05:28:00Z"
  },
  {
    "train_number": "825   ",
    "unit_number": "1116.0153",
    "name": "Wien Meidling (in Wbf)",
    "abbr": "Mi  ",
    "lat": "48.1747",
    "lng": "16.3348",
    "arrival": "2023-10-17T03:32:00Z",
    "departure": "2023-10-17T03:34:00Z"
  },
  {
    "train_number": "825   ",
    "unit_number": "1116.0153",
    "name": "St.Pölten Hbf (in Pb)",
    "abbr": "Pb  ",
    "lat": "48.2081",
    "lng": "15.6237",
    "arrival": "2023-10-17T03:00:00Z",
    "departure": "2023-10-17T03:02:00Z"
  },
  {
    "train_number": "825   ",
    "unit_number": "1116.0153",
    "name": "Pöchlarn",
    "abbr": "Poe ",
    "lat": "48.208",
    "lng": "15.2148",
    "arrival": null,
    "departure": "2023-10-17T02:47:00Z"
  },
  {
    "train_number": "825   ",
    "unit_number": "1116.0153",
    "name": "Ybbs a.d.Donau",
    "abbr": "Y   ",
    "lat": "48.158",
    "lng": "15.0981",
    "arrival": null,
    "departure": "2023-10-17T02:43:00Z"
  },
  {
    "train_number": "825   ",
    "unit_number": "1116.0153",
    "name": "Amstetten (in Ams)",
    "abbr": "Ams ",
    "lat": "48.1215",
    "lng": "14.8792",
    "arrival": "2023-10-17T02:35:00Z",
    "departure": "2023-10-17T02:37:00Z"
  },
  {
    "train_number": "825   ",
    "unit_number": "1116.0153",
    "name": "St.Valentin (in Sv)",
    "abbr": "Sv  ",
    "lat": "48.1784",
    "lng": "14.5219",
    "arrival": null,
    "departure": "2023-10-17T02:21:00Z"
  }
]
