[
  {
    "train_number": "18118 ",
    "unit_number": "1116.0165",
    "name": "St.Valentin (in Sv)",
    "abbr": "Sv  ",
    "lat": "48.1784",
    "lng": "14.5219",
    "arrival": "2023-08-29T19:28:00Z",
    "departure": "2023-08-29T20:00:00Z"
  },
  {
    "train_number": "18118 ",
    "unit_number": "1116.0165",
    "name": "Enns",
    "abbr": "Ens ",
    "lat": "48.2212",
    "lng": "14.4668",
    "arrival": null,
    "departure": "2023-08-29T19:22:00Z"
  },
  {
    "train_number": "88118 ",
    "unit_number": "1116.0165",
    "name": "Linz Hbf",
    "abbr": "Lz  ",
    "lat": "48.2908",
    "lng": "14.2927",
    "arrival": "2023-08-29T12:56:00Z",
    "departure": "2023-08-29T19:10:00Z"
  },
  {
    "train_number": "57905 ",
    "unit_number": "1116.0165",
    "name": "Voest Alpine Linz",
    "abbr": "Ms  ",
    "lat": "48.2607",
    "lng": "14.2927",
    "arrival": "2023-08-29T12:32:00Z",
    "departure": "2023-08-29T12:45:00Z"
  },
  {
    "train_number": "57905 ",
    "unit_number": "1116.0165",
    "name": "Linz Vbf-Ost-Einf. (in Lzv)",
    "abbr": "Lm  ",
    "lat": "48.2607",
    "lng": "14.3257",
    "arrival": null,
    "departure": "2023-08-29T12:07:00Z"
  },
  {
    "train_number": "57905 ",
    "unit_number": "1116.0165",
    "name": "Enns",
    "abbr": "Ens ",
    "lat": "48.2212",
    "lng": "14.4668",
    "arrival": null,
    "departure": "2023-08-29T11:31:00Z"
  },
  {
    "train_number": "57905 ",
    "unit_number": "1116.0165",
    "name": "St.Valentin (in Sv)",
    "abbr": "Sv  ",
    "lat": "48.1784",
    "lng": "14.5219",
    "arrival": null,
    "departure": "2023-08-29T11:26:00Z"
  },
  {
    "train_number": "57905 ",
    "unit_number": "1116.0165",
    "name": "Amstetten (in Ams)",
    "abbr": "Ams ",
    "lat": "48.1215",
    "lng": "14.8792",
    "arrival": null,
    "departure": "2023-08-29T10:57:00Z"
  },
  {
    "train_number": "57905 ",
    "unit_number": "1116.0165",
    "name": "Ybbs a.d.Donau",
    "abbr": "Y   ",
    "lat": "48.158",
    "lng": "15.0981",
    "arrival": null,
    "departure": "2023-08-29T10:45:00Z"
  },
  {
    "train_number": "57905 ",
    "unit_number": "1116.0165",
    "name": "Pöchlarn",
    "abbr": "Poe ",
    "lat": "48.208",
    "lng": "15.2148",
    "arrival": null,
    "departure": "2023-08-29T10:36:00Z"
  },
  {
    "train_number": "57905 ",
    "unit_number": "1116.0165",
    "name": "St.Pölten-Fbf (in Pb)",
    "abbr": "Pw  ",
    "lat": "48.2081",
    "lng": "15.6237",
    "arrival": "2023-08-29T10:06:00Z",
    "departure": "2023-08-29T10:11:00Z"
  },
  {
    "train_number": "57905 ",
    "unit_number": "1116.0165",
    "name": "St.Pölten Hbf (in Pb)",
    "abbr": "Pb  ",
    "lat": "48.2081",
    "lng": "15.6237",
    "arrival": null,
    "departure": "2023-08-29T10:04:00Z"
  },
  {
    "train_number": "57905 ",
    "unit_number": "1116.0165",
    "name": "Herzogenburg (in Ho)",
    "abbr": "Ho  ",
    "lat": "48.2759",
    "lng": "15.6966",
    "arrival": null,
    "departure": "2023-08-29T09:51:00Z"
  },
  {
    "train_number": "57905 ",
    "unit_number": "1116.0165",
    "name": "Stockerau (in Su)",
    "abbr": "Su  ",
    "lat": "48.3824",
    "lng": "16.2126",
    "arrival": null,
    "departure": "2023-08-29T08:21:00Z"
  },
  {
    "train_number": "57905 ",
    "unit_number": "1116.0165",
    "name": "Korneuburg",
    "abbr": "Ko  ",
    "lat": "48.3429",
    "lng": "16.3289",
    "arrival": null,
    "departure": "2023-08-29T08:10:00Z"
  },
  {
    "train_number": "57905 ",
    "unit_number": "1116.0165",
    "name": "Gänserndorf",
    "abbr": "Gae ",
    "lat": "48.3401",
    "lng": "16.7324",
    "arrival": null,
    "departure": "2023-08-29T06:49:00Z"
  },
  {
    "train_number": "57096 ",
    "unit_number": "1116.0165",
    "name": "Hohenau",
    "abbr": "Nh  ",
    "lat": "48.5981",
    "lng": "16.9008",
    "arrival": "2023-08-29T04:30:00Z",
    "departure": "2023-08-29T06:21:00Z"
  },
  {
    "train_number": "57096 ",
    "unit_number": "1116.0165",
    "name": "Gänserndorf",
    "abbr": "Gae ",
    "lat": "48.3401",
    "lng": "16.7324",
    "arrival": null,
    "departure": "2023-08-29T04:06:00Z"
  },
  {
    "train_number": "57096 ",
    "unit_number": "1116.0165",
    "name": "Korneuburg",
    "abbr": "Ko  ",
    "lat": "48.3429",
    "lng": "16.3289",
    "arrival": null,
    "departure": "2023-08-29T03:07:00Z"
  },
  {
    "train_number": "57096 ",
    "unit_number": "1116.0165",
    "name": "Stockerau (in Su)",
    "abbr": "Su  ",
    "lat": "48.3824",
    "lng": "16.2126",
    "arrival": null,
    "departure": "2023-08-29T02:57:00Z"
  }
]
