[
  {
    "train_number": "653   ",
    "unit_number": "1116.0153",
    "name": "Neunkirchen N.Ö.",
    "abbr": "Nek ",
    "lat": "47.731",
    "lng": "16.0826",
    "arrival": null,
    "departure": "2023-11-07T11:41:00Z"
  },
  {
    "train_number": "653   ",
    "unit_number": "1116.0153",
    "name": "Wr. Neustadt Hbf (in Nb)",
    "abbr": "Nb  ",
    "lat": "47.8113",
    "lng": "16.2337",
    "arrival": "2023-11-07T11:28:00Z",
    "departure": "2023-11-07T11:32:00Z"
  },
  {
    "train_number": "653   ",
    "unit_number": "1116.0153",
    "name": "Leobersdorf",
    "abbr": "Lb  ",
    "lat": "47.9375",
    "lng": "16.2313",
    "arrival": null,
    "departure": "2023-11-07T11:21:00Z"
  },
  {
    "train_number": "653   ",
    "unit_number": "1116.0153",
    "name": "Mödling",
    "abbr": "Md  ",
    "lat": "48.0858",
    "lng": "16.2958",
    "arrival": null,
    "departure": "2023-11-07T11:13:00Z"
  },
  {
    "train_number": "653   ",
    "unit_number": "1116.0153",
    "name": "Wien Meidling (in Wbf)",
    "abbr": "Mi  ",
    "lat": "48.1747",
    "lng": "16.3348",
    "arrival": "2023-11-07T11:03:00Z",
    "departure": "2023-11-07T11:05:00Z"
  },
  {
    "train_number": "547   ",
    "unit_number": "1116.0153",
    "name": "Wien Meidling (in Wbf)",
    "abbr": "Mi  ",
    "lat": "48.1747",
    "lng": "16.3348",
    "arrival": "2023-11-07T09:58:00Z",
    "departure": "2023-11-07T10:00:00Z"
  },
  {
    "train_number": "547   ",
    "unit_number": "1116.0153",
    "name": "St.Pölten Hbf (in Pb)",
    "abbr": "Pb  ",
    "lat": "48.2081",
    "lng": "15.6237",
    "arrival": "2023-11-07T09:30:00Z",
    "departure": "2023-11-07T09:32:00Z"
  },
  {
    "train_number": "547   ",
    "unit_number": "1116.0153",
    "name": "Pöchlarn",
    "abbr": "Poe ",
    "lat": "48.208",
    "lng": "15.2148",
    "arrival": null,
    "departure": "2023-11-07T09:17:00Z"
  },
  {
    "train_number": "547   ",
    "unit_number": "1116.0153",
    "name": "Ybbs a.d.Donau",
    "abbr": "Y   ",
    "lat": "48.158",
    "lng": "15.0981",
    "arrival": null,
    "departure": "2023-11-07T09:14:00Z"
  },
  {
    "train_number": "547   ",
    "unit_number": "1116.0153",
    "name": "Amstetten (in Ams)",
    "abbr": "Ams ",
    "lat": "48.1215",
    "lng": "14.8792",
    "arrival": "2023-11-07T09:05:00Z",
    "departure": "2023-11-07T09:07:00Z"
  },
  {
    "train_number": "547   ",
    "unit_number": "1116.0153",
    "name": "St.Valentin (in Sv)",
    "abbr": "Sv  ",
    "lat": "48.1784",
    "lng": "14.5219",
    "arrival": "2023-11-07T08:46:00Z",
    "departure": "2023-11-07T08:50:00Z"
  },
  {
    "train_number": "547   ",
    "unit_number": "1116.0153",
    "name": "Linz Hbf",
    "abbr": "Lz  ",
    "lat": "48.2908",
    "lng": "14.2927",
    "arrival": "2023-11-07T08:30:00Z",
    "departure": "2023-11-07T08:32:00Z"
  },
  {
    "train_number": "547   ",
    "unit_number": "1116.0153",
    "name": "Wels Hbf",
    "abbr": "We  ",
    "lat": "48.1662",
    "lng": "14.0273",
    "arrival": "2023-11-07T08:14:00Z",
    "departure": "2023-11-07T08:16:00Z"
  },
  {
    "train_number": "547   ",
    "unit_number": "1116.0153",
    "name": "Attnang-Puchheim",
    "abbr": "At  ",
    "lat": "48.0112",
    "lng": "13.7193",
    "arrival": "2023-11-07T07:58:00Z",
    "departure": "2023-11-07T08:00:00Z"
  },
  {
    "train_number": "547   ",
    "unit_number": "1116.0153",
    "name": "Steindorf b.Straßw. (in Nst)",
    "abbr": "Nst ",
    "lat": "47.9676",
    "lng": "13.2406",
    "arrival": null,
    "departure": "2023-11-07T07:31:00Z"
  },
  {
    "train_number": "668   ",
    "unit_number": "1116.0153",
    "name": "Salzburg Hbf (in Sb)",
    "abbr": "Sb  ",
    "lat": "47.8135",
    "lng": "13.0466",
    "arrival": "2023-11-07T05:49:00Z",
    "departure": "2023-11-07T07:11:00Z"
  },
  {
    "train_number": "668   ",
    "unit_number": "1116.0153",
    "name": "Steindorf b.Straßw. (in Nst)",
    "abbr": "Nst ",
    "lat": "47.9676",
    "lng": "13.2406",
    "arrival": null,
    "departure": "2023-11-07T05:29:00Z"
  },
  {
    "train_number": "668   ",
    "unit_number": "1116.0153",
    "name": "Attnang-Puchheim",
    "abbr": "At  ",
    "lat": "48.0112",
    "lng": "13.7193",
    "arrival": "2023-11-07T04:59:00Z",
    "departure": "2023-11-07T05:01:00Z"
  },
  {
    "train_number": "668   ",
    "unit_number": "1116.0153",
    "name": "Wels Hbf",
    "abbr": "We  ",
    "lat": "48.1662",
    "lng": "14.0273",
    "arrival": "2023-11-07T04:44:00Z",
    "departure": "2023-11-07T04:46:00Z"
  },
  {
    "train_number": "845   ",
    "unit_number": "1116.0153",
    "name": "Linz Hbf",
    "abbr": "Lz  ",
    "lat": "48.2908",
    "lng": "14.2927",
    "arrival": "2023-11-06T22:30:00Z",
    "departure": "2023-11-07T04:30:00Z"
  }
]
