[
  {
    "train_number": "46186 ",
    "unit_number": "1116.0165",
    "name": "Passau Gbf",
    "abbr": "Pag ",
    "lat": "48.5729",
    "lng": "13.4342",
    "arrival": "2023-09-09T06:20:00Z",
    "departure": "2023-09-09T06:45:00Z"
  },
  {
    "train_number": "46186 ",
    "unit_number": "1116.0165",
    "name": "Schärding (in Sch)",
    "abbr": "Sch ",
    "lat": "48.4638",
    "lng": "13.4424",
    "arrival": null,
    "departure": "2023-09-09T06:03:00Z"
  },
  {
    "train_number": "46186 ",
    "unit_number": "1116.0165",
    "name": "Neumarkt-Kallham (in Neu)",
    "abbr": "Neu ",
    "lat": "48.2714",
    "lng": "13.7245",
    "arrival": null,
    "departure": "2023-09-09T05:33:00Z"
  },
  {
    "train_number": "46186 ",
    "unit_number": "1116.0165",
    "name": "Wels Hbf",
    "abbr": "We  ",
    "lat": "48.1662",
    "lng": "14.0273",
    "arrival": null,
    "departure": "2023-09-09T05:09:00Z"
  },
  {
    "train_number": "46186 ",
    "unit_number": "1116.0165",
    "name": "Wels Vbf-Einfgr (in Wev)",
    "abbr": "Wei ",
    "lat": "48.1765",
    "lng": "14.0501",
    "arrival": null,
    "departure": "2023-09-09T05:06:00Z"
  },
  {
    "train_number": "46186 ",
    "unit_number": "1116.0165",
    "name": "Linz Hbf",
    "abbr": "Lz  ",
    "lat": "48.2908",
    "lng": "14.2927",
    "arrival": null,
    "departure": "2023-09-09T04:33:00Z"
  },
  {
    "train_number": "46186 ",
    "unit_number": "1116.0165",
    "name": "Linz Vbf-West (in Lzv)",
    "abbr": "Lr  ",
    "lat": "48.2607",
    "lng": "14.2927",
    "arrival": "2023-09-09T04:15:00Z",
    "departure": "2023-09-09T04:25:00Z"
  },
  {
    "train_number": "46186 ",
    "unit_number": "1116.0165",
    "name": "Enns",
    "abbr": "Ens ",
    "lat": "48.2212",
    "lng": "14.4668",
    "arrival": null,
    "departure": "2023-09-09T04:03:00Z"
  },
  {
    "train_number": "46186 ",
    "unit_number": "1116.0165",
    "name": "St.Valentin (in Sv)",
    "abbr": "Sv  ",
    "lat": "48.1784",
    "lng": "14.5219",
    "arrival": null,
    "departure": "2023-09-09T03:58:00Z"
  },
  {
    "train_number": "46186 ",
    "unit_number": "1116.0165",
    "name": "Amstetten (in Ams)",
    "abbr": "Ams ",
    "lat": "48.1215",
    "lng": "14.8792",
    "arrival": null,
    "departure": "2023-09-09T03:24:00Z"
  },
  {
    "train_number": "46186 ",
    "unit_number": "1116.0165",
    "name": "Ybbs a.d.Donau",
    "abbr": "Y   ",
    "lat": "48.158",
    "lng": "15.0981",
    "arrival": null,
    "departure": "2023-09-09T03:09:00Z"
  },
  {
    "train_number": "46186 ",
    "unit_number": "1116.0165",
    "name": "Pöchlarn",
    "abbr": "Poe ",
    "lat": "48.208",
    "lng": "15.2148",
    "arrival": null,
    "departure": "2023-09-09T02:58:00Z"
  }
]
