[
  {
    "train_number": "536   ",
    "unit_number": "1116.0249",
    "name": "Wien Meidling (in Wbf)",
    "abbr": "Mi  ",
    "lat": "48.1747",
    "lng": "16.3348",
    "arrival": "2023-10-05T13:35:00Z",
    "departure": "2023-10-05T13:37:00Z"
  },
  {
    "train_number": "536   ",
    "unit_number": "1116.0249",
    "name": "Mödling",
    "abbr": "Md  ",
    "lat": "48.0858",
    "lng": "16.2958",
    "arrival": null,
    "departure": "2023-10-05T13:25:00Z"
  },
  {
    "train_number": "536   ",
    "unit_number": "1116.0249",
    "name": "Leobersdorf",
    "abbr": "Lb  ",
    "lat": "47.9375",
    "lng": "16.2313",
    "arrival": null,
    "departure": "2023-10-05T13:15:00Z"
  },
  {
    "train_number": "536   ",
    "unit_number": "1116.0249",
    "name": "Wr. Neustadt Hbf (in Nb)",
    "abbr": "Nb  ",
    "lat": "47.8113",
    "lng": "16.2337",
    "arrival": "2023-10-05T13:06:00Z",
    "departure": "2023-10-05T13:08:00Z"
  },
  {
    "train_number": "536   ",
    "unit_number": "1116.0249",
    "name": "Neunkirchen N.Ö.",
    "abbr": "Nek ",
    "lat": "47.731",
    "lng": "16.0826",
    "arrival": null,
    "departure": "2023-10-05T12:58:00Z"
  },
  {
    "train_number": "536   ",
    "unit_number": "1116.0249",
    "name": "Payerbach-Reichenau",
    "abbr": "Pr  ",
    "lat": "47.696",
    "lng": "15.8632",
    "arrival": null,
    "departure": "2023-10-05T12:47:00Z"
  },
  {
    "train_number": "536   ",
    "unit_number": "1116.0249",
    "name": "Mürzzuschlag (in Mz)",
    "abbr": "Mz  ",
    "lat": "47.6079",
    "lng": "15.677",
    "arrival": null,
    "departure": "2023-10-05T12:11:00Z"
  },
  {
    "train_number": "536   ",
    "unit_number": "1116.0249",
    "name": "Bruck a.d.Mur (in Bm)",
    "abbr": "Bm  ",
    "lat": "47.4134",
    "lng": "15.2797",
    "arrival": null,
    "departure": "2023-10-05T11:46:00Z"
  },
  {
    "train_number": "536   ",
    "unit_number": "1116.0249",
    "name": "Leoben Hbf (in Leb)",
    "abbr": "Leb ",
    "lat": "47.3867",
    "lng": "15.0898",
    "arrival": "2023-10-05T11:36:00Z",
    "departure": "2023-10-05T11:37:00Z"
  },
  {
    "train_number": "536   ",
    "unit_number": "1116.0249",
    "name": "Zeltweg",
    "abbr": "Zg  ",
    "lat": "47.1887",
    "lng": "14.7425",
    "arrival": null,
    "departure": "2023-10-05T11:12:00Z"
  },
  {
    "train_number": "536   ",
    "unit_number": "1116.0249",
    "name": "St.Veit a.d.Glan (in Vps)",
    "abbr": "Vps ",
    "lat": "46.7704",
    "lng": "14.3672",
    "arrival": "2023-10-05T09:51:00Z",
    "departure": "2023-10-05T09:53:00Z"
  },
  {
    "train_number": "536   ",
    "unit_number": "1116.0249",
    "name": "Klagenfurt Hbf (in Kt)",
    "abbr": "Kt  ",
    "lat": "46.6156",
    "lng": "14.3137",
    "arrival": "2023-10-05T09:37:00Z",
    "departure": "2023-10-05T09:39:00Z"
  },
  {
    "train_number": "639   ",
    "unit_number": "1116.0249",
    "name": "Villach Hbf",
    "abbr": "Vb  ",
    "lat": "46.6186",
    "lng": "13.8484",
    "arrival": "2023-10-05T06:46:00Z",
    "departure": "2023-10-05T09:14:00Z"
  },
  {
    "train_number": "639   ",
    "unit_number": "1116.0249",
    "name": "Klagenfurt Hbf (in Kt)",
    "abbr": "Kt  ",
    "lat": "46.6156",
    "lng": "14.3137",
    "arrival": "2023-10-05T06:20:00Z",
    "departure": "2023-10-05T06:22:00Z"
  },
  {
    "train_number": "639   ",
    "unit_number": "1116.0249",
    "name": "St.Veit a.d.Glan (in Vps)",
    "abbr": "Vps ",
    "lat": "46.7704",
    "lng": "14.3672",
    "arrival": "2023-10-05T06:06:00Z",
    "departure": "2023-10-05T06:08:00Z"
  },
  {
    "train_number": "639   ",
    "unit_number": "1116.0249",
    "name": "Zeltweg",
    "abbr": "Zg  ",
    "lat": "47.1887",
    "lng": "14.7425",
    "arrival": null,
    "departure": "2023-10-05T04:47:00Z"
  },
  {
    "train_number": "639   ",
    "unit_number": "1116.0249",
    "name": "Leoben Hbf (in Leb)",
    "abbr": "Leb ",
    "lat": "47.3867",
    "lng": "15.0898",
    "arrival": "2023-10-05T04:20:00Z",
    "departure": "2023-10-05T04:22:00Z"
  },
  {
    "train_number": "639   ",
    "unit_number": "1116.0249",
    "name": "Bruck a.d.Mur (in Bm)",
    "abbr": "Bm  ",
    "lat": "47.4134",
    "lng": "15.2797",
    "arrival": "2023-10-05T03:57:00Z",
    "departure": "2023-10-05T04:09:00Z"
  },
  {
    "train_number": "639   ",
    "unit_number": "1116.0249",
    "name": "Graz Vbf (in G)",
    "abbr": "Gi  ",
    "lat": "47.0885",
    "lng": "15.4077",
    "arrival": null,
    "departure": "2023-10-05T03:22:00Z"
  },
  {
    "train_number": "755   ",
    "unit_number": "1116.0249",
    "name": "Graz Hbf (in G)",
    "abbr": "G   ",
    "lat": "47.0733",
    "lng": "15.4163",
    "arrival": "2023-10-04T18:34:00Z",
    "departure": "2023-10-05T03:19:00Z"
  }
]
