[
  {
    "train_number": "2339  ",
    "unit_number": "1116.0165",
    "name": "Leobersdorf",
    "abbr": "Lb  ",
    "lat": "47.9375",
    "lng": "16.2313",
    "arrival": "2023-09-20T12:35:00Z",
    "departure": "2023-09-20T12:35:00Z"
  },
  {
    "train_number": "2339  ",
    "unit_number": "1116.0165",
    "name": "Mödling",
    "abbr": "Md  ",
    "lat": "48.0858",
    "lng": "16.2958",
    "arrival": "2023-09-20T12:18:00Z",
    "departure": "2023-09-20T12:19:00Z"
  },
  {
    "train_number": "2339  ",
    "unit_number": "1116.0165",
    "name": "Wien Meidling (in Wbf)",
    "abbr": "Mi  ",
    "lat": "48.1747",
    "lng": "16.3348",
    "arrival": "2023-09-20T12:04:00Z",
    "departure": "2023-09-20T12:07:00Z"
  },
  {
    "train_number": "2339  ",
    "unit_number": "1116.0165",
    "name": "Floridsdorf (in F)",
    "abbr": "F   ",
    "lat": "48.2568",
    "lng": "16.4004",
    "arrival": "2023-09-20T11:38:00Z",
    "departure": "2023-09-20T11:39:00Z"
  },
  {
    "train_number": "2339  ",
    "unit_number": "1116.0165",
    "name": "Gänserndorf",
    "abbr": "Gae ",
    "lat": "48.3401",
    "lng": "16.7324",
    "arrival": "2023-09-20T11:14:00Z",
    "departure": "2023-09-20T11:15:00Z"
  },
  {
    "train_number": "2339  ",
    "unit_number": "1116.0165",
    "name": "Hohenau",
    "abbr": "Nh  ",
    "lat": "48.5981",
    "lng": "16.9008",
    "arrival": "2023-09-20T10:42:00Z",
    "departure": "2023-09-20T10:42:00Z"
  },
  {
    "train_number": "2320  ",
    "unit_number": "1116.0165",
    "name": "Hohenau",
    "abbr": "Nh  ",
    "lat": "48.5981",
    "lng": "16.9008",
    "arrival": "2023-09-20T09:14:00Z",
    "departure": "2023-09-20T09:14:00Z"
  },
  {
    "train_number": "2320  ",
    "unit_number": "1116.0165",
    "name": "Gänserndorf",
    "abbr": "Gae ",
    "lat": "48.3401",
    "lng": "16.7324",
    "arrival": "2023-09-20T08:42:00Z",
    "departure": "2023-09-20T08:42:00Z"
  },
  {
    "train_number": "2320  ",
    "unit_number": "1116.0165",
    "name": "Floridsdorf (in F)",
    "abbr": "F   ",
    "lat": "48.2568",
    "lng": "16.4004",
    "arrival": "2023-09-20T08:19:00Z",
    "departure": "2023-09-20T08:20:00Z"
  },
  {
    "train_number": "2320  ",
    "unit_number": "1116.0165",
    "name": "Wien Meidling (in Wbf)",
    "abbr": "Mi  ",
    "lat": "48.1747",
    "lng": "16.3348",
    "arrival": "2023-09-20T07:53:00Z",
    "departure": "2023-09-20T07:54:00Z"
  },
  {
    "train_number": "2320  ",
    "unit_number": "1116.0165",
    "name": "Mödling",
    "abbr": "Md  ",
    "lat": "48.0858",
    "lng": "16.2958",
    "arrival": "2023-09-20T07:39:00Z",
    "departure": "2023-09-20T07:40:00Z"
  },
  {
    "train_number": "2320  ",
    "unit_number": "1116.0165",
    "name": "Leobersdorf",
    "abbr": "Lb  ",
    "lat": "47.9375",
    "lng": "16.2313",
    "arrival": "2023-09-20T07:22:00Z",
    "departure": "2023-09-20T07:23:00Z"
  },
  {
    "train_number": "2315  ",
    "unit_number": "1116.0165",
    "name": "Wr. Neustadt Hbf (in Nb)",
    "abbr": "Nb  ",
    "lat": "47.8113",
    "lng": "16.2337",
    "arrival": "2023-09-20T06:47:00Z",
    "departure": "2023-09-20T07:11:00Z"
  },
  {
    "train_number": "2315  ",
    "unit_number": "1116.0165",
    "name": "Leobersdorf",
    "abbr": "Lb  ",
    "lat": "47.9375",
    "lng": "16.2313",
    "arrival": "2023-09-20T06:35:00Z",
    "departure": "2023-09-20T06:35:00Z"
  },
  {
    "train_number": "2315  ",
    "unit_number": "1116.0165",
    "name": "Mödling",
    "abbr": "Md  ",
    "lat": "48.0858",
    "lng": "16.2958",
    "arrival": "2023-09-20T06:18:00Z",
    "departure": "2023-09-20T06:19:00Z"
  },
  {
    "train_number": "2315  ",
    "unit_number": "1116.0165",
    "name": "Wien Meidling (in Wbf)",
    "abbr": "Mi  ",
    "lat": "48.1747",
    "lng": "16.3348",
    "arrival": "2023-09-20T06:04:00Z",
    "departure": "2023-09-20T06:07:00Z"
  },
  {
    "train_number": "2315  ",
    "unit_number": "1116.0165",
    "name": "Floridsdorf (in F)",
    "abbr": "F   ",
    "lat": "48.2568",
    "lng": "16.4004",
    "arrival": "2023-09-20T05:38:00Z",
    "departure": "2023-09-20T05:39:00Z"
  },
  {
    "train_number": "2315  ",
    "unit_number": "1116.0165",
    "name": "Gänserndorf",
    "abbr": "Gae ",
    "lat": "48.3401",
    "lng": "16.7324",
    "arrival": "2023-09-20T05:14:00Z",
    "departure": "2023-09-20T05:15:00Z"
  },
  {
    "train_number": "2315  ",
    "unit_number": "1116.0165",
    "name": "Hohenau",
    "abbr": "Nh  ",
    "lat": "48.5981",
    "lng": "16.9008",
    "arrival": "2023-09-20T04:42:00Z",
    "departure": "2023-09-20T04:42:00Z"
  },
  {
    "train_number": "Blockz",
    "unit_number": "1116.0165",
    "name": "Hohenau",
    "abbr": "Nh  ",
    "lat": "48.5981",
    "lng": "16.9008",
    "arrival": "2023-09-20T04:00:00Z",
    "departure": "2023-09-20T04:10:00Z"
  }
]
