[
  {
    "train_number": "19163 ",
    "unit_number": "1116.0157",
    "name": "Kitzbühel",
    "abbr": "Kzb ",
    "lat": "47.4542",
    "lng": "12.391",
    "arrival": "2023-10-31T12:27:00Z",
    "departure": "2023-10-31T12:28:00Z"
  },
  {
    "train_number": "19163 ",
    "unit_number": "1116.0157",
    "name": "Wörgl Hbf (in W)",
    "abbr": "W   ",
    "lat": "47.4912",
    "lng": "12.0603",
    "arrival": "2023-10-31T11:56:00Z",
    "departure": "2023-10-31T11:58:00Z"
  },
  {
    "train_number": "19163 ",
    "unit_number": "1116.0157",
    "name": "Wörgl Hbf-T. N. (in W)",
    "abbr": "Wtn ",
    "lat": "47.4824",
    "lng": "12.033",
    "arrival": null,
    "departure": "2023-10-31T11:54:00Z"
  },
  {
    "train_number": "19163 ",
    "unit_number": "1116.0157",
    "name": "Jenbach",
    "abbr": "Jb  ",
    "lat": "47.3884",
    "lng": "11.7783",
    "arrival": "2023-10-31T11:41:00Z",
    "departure": "2023-10-31T11:43:00Z"
  },
  {
    "train_number": "19163 ",
    "unit_number": "1116.0157",
    "name": "Schwaz",
    "abbr": "Sw  ",
    "lat": "47.3497",
    "lng": "11.7016",
    "arrival": null,
    "departure": "2023-10-31T11:37:00Z"
  },
  {
    "train_number": "19163 ",
    "unit_number": "1116.0157",
    "name": "Hall in Tirol",
    "abbr": "H   ",
    "lat": "47.2769",
    "lng": "11.5013",
    "arrival": null,
    "departure": "2023-10-31T11:27:00Z"
  },
  {
    "train_number": "19163 ",
    "unit_number": "1116.0157",
    "name": "Innsbruck Hbf  (in I)",
    "abbr": "I   ",
    "lat": "47.2634",
    "lng": "11.4017",
    "arrival": "2023-10-31T11:11:00Z",
    "departure": "2023-10-31T11:21:00Z"
  },
  {
    "train_number": "Vhz   ",
    "unit_number": "1116.0157",
    "name": "Innsbruck Hbf  (in I)",
    "abbr": "I   ",
    "lat": "47.2634",
    "lng": "11.4017",
    "arrival": "2023-10-31T09:10:00Z",
    "departure": "2023-10-31T09:40:00Z"
  },
  {
    "train_number": "5348  ",
    "unit_number": "1116.0157",
    "name": "Hall in Tirol",
    "abbr": "H   ",
    "lat": "47.2769",
    "lng": "11.5013",
    "arrival": "2023-10-31T06:59:00Z",
    "departure": "2023-10-31T07:00:00Z"
  },
  {
    "train_number": "5348  ",
    "unit_number": "1116.0157",
    "name": "Schwaz",
    "abbr": "Sw  ",
    "lat": "47.3497",
    "lng": "11.7016",
    "arrival": "2023-10-31T06:48:00Z",
    "departure": "2023-10-31T06:49:00Z"
  },
  {
    "train_number": "5348  ",
    "unit_number": "1116.0157",
    "name": "Jenbach",
    "abbr": "Jb  ",
    "lat": "47.3884",
    "lng": "11.7783",
    "arrival": "2023-10-31T06:43:00Z",
    "departure": "2023-10-31T06:44:00Z"
  },
  {
    "train_number": "5348  ",
    "unit_number": "1116.0157",
    "name": "Wörgl Hbf-T. N. (in W)",
    "abbr": "Wtn ",
    "lat": "47.4824",
    "lng": "12.033",
    "arrival": null,
    "departure": "2023-10-31T06:26:00Z"
  },
  {
    "train_number": "5348  ",
    "unit_number": "1116.0157",
    "name": "Wörgl Hbf (in W)",
    "abbr": "W   ",
    "lat": "47.4912",
    "lng": "12.0603",
    "arrival": "2023-10-31T06:13:00Z",
    "departure": "2023-10-31T06:24:00Z"
  },
  {
    "train_number": "5339  ",
    "unit_number": "1116.0157",
    "name": "Kufstein",
    "abbr": "K   ",
    "lat": "47.5833",
    "lng": "12.1657",
    "arrival": "2023-10-31T05:16:00Z",
    "departure": "2023-10-31T06:00:00Z"
  },
  {
    "train_number": "5339  ",
    "unit_number": "1116.0157",
    "name": "Wörgl Hbf (in W)",
    "abbr": "W   ",
    "lat": "47.4912",
    "lng": "12.0603",
    "arrival": "2023-10-31T05:00:00Z",
    "departure": "2023-10-31T05:03:00Z"
  },
  {
    "train_number": "5339  ",
    "unit_number": "1116.0157",
    "name": "Wörgl Hbf-T. N. (in W)",
    "abbr": "Wtn ",
    "lat": "47.4824",
    "lng": "12.033",
    "arrival": null,
    "departure": "2023-10-31T04:57:00Z"
  },
  {
    "train_number": "5339  ",
    "unit_number": "1116.0157",
    "name": "Jenbach",
    "abbr": "Jb  ",
    "lat": "47.3884",
    "lng": "11.7783",
    "arrival": "2023-10-31T04:40:00Z",
    "departure": "2023-10-31T04:41:00Z"
  },
  {
    "train_number": "5339  ",
    "unit_number": "1116.0157",
    "name": "Schwaz",
    "abbr": "Sw  ",
    "lat": "47.3497",
    "lng": "11.7016",
    "arrival": "2023-10-31T04:34:00Z",
    "departure": "2023-10-31T04:35:00Z"
  },
  {
    "train_number": "5339  ",
    "unit_number": "1116.0157",
    "name": "Hall in Tirol",
    "abbr": "H   ",
    "lat": "47.2769",
    "lng": "11.5013",
    "arrival": "2023-10-31T04:23:00Z",
    "departure": "2023-10-31T04:24:00Z"
  },
  {
    "train_number": "Vhz   ",
    "unit_number": "1116.0157",
    "name": "Innsbruck Hbf  (in I)",
    "abbr": "I   ",
    "lat": "47.2634",
    "lng": "11.4017",
    "arrival": "2023-10-31T04:14:00Z",
    "departure": "2023-10-31T04:14:00Z"
  }
]
