[
  {
    "train_number": "740   ",
    "unit_number": "1116.0153",
    "name": "St.Valentin (in Sv)",
    "abbr": "Sv  ",
    "lat": "48.1784",
    "lng": "14.5219",
    "arrival": "2023-09-26T15:10:00Z",
    "departure": "2023-09-26T15:14:00Z"
  },
  {
    "train_number": "740   ",
    "unit_number": "1116.0153",
    "name": "Amstetten (in Ams)",
    "abbr": "Ams ",
    "lat": "48.1215",
    "lng": "14.8792",
    "arrival": "2023-09-26T14:53:00Z",
    "departure": "2023-09-26T14:55:00Z"
  },
  {
    "train_number": "740   ",
    "unit_number": "1116.0153",
    "name": "Ybbs a.d.Donau",
    "abbr": "Y   ",
    "lat": "48.158",
    "lng": "15.0981",
    "arrival": null,
    "departure": "2023-09-26T14:46:00Z"
  },
  {
    "train_number": "740   ",
    "unit_number": "1116.0153",
    "name": "Pöchlarn",
    "abbr": "Poe ",
    "lat": "48.208",
    "lng": "15.2148",
    "arrival": null,
    "departure": "2023-09-26T14:43:00Z"
  },
  {
    "train_number": "740   ",
    "unit_number": "1116.0153",
    "name": "St.Pölten Hbf (in Pb)",
    "abbr": "Pb  ",
    "lat": "48.2081",
    "lng": "15.6237",
    "arrival": "2023-09-26T14:28:00Z",
    "departure": "2023-09-26T14:30:00Z"
  },
  {
    "train_number": "740   ",
    "unit_number": "1116.0153",
    "name": "Wien Meidling (in Wbf)",
    "abbr": "Mi  ",
    "lat": "48.1747",
    "lng": "16.3348",
    "arrival": "2023-09-26T14:00:00Z",
    "departure": "2023-09-26T14:02:00Z"
  },
  {
    "train_number": "645   ",
    "unit_number": "1116.0153",
    "name": "Wien Meidling (in Wbf)",
    "abbr": "Mi  ",
    "lat": "48.1747",
    "lng": "16.3348",
    "arrival": "2023-09-26T12:58:00Z",
    "departure": "2023-09-26T13:00:00Z"
  },
  {
    "train_number": "645   ",
    "unit_number": "1116.0153",
    "name": "St.Pölten Hbf (in Pb)",
    "abbr": "Pb  ",
    "lat": "48.2081",
    "lng": "15.6237",
    "arrival": "2023-09-26T12:30:00Z",
    "departure": "2023-09-26T12:32:00Z"
  },
  {
    "train_number": "645   ",
    "unit_number": "1116.0153",
    "name": "Pöchlarn",
    "abbr": "Poe ",
    "lat": "48.208",
    "lng": "15.2148",
    "arrival": null,
    "departure": "2023-09-26T12:17:00Z"
  },
  {
    "train_number": "645   ",
    "unit_number": "1116.0153",
    "name": "Ybbs a.d.Donau",
    "abbr": "Y   ",
    "lat": "48.158",
    "lng": "15.0981",
    "arrival": null,
    "departure": "2023-09-26T12:14:00Z"
  },
  {
    "train_number": "645   ",
    "unit_number": "1116.0153",
    "name": "Amstetten (in Ams)",
    "abbr": "Ams ",
    "lat": "48.1215",
    "lng": "14.8792",
    "arrival": "2023-09-26T12:00:00Z",
    "departure": "2023-09-26T12:07:00Z"
  },
  {
    "train_number": "645   ",
    "unit_number": "1116.0153",
    "name": "St.Valentin (in Sv)",
    "abbr": "Sv  ",
    "lat": "48.1784",
    "lng": "14.5219",
    "arrival": "2023-09-26T11:44:00Z",
    "departure": "2023-09-26T11:45:00Z"
  },
  {
    "train_number": "645   ",
    "unit_number": "1116.0153",
    "name": "Linz Hbf",
    "abbr": "Lz  ",
    "lat": "48.2908",
    "lng": "14.2927",
    "arrival": "2023-09-26T11:30:00Z",
    "departure": "2023-09-26T11:32:00Z"
  },
  {
    "train_number": "645   ",
    "unit_number": "1116.0153",
    "name": "Wels Hbf",
    "abbr": "We  ",
    "lat": "48.1662",
    "lng": "14.0273",
    "arrival": "2023-09-26T11:14:00Z",
    "departure": "2023-09-26T11:16:00Z"
  },
  {
    "train_number": "645   ",
    "unit_number": "1116.0153",
    "name": "Attnang-Puchheim",
    "abbr": "At  ",
    "lat": "48.0112",
    "lng": "13.7193",
    "arrival": "2023-09-26T10:58:00Z",
    "departure": "2023-09-26T11:00:00Z"
  },
  {
    "train_number": "645   ",
    "unit_number": "1116.0153",
    "name": "Steindorf b.Straßw. (in Nst)",
    "abbr": "Nst ",
    "lat": "47.9676",
    "lng": "13.2406",
    "arrival": null,
    "departure": "2023-09-26T10:31:00Z"
  },
  {
    "train_number": "1501  ",
    "unit_number": "1116.0153",
    "name": "Salzburg Hbf (in Sb)",
    "abbr": "Sb  ",
    "lat": "47.8135",
    "lng": "13.0466",
    "arrival": "2023-09-26T05:44:00Z",
    "departure": "2023-09-26T10:11:00Z"
  },
  {
    "train_number": "1501  ",
    "unit_number": "1116.0153",
    "name": "Salzburg Gnigl-Einfgr. (in Sb)",
    "abbr": "Sre ",
    "lat": "47.8075",
    "lng": "13.0687",
    "arrival": null,
    "departure": "2023-09-26T05:40:00Z"
  },
  {
    "train_number": "1501  ",
    "unit_number": "1116.0153",
    "name": "Bischofshofen (in Bo)",
    "abbr": "Bo  ",
    "lat": "47.42",
    "lng": "13.2199",
    "arrival": "2023-09-26T04:53:00Z",
    "departure": "2023-09-26T04:55:00Z"
  },
  {
    "train_number": "1530  ",
    "unit_number": "1116.0153",
    "name": "Schwarzach-St.Veit",
    "abbr": "Swa ",
    "lat": "47.3186",
    "lng": "13.1561",
    "arrival": "2023-09-25T21:19:00Z",
    "departure": "2023-09-26T04:39:00Z"
  }
]
