[
  {
    "train_number": "57066 ",
    "unit_number": "1116.0016",
    "name": "Hohenau",
    "abbr": "Nh  ",
    "lat": "48.5981",
    "lng": "16.9008",
    "arrival": "2023-08-20T17:21:00Z",
    "departure": "2023-08-21T03:10:00Z"
  },
  {
    "train_number": "57066 ",
    "unit_number": "1116.0016",
    "name": "Gänserndorf",
    "abbr": "Gae ",
    "lat": "48.3401",
    "lng": "16.7324",
    "arrival": null,
    "departure": "2023-08-20T16:55:00Z"
  },
  {
    "train_number": "57066 ",
    "unit_number": "1116.0016",
    "name": "Wien Zvbf (in Zur)",
    "abbr": "Zur ",
    "lat": "48.1453",
    "lng": "16.43",
    "arrival": null,
    "departure": "2023-08-20T16:00:00Z"
  },
  {
    "train_number": "57066 ",
    "unit_number": "1116.0016",
    "name": "Kledering (in Zur)",
    "abbr": "Za  ",
    "lat": "48.1453",
    "lng": "16.43",
    "arrival": "2023-08-20T15:19:00Z",
    "departure": "2023-08-20T15:56:00Z"
  },
  {
    "train_number": "57066 ",
    "unit_number": "1116.0016",
    "name": "Ebenfurth (in Ef)",
    "abbr": "Ef  ",
    "lat": "47.8777",
    "lng": "16.3621",
    "arrival": null,
    "departure": "2023-08-20T14:37:00Z"
  },
  {
    "train_number": "57066 ",
    "unit_number": "1116.0016",
    "name": "Wr. Neustadt Hbf (in Nb)",
    "abbr": "Nb  ",
    "lat": "47.8113",
    "lng": "16.2337",
    "arrival": null,
    "departure": "2023-08-20T14:12:00Z"
  },
  {
    "train_number": "57066 ",
    "unit_number": "1116.0016",
    "name": "Neunkirchen N.Ö.",
    "abbr": "Nek ",
    "lat": "47.731",
    "lng": "16.0826",
    "arrival": null,
    "departure": "2023-08-20T14:01:00Z"
  },
  {
    "train_number": "57066 ",
    "unit_number": "1116.0016",
    "name": "Payerbach-Reichenau",
    "abbr": "Pr  ",
    "lat": "47.696",
    "lng": "15.8632",
    "arrival": null,
    "departure": "2023-08-20T13:35:00Z"
  },
  {
    "train_number": "57066 ",
    "unit_number": "1116.0016",
    "name": "Mürzzuschlag (in Mz)",
    "abbr": "Mz  ",
    "lat": "47.6079",
    "lng": "15.677",
    "arrival": null,
    "departure": "2023-08-20T12:55:00Z"
  },
  {
    "train_number": "57066 ",
    "unit_number": "1116.0016",
    "name": "Bruck a.d.Mur (in Bm)",
    "abbr": "Bm  ",
    "lat": "47.4134",
    "lng": "15.2797",
    "arrival": null,
    "departure": "2023-08-20T12:14:00Z"
  },
  {
    "train_number": "57066 ",
    "unit_number": "1116.0016",
    "name": "Leoben Hbf (in Leb)",
    "abbr": "Leb ",
    "lat": "47.3867",
    "lng": "15.0898",
    "arrival": null,
    "departure": "2023-08-20T11:59:00Z"
  },
  {
    "train_number": "88978 ",
    "unit_number": "1116.0016",
    "name": "Leoben Hbf (in Leb)",
    "abbr": "Leb ",
    "lat": "47.3867",
    "lng": "15.0898",
    "arrival": "2023-08-20T07:20:00Z",
    "departure": "2023-08-20T10:55:00Z"
  },
  {
    "train_number": "96724 ",
    "unit_number": "1116.0016",
    "name": "Leoben Hbf (in Leb)",
    "abbr": "Leb ",
    "lat": "47.3867",
    "lng": "15.0898",
    "arrival": null,
    "departure": "2023-08-20T06:21:00Z"
  },
  {
    "train_number": "96724 ",
    "unit_number": "1116.0016",
    "name": "Bruck a.d.Mur (in Bm)",
    "abbr": "Bm  ",
    "lat": "47.4134",
    "lng": "15.2797",
    "arrival": null,
    "departure": "2023-08-20T05:59:00Z"
  },
  {
    "train_number": "96724 ",
    "unit_number": "1116.0016",
    "name": "Mürzzuschlag (in Mz)",
    "abbr": "Mz  ",
    "lat": "47.6079",
    "lng": "15.677",
    "arrival": null,
    "departure": "2023-08-20T05:20:00Z"
  },
  {
    "train_number": "96724 ",
    "unit_number": "1116.0016",
    "name": "Payerbach-Reichenau",
    "abbr": "Pr  ",
    "lat": "47.696",
    "lng": "15.8632",
    "arrival": null,
    "departure": "2023-08-20T04:15:00Z"
  },
  {
    "train_number": "96724 ",
    "unit_number": "1116.0016",
    "name": "Neunkirchen N.Ö.",
    "abbr": "Nek ",
    "lat": "47.731",
    "lng": "16.0826",
    "arrival": null,
    "departure": "2023-08-20T03:33:00Z"
  },
  {
    "train_number": "96724 ",
    "unit_number": "1116.0016",
    "name": "Wr. Neustadt Hbf (in Nb)",
    "abbr": "Nb  ",
    "lat": "47.8113",
    "lng": "16.2337",
    "arrival": null,
    "departure": "2023-08-20T03:20:00Z"
  }
]
