[
  {
    "train_number": null,
    "unit_number": "1116.0157",
    "name": "Wien Zvbf (in Zur)",
    "abbr": "Zur ",
    "lat": "48.1453",
    "lng": "16.43",
    "arrival": null,
    "departure": "2023-08-24T01:54:00Z"
  },
  {
    "train_number": "90135 ",
    "unit_number": "1116.0157",
    "name": "Kledering (in Zur)",
    "abbr": "Za  ",
    "lat": "48.1453",
    "lng": "16.43",
    "arrival": "2023-08-24T00:07:00Z",
    "departure": "2023-08-24T00:17:00Z"
  },
  {
    "train_number": "90135 ",
    "unit_number": "1116.0157",
    "name": "Ebenfurth (in Ef)",
    "abbr": "Ef  ",
    "lat": "47.8777",
    "lng": "16.3621",
    "arrival": null,
    "departure": "2023-08-23T23:39:00Z"
  },
  {
    "train_number": "90135 ",
    "unit_number": "1116.0157",
    "name": "Wr. Neustadt Hbf (in Nb)",
    "abbr": "Nb  ",
    "lat": "47.8113",
    "lng": "16.2337",
    "arrival": null,
    "departure": "2023-08-23T23:29:00Z"
  },
  {
    "train_number": "90135 ",
    "unit_number": "1116.0157",
    "name": "Wr. Neust.Hbf-Ausf. (in Nb)",
    "abbr": "Nr  ",
    "lat": "47.8113",
    "lng": "16.2337",
    "arrival": "2023-08-23T23:15:00Z",
    "departure": "2023-08-23T23:25:00Z"
  },
  {
    "train_number": "90135 ",
    "unit_number": "1116.0157",
    "name": "Neunkirchen N.Ö.",
    "abbr": "Nek ",
    "lat": "47.731",
    "lng": "16.0826",
    "arrival": "2023-08-23T22:47:00Z",
    "departure": "2023-08-23T23:02:00Z"
  },
  {
    "train_number": "90135 ",
    "unit_number": "1116.0157",
    "name": "Payerbach-Reichenau",
    "abbr": "Pr  ",
    "lat": "47.696",
    "lng": "15.8632",
    "arrival": null,
    "departure": "2023-08-23T22:30:00Z"
  },
  {
    "train_number": "90135 ",
    "unit_number": "1116.0157",
    "name": "Mürzzuschlag (in Mz)",
    "abbr": "Mz  ",
    "lat": "47.6079",
    "lng": "15.677",
    "arrival": null,
    "departure": "2023-08-23T21:54:00Z"
  },
  {
    "train_number": "90135 ",
    "unit_number": "1116.0157",
    "name": "Bruck a.d.Mur-Fbf (in Bm)",
    "abbr": "Bk  ",
    "lat": "47.4134",
    "lng": "15.2797",
    "arrival": "2023-08-23T21:05:00Z",
    "departure": "2023-08-23T21:20:00Z"
  },
  {
    "train_number": "90135 ",
    "unit_number": "1116.0157",
    "name": "Bruck a.d.Mur (in Bm)",
    "abbr": "Bm  ",
    "lat": "47.4134",
    "lng": "15.2797",
    "arrival": null,
    "departure": "2023-08-23T21:04:00Z"
  },
  {
    "train_number": "90135 ",
    "unit_number": "1116.0157",
    "name": "Leoben Hbf (in Leb)",
    "abbr": "Leb ",
    "lat": "47.3867",
    "lng": "15.0898",
    "arrival": null,
    "departure": "2023-08-23T20:52:00Z"
  },
  {
    "train_number": "90135 ",
    "unit_number": "1116.0157",
    "name": "St.Michael (in M)",
    "abbr": "M   ",
    "lat": "47.3445",
    "lng": "15.0103",
    "arrival": null,
    "departure": "2023-08-23T20:46:00Z"
  },
  {
    "train_number": "90135 ",
    "unit_number": "1116.0157",
    "name": "Selzthal (in Sl)",
    "abbr": "Sl  ",
    "lat": "47.5505",
    "lng": "14.3134",
    "arrival": "2023-08-23T18:58:00Z",
    "departure": "2023-08-23T19:58:00Z"
  },
  {
    "train_number": "90135 ",
    "unit_number": "1116.0157",
    "name": "Kirchdorf a.d.Krems",
    "abbr": "Kik ",
    "lat": "47.9051",
    "lng": "14.1167",
    "arrival": null,
    "departure": "2023-08-23T18:07:00Z"
  },
  {
    "train_number": "91903 ",
    "unit_number": "1116.0157",
    "name": "Kirchdorf a.d.Krems",
    "abbr": "Kik ",
    "lat": "47.9051",
    "lng": "14.1167",
    "arrival": null,
    "departure": "2023-08-23T14:42:00Z"
  },
  {
    "train_number": "164   ",
    "unit_number": "1116.0157",
    "name": "Selzthal (in Sl)",
    "abbr": "Sl  ",
    "lat": "47.5505",
    "lng": "14.3134",
    "arrival": "2023-08-23T09:11:00Z",
    "departure": "2023-08-23T12:40:00Z"
  },
  {
    "train_number": "164   ",
    "unit_number": "1116.0157",
    "name": "St.Michael (in M)",
    "abbr": "M   ",
    "lat": "47.3445",
    "lng": "15.0103",
    "arrival": "2023-08-23T08:37:00Z",
    "departure": "2023-08-23T08:38:00Z"
  },
  {
    "train_number": "164   ",
    "unit_number": "1116.0157",
    "name": "Leoben Hbf (in Leb)",
    "abbr": "Leb ",
    "lat": "47.3867",
    "lng": "15.0898",
    "arrival": "2023-08-23T08:29:00Z",
    "departure": "2023-08-23T08:30:00Z"
  },
  {
    "train_number": "164   ",
    "unit_number": "1116.0157",
    "name": "Graz Vbf (in G)",
    "abbr": "Gi  ",
    "lat": "47.0885",
    "lng": "15.4077",
    "arrival": null,
    "departure": "2023-08-23T07:49:00Z"
  },
  {
    "train_number": null,
    "unit_number": "1116.0157",
    "name": "Graz Hbf (in G)",
    "abbr": "G   ",
    "lat": "47.0733",
    "lng": "15.4163",
    "arrival": null,
    "departure": "2023-08-23T07:45:00Z"
  }
]
