[
  {
    "train_number": "48402 ",
    "unit_number": "1116.0016",
    "name": "Salzburg Gnigl-Einfgr. (in Sb)",
    "abbr": "Sre ",
    "lat": "47.8075",
    "lng": "13.0687",
    "arrival": null,
    "departure": "2023-08-23T23:37:00Z"
  },
  {
    "train_number": "48402 ",
    "unit_number": "1116.0016",
    "name": "Bischofshofen (in Bo)",
    "abbr": "Bo  ",
    "lat": "47.42",
    "lng": "13.2199",
    "arrival": null,
    "departure": "2023-08-23T22:58:00Z"
  },
  {
    "train_number": "48402 ",
    "unit_number": "1116.0016",
    "name": "Schwarzach-St.Veit",
    "abbr": "Swa ",
    "lat": "47.3186",
    "lng": "13.1561",
    "arrival": "2023-08-23T22:17:00Z",
    "departure": "2023-08-23T22:44:00Z"
  },
  {
    "train_number": "48402 ",
    "unit_number": "1116.0016",
    "name": "Villach Westbf",
    "abbr": "Vf  ",
    "lat": "46.6186",
    "lng": "13.8484",
    "arrival": "2023-08-23T19:48:00Z",
    "departure": "2023-08-23T19:57:00Z"
  },
  {
    "train_number": "48402 ",
    "unit_number": "1116.0016",
    "name": "Rosenbach",
    "abbr": "Rn  ",
    "lat": "46.5309",
    "lng": "14.0354",
    "arrival": null,
    "departure": "2023-08-23T19:27:00Z"
  },
  {
    "train_number": "48401 ",
    "unit_number": "1116.0016",
    "name": "Rosenbach",
    "abbr": "Rn  ",
    "lat": "46.5309",
    "lng": "14.0354",
    "arrival": null,
    "departure": "2023-08-23T17:30:00Z"
  },
  {
    "train_number": "48401 ",
    "unit_number": "1116.0016",
    "name": "Villach Westbf",
    "abbr": "Vf  ",
    "lat": "46.6186",
    "lng": "13.8484",
    "arrival": "2023-08-23T16:55:00Z",
    "departure": "2023-08-23T17:09:00Z"
  },
  {
    "train_number": "88399 ",
    "unit_number": "1116.0016",
    "name": "Schwarzach-St.Veit",
    "abbr": "Swa ",
    "lat": "47.3186",
    "lng": "13.1561",
    "arrival": "2023-08-23T13:59:00Z",
    "departure": "2023-08-23T14:58:00Z"
  },
  {
    "train_number": "88399 ",
    "unit_number": "1116.0016",
    "name": "Kitzbühel",
    "abbr": "Kzb ",
    "lat": "47.4542",
    "lng": "12.391",
    "arrival": null,
    "departure": "2023-08-23T12:46:00Z"
  },
  {
    "train_number": "88459 ",
    "unit_number": "1116.0016",
    "name": "Wörgl Hbf (in W)",
    "abbr": "W   ",
    "lat": "47.4912",
    "lng": "12.0603",
    "arrival": "2023-08-23T11:39:00Z",
    "departure": "2023-08-23T12:15:00Z"
  },
  {
    "train_number": "88459 ",
    "unit_number": "1116.0016",
    "name": "Wörgl Hbf-T. N. (in W)",
    "abbr": "Wtn ",
    "lat": "47.4824",
    "lng": "12.033",
    "arrival": null,
    "departure": "2023-08-23T11:37:00Z"
  },
  {
    "train_number": "88459 ",
    "unit_number": "1116.0016",
    "name": "Hall in Tirol",
    "abbr": "H   ",
    "lat": "47.2769",
    "lng": "11.5013",
    "arrival": null,
    "departure": "2023-08-23T10:52:00Z"
  },
  {
    "train_number": "421   ",
    "unit_number": "1116.0016",
    "name": "Innsbruck Hbf  (in I)",
    "abbr": "I   ",
    "lat": "47.2634",
    "lng": "11.4017",
    "arrival": "2023-08-23T07:14:00Z",
    "departure": "2023-08-23T10:44:00Z"
  },
  {
    "train_number": "421   ",
    "unit_number": "1116.0016",
    "name": "Hall in Tirol",
    "abbr": "H   ",
    "lat": "47.2769",
    "lng": "11.5013",
    "arrival": null,
    "departure": "2023-08-23T07:07:00Z"
  },
  {
    "train_number": "421   ",
    "unit_number": "1116.0016",
    "name": "Jenbach",
    "abbr": "Jb  ",
    "lat": "47.3884",
    "lng": "11.7783",
    "arrival": "2023-08-23T06:53:00Z",
    "departure": "2023-08-23T06:55:00Z"
  },
  {
    "train_number": "421   ",
    "unit_number": "1116.0016",
    "name": "Wörgl Hbf-T. N. (in W)",
    "abbr": "Wtn ",
    "lat": "47.4824",
    "lng": "12.033",
    "arrival": null,
    "departure": "2023-08-23T06:41:00Z"
  },
  {
    "train_number": "421   ",
    "unit_number": "1116.0016",
    "name": "Wörgl Hbf (in W)",
    "abbr": "W   ",
    "lat": "47.4912",
    "lng": "12.0603",
    "arrival": "2023-08-23T06:37:00Z",
    "departure": "2023-08-23T06:39:00Z"
  },
  {
    "train_number": "421   ",
    "unit_number": "1116.0016",
    "name": "Kufstein",
    "abbr": "K   ",
    "lat": "47.5833",
    "lng": "12.1657",
    "arrival": "2023-08-23T06:26:00Z",
    "departure": "2023-08-23T06:28:00Z"
  },
  {
    "train_number": "421   ",
    "unit_number": "1116.0016",
    "name": "Rosenheim",
    "abbr": "MRO ",
    "lat": "47.8511",
    "lng": "12.1196",
    "arrival": "2023-08-23T06:02:00Z",
    "departure": "2023-08-23T06:02:00Z"
  },
  {
    "train_number": "421   ",
    "unit_number": "1116.0016",
    "name": "München Laim Rbf",
    "abbr": "MLR ",
    "lat": "48.1454",
    "lng": "11.5032",
    "arrival": null,
    "departure": "2023-08-23T05:11:00Z"
  }
]
