[
  {
    "train_number": "67    ",
    "unit_number": "1116.0231",
    "name": "Freilassing",
    "abbr": "MFL ",
    "lat": "47.8368",
    "lng": "12.9764",
    "arrival": "2023-10-08T12:51:00Z",
    "departure": "2023-10-08T12:52:00Z"
  },
  {
    "train_number": "67    ",
    "unit_number": "1116.0231",
    "name": "Traunstein",
    "abbr": "MTS ",
    "lat": "47.8697",
    "lng": "12.6391",
    "arrival": null,
    "departure": "2023-10-08T12:35:00Z"
  },
  {
    "train_number": "67    ",
    "unit_number": "1116.0231",
    "name": "Rosenheim",
    "abbr": "MRO ",
    "lat": "47.8511",
    "lng": "12.1196",
    "arrival": null,
    "departure": "2023-10-08T12:05:00Z"
  },
  {
    "train_number": "262   ",
    "unit_number": "1116.0231",
    "name": "München Hauptbahnhof",
    "abbr": "MH  ",
    "lat": "48.1399",
    "lng": "11.5604",
    "arrival": "2023-10-08T10:30:00Z",
    "departure": "2023-10-08T11:30:00Z"
  },
  {
    "train_number": "262   ",
    "unit_number": "1116.0231",
    "name": "Rosenheim",
    "abbr": "MRO ",
    "lat": "47.8511",
    "lng": "12.1196",
    "arrival": null,
    "departure": "2023-10-08T09:52:00Z"
  },
  {
    "train_number": "262   ",
    "unit_number": "1116.0231",
    "name": "Traunstein",
    "abbr": "MTS ",
    "lat": "47.8697",
    "lng": "12.6391",
    "arrival": null,
    "departure": "2023-10-08T09:21:00Z"
  },
  {
    "train_number": "262   ",
    "unit_number": "1116.0231",
    "name": "Freilassing",
    "abbr": "MFL ",
    "lat": "47.8368",
    "lng": "12.9764",
    "arrival": "2023-10-08T09:06:00Z",
    "departure": "2023-10-08T09:07:00Z"
  },
  {
    "train_number": "262   ",
    "unit_number": "1116.0231",
    "name": "Salzburg Liefering (in Sb)",
    "abbr": "Lfg ",
    "lat": "47.8229",
    "lng": "13.0021",
    "arrival": null,
    "departure": "2023-10-08T09:04:00Z"
  },
  {
    "train_number": "262   ",
    "unit_number": "1116.0231",
    "name": "Salzburg Hbf (in Sb)",
    "abbr": "Sb  ",
    "lat": "47.8135",
    "lng": "13.0466",
    "arrival": "2023-10-08T08:53:00Z",
    "departure": "2023-10-08T09:00:00Z"
  },
  {
    "train_number": "262   ",
    "unit_number": "1116.0231",
    "name": "Steindorf b.Straßw. (in Nst)",
    "abbr": "Nst ",
    "lat": "47.9676",
    "lng": "13.2406",
    "arrival": null,
    "departure": "2023-10-08T08:34:00Z"
  },
  {
    "train_number": "262   ",
    "unit_number": "1116.0231",
    "name": "Attnang-Puchheim",
    "abbr": "At  ",
    "lat": "48.0112",
    "lng": "13.7193",
    "arrival": null,
    "departure": "2023-10-08T08:11:00Z"
  },
  {
    "train_number": "262   ",
    "unit_number": "1116.0231",
    "name": "Wels Hbf",
    "abbr": "We  ",
    "lat": "48.1662",
    "lng": "14.0273",
    "arrival": null,
    "departure": "2023-10-08T07:58:00Z"
  },
  {
    "train_number": "262   ",
    "unit_number": "1116.0231",
    "name": "Linz Hbf",
    "abbr": "Lz  ",
    "lat": "48.2908",
    "lng": "14.2927",
    "arrival": "2023-10-08T07:43:00Z",
    "departure": "2023-10-08T07:45:00Z"
  },
  {
    "train_number": "262   ",
    "unit_number": "1116.0231",
    "name": "St.Valentin (in Sv)",
    "abbr": "Sv  ",
    "lat": "48.1784",
    "lng": "14.5219",
    "arrival": null,
    "departure": "2023-10-08T07:31:00Z"
  },
  {
    "train_number": "262   ",
    "unit_number": "1116.0231",
    "name": "Amstetten (in Ams)",
    "abbr": "Ams ",
    "lat": "48.1215",
    "lng": "14.8792",
    "arrival": null,
    "departure": "2023-10-08T07:19:00Z"
  },
  {
    "train_number": "262   ",
    "unit_number": "1116.0231",
    "name": "Ybbs a.d.Donau",
    "abbr": "Y   ",
    "lat": "48.158",
    "lng": "15.0981",
    "arrival": null,
    "departure": "2023-10-08T07:14:00Z"
  },
  {
    "train_number": "262   ",
    "unit_number": "1116.0231",
    "name": "Pöchlarn",
    "abbr": "Poe ",
    "lat": "48.208",
    "lng": "15.2148",
    "arrival": null,
    "departure": "2023-10-08T07:10:00Z"
  },
  {
    "train_number": "262   ",
    "unit_number": "1116.0231",
    "name": "St.Pölten Hbf (in Pb)",
    "abbr": "Pb  ",
    "lat": "48.2081",
    "lng": "15.6237",
    "arrival": "2023-10-08T06:57:00Z",
    "departure": "2023-10-08T06:59:00Z"
  },
  {
    "train_number": "262   ",
    "unit_number": "1116.0231",
    "name": "Wien Meidling (in Wbf)",
    "abbr": "Mi  ",
    "lat": "48.1747",
    "lng": "16.3348",
    "arrival": "2023-10-08T06:33:00Z",
    "departure": "2023-10-08T06:35:00Z"
  },
  {
    "train_number": "265   ",
    "unit_number": "1116.0231",
    "name": "Wien Hauptbahnhof (in Wbf)",
    "abbr": "Wbf ",
    "lat": "48.185",
    "lng": "16.3778",
    "arrival": "2023-10-07T08:32:00Z",
    "departure": "2023-10-08T06:28:00Z"
  }
]
