[
  {
    "train_number": "265   ",
    "unit_number": "1116.0153",
    "name": "Wien Meidling (in Wbf)",
    "abbr": "Mi  ",
    "lat": "48.1747",
    "lng": "16.3348",
    "arrival": "2023-10-31T09:25:00Z",
    "departure": "2023-10-31T09:27:00Z"
  },
  {
    "train_number": "265   ",
    "unit_number": "1116.0153",
    "name": "St.Pölten Hbf (in Pb)",
    "abbr": "Pb  ",
    "lat": "48.2081",
    "lng": "15.6237",
    "arrival": "2023-10-31T09:01:00Z",
    "departure": "2023-10-31T09:03:00Z"
  },
  {
    "train_number": "265   ",
    "unit_number": "1116.0153",
    "name": "Pöchlarn",
    "abbr": "Poe ",
    "lat": "48.208",
    "lng": "15.2148",
    "arrival": null,
    "departure": "2023-10-31T08:49:00Z"
  },
  {
    "train_number": "265   ",
    "unit_number": "1116.0153",
    "name": "Ybbs a.d.Donau",
    "abbr": "Y   ",
    "lat": "48.158",
    "lng": "15.0981",
    "arrival": null,
    "departure": "2023-10-31T08:45:00Z"
  },
  {
    "train_number": "265   ",
    "unit_number": "1116.0153",
    "name": "Amstetten (in Ams)",
    "abbr": "Ams ",
    "lat": "48.1215",
    "lng": "14.8792",
    "arrival": null,
    "departure": "2023-10-31T08:40:00Z"
  },
  {
    "train_number": "265   ",
    "unit_number": "1116.0153",
    "name": "St.Valentin (in Sv)",
    "abbr": "Sv  ",
    "lat": "48.1784",
    "lng": "14.5219",
    "arrival": null,
    "departure": "2023-10-31T08:28:00Z"
  },
  {
    "train_number": "265   ",
    "unit_number": "1116.0153",
    "name": "Linz Hbf",
    "abbr": "Lz  ",
    "lat": "48.2908",
    "lng": "14.2927",
    "arrival": "2023-10-31T08:15:00Z",
    "departure": "2023-10-31T08:17:00Z"
  },
  {
    "train_number": "265   ",
    "unit_number": "1116.0153",
    "name": "Wels Hbf",
    "abbr": "We  ",
    "lat": "48.1662",
    "lng": "14.0273",
    "arrival": null,
    "departure": "2023-10-31T08:00:00Z"
  },
  {
    "train_number": "265   ",
    "unit_number": "1116.0153",
    "name": "Attnang-Puchheim",
    "abbr": "At  ",
    "lat": "48.0112",
    "lng": "13.7193",
    "arrival": null,
    "departure": "2023-10-31T07:48:00Z"
  },
  {
    "train_number": "265   ",
    "unit_number": "1116.0153",
    "name": "Steindorf b.Straßw. (in Nst)",
    "abbr": "Nst ",
    "lat": "47.9676",
    "lng": "13.2406",
    "arrival": null,
    "departure": "2023-10-31T07:23:00Z"
  },
  {
    "train_number": "763   ",
    "unit_number": "1116.0153",
    "name": "Salzburg Hbf (in Sb)",
    "abbr": "Sb  ",
    "lat": "47.8135",
    "lng": "13.0466",
    "arrival": "2023-10-31T07:00:00Z",
    "departure": "2023-10-31T07:07:00Z"
  },
  {
    "train_number": "763   ",
    "unit_number": "1116.0153",
    "name": "Salzburg Gnigl-Einfgr. (in Sb)",
    "abbr": "Sre ",
    "lat": "47.8075",
    "lng": "13.0687",
    "arrival": null,
    "departure": "2023-10-31T06:55:00Z"
  },
  {
    "train_number": "763   ",
    "unit_number": "1116.0153",
    "name": "Bischofshofen (in Bo)",
    "abbr": "Bo  ",
    "lat": "47.42",
    "lng": "13.2199",
    "arrival": null,
    "departure": "2023-10-31T06:21:00Z"
  },
  {
    "train_number": "763   ",
    "unit_number": "1116.0153",
    "name": "Schwarzach-St.Veit",
    "abbr": "Swa ",
    "lat": "47.3186",
    "lng": "13.1561",
    "arrival": null,
    "departure": "2023-10-31T06:10:00Z"
  },
  {
    "train_number": "763   ",
    "unit_number": "1116.0153",
    "name": "Kitzbühel",
    "abbr": "Kzb ",
    "lat": "47.4542",
    "lng": "12.391",
    "arrival": null,
    "departure": "2023-10-31T04:58:00Z"
  },
  {
    "train_number": "763   ",
    "unit_number": "1116.0153",
    "name": "Wörgl Hbf (in W)",
    "abbr": "W   ",
    "lat": "47.4912",
    "lng": "12.0603",
    "arrival": "2023-10-31T04:28:00Z",
    "departure": "2023-10-31T04:30:00Z"
  },
  {
    "train_number": "763   ",
    "unit_number": "1116.0153",
    "name": "Wörgl Hbf-T. N. (in W)",
    "abbr": "Wtn ",
    "lat": "47.4824",
    "lng": "12.033",
    "arrival": null,
    "departure": "2023-10-31T04:27:00Z"
  },
  {
    "train_number": "763   ",
    "unit_number": "1116.0153",
    "name": "Jenbach",
    "abbr": "Jb  ",
    "lat": "47.3884",
    "lng": "11.7783",
    "arrival": "2023-10-31T04:15:00Z",
    "departure": "2023-10-31T04:17:00Z"
  },
  {
    "train_number": "763   ",
    "unit_number": "1116.0153",
    "name": "Hall in Tirol",
    "abbr": "H   ",
    "lat": "47.2769",
    "lng": "11.5013",
    "arrival": null,
    "departure": "2023-10-31T04:06:00Z"
  },
  {
    "train_number": "868   ",
    "unit_number": "1116.0153",
    "name": "Innsbruck Hbf  (in I)",
    "abbr": "I   ",
    "lat": "47.2634",
    "lng": "11.4017",
    "arrival": "2023-10-30T23:01:00Z",
    "departure": "2023-10-31T04:00:00Z"
  }
]
