[
  {
    "train_number": "45904 ",
    "unit_number": "1116.0157",
    "name": "Passau Gbf",
    "abbr": "Pag ",
    "lat": "48.5729",
    "lng": "13.4342",
    "arrival": "2023-09-12T08:01:00Z",
    "departure": "2023-09-12T08:32:00Z"
  },
  {
    "train_number": "45904 ",
    "unit_number": "1116.0157",
    "name": "Schärding (in Sch)",
    "abbr": "Sch ",
    "lat": "48.4638",
    "lng": "13.4424",
    "arrival": null,
    "departure": "2023-09-12T07:42:00Z"
  },
  {
    "train_number": "45904 ",
    "unit_number": "1116.0157",
    "name": "Neumarkt-Kallham (in Neu)",
    "abbr": "Neu ",
    "lat": "48.2714",
    "lng": "13.7245",
    "arrival": null,
    "departure": "2023-09-12T07:14:00Z"
  },
  {
    "train_number": "45904 ",
    "unit_number": "1116.0157",
    "name": "Wels Hbf",
    "abbr": "We  ",
    "lat": "48.1662",
    "lng": "14.0273",
    "arrival": null,
    "departure": "2023-09-12T06:51:00Z"
  },
  {
    "train_number": "45904 ",
    "unit_number": "1116.0157",
    "name": "Linz Hbf",
    "abbr": "Lz  ",
    "lat": "48.2908",
    "lng": "14.2927",
    "arrival": null,
    "departure": "2023-09-12T06:33:00Z"
  },
  {
    "train_number": "45904 ",
    "unit_number": "1116.0157",
    "name": "Linz Vbf-West (in Lzv)",
    "abbr": "Lr  ",
    "lat": "48.2607",
    "lng": "14.2927",
    "arrival": "2023-09-12T06:21:00Z",
    "departure": "2023-09-12T06:24:00Z"
  },
  {
    "train_number": "45904 ",
    "unit_number": "1116.0157",
    "name": "Enns",
    "abbr": "Ens ",
    "lat": "48.2212",
    "lng": "14.4668",
    "arrival": null,
    "departure": "2023-09-12T05:13:00Z"
  },
  {
    "train_number": "45904 ",
    "unit_number": "1116.0157",
    "name": "St.Valentin (in Sv)",
    "abbr": "Sv  ",
    "lat": "48.1784",
    "lng": "14.5219",
    "arrival": null,
    "departure": "2023-09-12T05:07:00Z"
  },
  {
    "train_number": "45904 ",
    "unit_number": "1116.0157",
    "name": "Amstetten (in Ams)",
    "abbr": "Ams ",
    "lat": "48.1215",
    "lng": "14.8792",
    "arrival": null,
    "departure": "2023-09-12T04:40:00Z"
  },
  {
    "train_number": "45904 ",
    "unit_number": "1116.0157",
    "name": "Ybbs a.d.Donau",
    "abbr": "Y   ",
    "lat": "48.158",
    "lng": "15.0981",
    "arrival": null,
    "departure": "2023-09-12T04:24:00Z"
  },
  {
    "train_number": "45904 ",
    "unit_number": "1116.0157",
    "name": "Pöchlarn",
    "abbr": "Poe ",
    "lat": "48.208",
    "lng": "15.2148",
    "arrival": null,
    "departure": "2023-09-12T04:13:00Z"
  },
  {
    "train_number": null,
    "unit_number": "1116.0157",
    "name": "Wien Zvbf (in Zur)",
    "abbr": "Zur ",
    "lat": "48.1453",
    "lng": "16.43",
    "arrival": null,
    "departure": "2023-09-12T02:42:00Z"
  }
]
