[
  {
    "train_number": "54408 ",
    "unit_number": "1116.0016",
    "name": "Schwarzach-St.Veit",
    "abbr": "Swa ",
    "lat": "47.3186",
    "lng": "13.1561",
    "arrival": "2023-08-18T02:28:00Z",
    "departure": "2023-08-18T02:46:00Z"
  },
  {
    "train_number": "54408 ",
    "unit_number": "1116.0016",
    "name": "Bischofshofen (in Bo)",
    "abbr": "Bo  ",
    "lat": "47.42",
    "lng": "13.2199",
    "arrival": null,
    "departure": "2023-08-18T02:15:00Z"
  },
  {
    "train_number": "54408 ",
    "unit_number": "1116.0016",
    "name": "Salzburg Gnigl-Vbf (in Sb)",
    "abbr": "Sr  ",
    "lat": "47.8075",
    "lng": "13.0021",
    "arrival": "2023-08-18T00:48:00Z",
    "departure": "2023-08-18T01:34:00Z"
  },
  {
    "train_number": "54408 ",
    "unit_number": "1116.0016",
    "name": "Salzburg Gnigl-Einfgr. (in Sb)",
    "abbr": "Sre ",
    "lat": "47.8075",
    "lng": "13.0687",
    "arrival": null,
    "departure": "2023-08-18T01:34:00Z"
  },
  {
    "train_number": "54408 ",
    "unit_number": "1116.0016",
    "name": "Steindorf b.Straßw. (in Nst)",
    "abbr": "Nst ",
    "lat": "47.9676",
    "lng": "13.2406",
    "arrival": null,
    "departure": "2023-08-18T00:28:00Z"
  },
  {
    "train_number": "54408 ",
    "unit_number": "1116.0016",
    "name": "Attnang-Puchheim",
    "abbr": "At  ",
    "lat": "48.0112",
    "lng": "13.7193",
    "arrival": null,
    "departure": "2023-08-17T23:54:00Z"
  },
  {
    "train_number": "54408 ",
    "unit_number": "1116.0016",
    "name": "Wels Hbf",
    "abbr": "We  ",
    "lat": "48.1662",
    "lng": "14.0273",
    "arrival": null,
    "departure": "2023-08-17T23:30:00Z"
  },
  {
    "train_number": "54408 ",
    "unit_number": "1116.0016",
    "name": "Linz Hbf",
    "abbr": "Lz  ",
    "lat": "48.2908",
    "lng": "14.2927",
    "arrival": "2023-08-17T23:08:00Z",
    "departure": "2023-08-17T23:12:00Z"
  },
  {
    "train_number": "54408 ",
    "unit_number": "1116.0016",
    "name": "St.Valentin (in Sv)",
    "abbr": "Sv  ",
    "lat": "48.1784",
    "lng": "14.5219",
    "arrival": null,
    "departure": "2023-08-17T22:50:00Z"
  },
  {
    "train_number": "54408 ",
    "unit_number": "1116.0016",
    "name": "Amstetten (in Ams)",
    "abbr": "Ams ",
    "lat": "48.1215",
    "lng": "14.8792",
    "arrival": null,
    "departure": "2023-08-17T22:23:00Z"
  },
  {
    "train_number": "54408 ",
    "unit_number": "1116.0016",
    "name": "Ybbs a.d.Donau",
    "abbr": "Y   ",
    "lat": "48.158",
    "lng": "15.0981",
    "arrival": null,
    "departure": "2023-08-17T22:11:00Z"
  },
  {
    "train_number": "54408 ",
    "unit_number": "1116.0016",
    "name": "Pöchlarn",
    "abbr": "Poe ",
    "lat": "48.208",
    "lng": "15.2148",
    "arrival": "2023-08-17T22:02:00Z",
    "departure": "2023-08-17T22:02:00Z"
  },
  {
    "train_number": null,
    "unit_number": "1116.0016",
    "name": "Wien Zvbf (in Zur)",
    "abbr": "Zur ",
    "lat": "48.1453",
    "lng": "16.43",
    "arrival": null,
    "departure": "2023-08-17T20:11:00Z"
  },
  {
    "train_number": "68306 ",
    "unit_number": "1116.0016",
    "name": "Wien Zvbf (in Zur)",
    "abbr": "Zur ",
    "lat": "48.1453",
    "lng": "16.43",
    "arrival": null,
    "departure": "2023-08-17T19:04:00Z"
  },
  {
    "train_number": "52000 ",
    "unit_number": "1116.0016",
    "name": "Herzogenburg (in Ho)",
    "abbr": "Ho  ",
    "lat": "48.2759",
    "lng": "15.6966",
    "arrival": "2023-08-17T07:59:00Z",
    "departure": "2023-08-17T15:02:00Z"
  },
  {
    "train_number": "18442 ",
    "unit_number": "1116.0016",
    "name": "Wien Zvbf (in Zur)",
    "abbr": "Zur ",
    "lat": "48.1453",
    "lng": "16.43",
    "arrival": "2023-08-16T18:55:00Z",
    "departure": "2023-08-17T04:22:00Z"
  }
]
