[
  {
    "train_number": "539   ",
    "unit_number": "1116.0249",
    "name": "Payerbach-Reichenau",
    "abbr": "Pr  ",
    "lat": "47.696",
    "lng": "15.8632",
    "arrival": null,
    "departure": "2023-09-25T13:12:00Z"
  },
  {
    "train_number": "539   ",
    "unit_number": "1116.0249",
    "name": "Neunkirchen N.Ö.",
    "abbr": "Nek ",
    "lat": "47.731",
    "lng": "16.0826",
    "arrival": null,
    "departure": "2023-09-25T13:01:00Z"
  },
  {
    "train_number": "539   ",
    "unit_number": "1116.0249",
    "name": "Wr. Neustadt Hbf (in Nb)",
    "abbr": "Nb  ",
    "lat": "47.8113",
    "lng": "16.2337",
    "arrival": "2023-09-25T12:50:00Z",
    "departure": "2023-09-25T12:52:00Z"
  },
  {
    "train_number": "539   ",
    "unit_number": "1116.0249",
    "name": "Leobersdorf",
    "abbr": "Lb  ",
    "lat": "47.9375",
    "lng": "16.2313",
    "arrival": null,
    "departure": "2023-09-25T12:43:00Z"
  },
  {
    "train_number": "539   ",
    "unit_number": "1116.0249",
    "name": "Mödling",
    "abbr": "Md  ",
    "lat": "48.0858",
    "lng": "16.2958",
    "arrival": null,
    "departure": "2023-09-25T12:34:00Z"
  },
  {
    "train_number": "539   ",
    "unit_number": "1116.0249",
    "name": "Wien Meidling (in Wbf)",
    "abbr": "Mi  ",
    "lat": "48.1747",
    "lng": "16.3348",
    "arrival": "2023-09-25T12:23:00Z",
    "departure": "2023-09-25T12:25:00Z"
  },
  {
    "train_number": "534   ",
    "unit_number": "1116.0249",
    "name": "Wien Hauptbahnhof (in Wbf)",
    "abbr": "Wbf ",
    "lat": "48.1747",
    "lng": "16.3348",
    "arrival": "2023-09-25T11:42:00Z",
    "departure": "2023-09-25T12:18:00Z"
  },
  {
    "train_number": "534   ",
    "unit_number": "1116.0249",
    "name": "Wien Meidling (in Wbf)",
    "abbr": "Mi  ",
    "lat": "48.1747",
    "lng": "16.3348",
    "arrival": "2023-09-25T11:35:00Z",
    "departure": "2023-09-25T11:37:00Z"
  },
  {
    "train_number": "534   ",
    "unit_number": "1116.0249",
    "name": "Mödling",
    "abbr": "Md  ",
    "lat": "48.0858",
    "lng": "16.2958",
    "arrival": null,
    "departure": "2023-09-25T11:25:00Z"
  },
  {
    "train_number": "534   ",
    "unit_number": "1116.0249",
    "name": "Leobersdorf",
    "abbr": "Lb  ",
    "lat": "47.9375",
    "lng": "16.2313",
    "arrival": null,
    "departure": "2023-09-25T11:15:00Z"
  },
  {
    "train_number": "534   ",
    "unit_number": "1116.0249",
    "name": "Wr. Neustadt Hbf (in Nb)",
    "abbr": "Nb  ",
    "lat": "47.8113",
    "lng": "16.2337",
    "arrival": "2023-09-25T11:06:00Z",
    "departure": "2023-09-25T11:08:00Z"
  },
  {
    "train_number": "534   ",
    "unit_number": "1116.0249",
    "name": "Neunkirchen N.Ö.",
    "abbr": "Nek ",
    "lat": "47.731",
    "lng": "16.0826",
    "arrival": null,
    "departure": "2023-09-25T10:58:00Z"
  },
  {
    "train_number": "534   ",
    "unit_number": "1116.0249",
    "name": "Payerbach-Reichenau",
    "abbr": "Pr  ",
    "lat": "47.696",
    "lng": "15.8632",
    "arrival": null,
    "departure": "2023-09-25T10:47:00Z"
  },
  {
    "train_number": "534   ",
    "unit_number": "1116.0249",
    "name": "Mürzzuschlag (in Mz)",
    "abbr": "Mz  ",
    "lat": "47.6079",
    "lng": "15.677",
    "arrival": null,
    "departure": "2023-09-25T10:11:00Z"
  },
  {
    "train_number": "534   ",
    "unit_number": "1116.0249",
    "name": "Bruck a.d.Mur (in Bm)",
    "abbr": "Bm  ",
    "lat": "47.4134",
    "lng": "15.2797",
    "arrival": null,
    "departure": "2023-09-25T09:46:00Z"
  },
  {
    "train_number": "534   ",
    "unit_number": "1116.0249",
    "name": "Leoben Hbf (in Leb)",
    "abbr": "Leb ",
    "lat": "47.3867",
    "lng": "15.0898",
    "arrival": "2023-09-25T09:36:00Z",
    "departure": "2023-09-25T09:37:00Z"
  },
  {
    "train_number": "534   ",
    "unit_number": "1116.0249",
    "name": "Zeltweg",
    "abbr": "Zg  ",
    "lat": "47.1887",
    "lng": "14.7425",
    "arrival": null,
    "departure": "2023-09-25T09:12:00Z"
  },
  {
    "train_number": "534   ",
    "unit_number": "1116.0249",
    "name": "St.Veit a.d.Glan (in Vps)",
    "abbr": "Vps ",
    "lat": "46.7704",
    "lng": "14.3672",
    "arrival": "2023-09-25T07:51:00Z",
    "departure": "2023-09-25T07:53:00Z"
  },
  {
    "train_number": "534   ",
    "unit_number": "1116.0249",
    "name": "Klagenfurt Hbf (in Kt)",
    "abbr": "Kt  ",
    "lat": "46.6156",
    "lng": "14.3137",
    "arrival": "2023-09-25T07:37:00Z",
    "departure": "2023-09-25T07:39:00Z"
  },
  {
    "train_number": "534   ",
    "unit_number": "1116.0249",
    "name": "Villach Hbf",
    "abbr": "Vb  ",
    "lat": "46.6186",
    "lng": "13.8484",
    "arrival": "2023-09-25T07:09:00Z",
    "departure": "2023-09-25T07:14:00Z"
  }
]
