[
  {
    "train_number": "57703 ",
    "unit_number": "1116.0157",
    "name": "Neunkirchen N.Ö.",
    "abbr": "Nek ",
    "lat": "47.731",
    "lng": "16.0826",
    "arrival": null,
    "departure": "2023-08-22T03:05:00Z"
  },
  {
    "train_number": "57703 ",
    "unit_number": "1116.0157",
    "name": "Wr. Neustadt Hbf (in Nb)",
    "abbr": "Nb  ",
    "lat": "47.8113",
    "lng": "16.2337",
    "arrival": null,
    "departure": "2023-08-22T02:55:00Z"
  },
  {
    "train_number": "57703 ",
    "unit_number": "1116.0157",
    "name": "Leobersdorf",
    "abbr": "Lb  ",
    "lat": "47.9375",
    "lng": "16.2313",
    "arrival": null,
    "departure": "2023-08-22T02:46:00Z"
  },
  {
    "train_number": "57703 ",
    "unit_number": "1116.0157",
    "name": "Mödling",
    "abbr": "Md  ",
    "lat": "48.0858",
    "lng": "16.2958",
    "arrival": null,
    "departure": "2023-08-22T02:25:00Z"
  },
  {
    "train_number": "57703 ",
    "unit_number": "1116.0157",
    "name": "Wien Meidling (in Wbf)",
    "abbr": "Mi  ",
    "lat": "48.1747",
    "lng": "16.3348",
    "arrival": null,
    "departure": "2023-08-22T02:16:00Z"
  },
  {
    "train_number": null,
    "unit_number": "1116.0157",
    "name": "Wien Zvbf (in Zur)",
    "abbr": "Zur ",
    "lat": "48.1453",
    "lng": "16.43",
    "arrival": null,
    "departure": "2023-08-21T23:59:00Z"
  },
  {
    "train_number": "63025 ",
    "unit_number": "1116.0157",
    "name": "Tulln a. d. Donau (in Tu)",
    "abbr": "Tu  ",
    "lat": "48.3275",
    "lng": "16.0644",
    "arrival": null,
    "departure": "2023-08-21T18:51:00Z"
  },
  {
    "train_number": "97185 ",
    "unit_number": "1116.0157",
    "name": "Tulln a. d. Donau (in Tu)",
    "abbr": "Tu  ",
    "lat": "48.3275",
    "lng": "16.0644",
    "arrival": "2023-08-21T11:10:00Z",
    "departure": "2023-08-21T12:00:00Z"
  },
  {
    "train_number": "Em160 ",
    "unit_number": "1116.0157",
    "name": "Tulln a. d. Donau (in Tu)",
    "abbr": "Tu  ",
    "lat": "48.3275",
    "lng": "16.0644",
    "arrival": "2023-08-21T06:19:00Z",
    "departure": "2023-08-21T06:20:00Z"
  }
]
