[
  {
    "train_number": "57052 ",
    "unit_number": "1116.0016",
    "name": "Payerbach-Reichenau",
    "abbr": "Pr  ",
    "lat": "47.696",
    "lng": "15.8632",
    "arrival": null,
    "departure": "2023-08-18T21:43:00Z"
  },
  {
    "train_number": "57052 ",
    "unit_number": "1116.0016",
    "name": "M端rzzuschlag (in Mz)",
    "abbr": "Mz  ",
    "lat": "47.6079",
    "lng": "15.677",
    "arrival": null,
    "departure": "2023-08-18T21:05:00Z"
  },
  {
    "train_number": "57052 ",
    "unit_number": "1116.0016",
    "name": "Bruck a.d.Mur (in Bm)",
    "abbr": "Bm  ",
    "lat": "47.4134",
    "lng": "15.2797",
    "arrival": null,
    "departure": "2023-08-18T20:14:00Z"
  },
  {
    "train_number": "57052 ",
    "unit_number": "1116.0016",
    "name": "Leoben Hbf (in Leb)",
    "abbr": "Leb ",
    "lat": "47.3867",
    "lng": "15.0898",
    "arrival": null,
    "departure": "2023-08-18T20:01:00Z"
  },
  {
    "train_number": "57052 ",
    "unit_number": "1116.0016",
    "name": "Zeltweg",
    "abbr": "Zg  ",
    "lat": "47.1887",
    "lng": "14.7425",
    "arrival": null,
    "departure": "2023-08-18T19:33:00Z"
  },
  {
    "train_number": "57052 ",
    "unit_number": "1116.0016",
    "name": "St.Veit a.d.Glan (in Vps)",
    "abbr": "Vps ",
    "lat": "46.7704",
    "lng": "14.3672",
    "arrival": null,
    "departure": "2023-08-18T17:59:00Z"
  },
  {
    "train_number": "57052 ",
    "unit_number": "1116.0016",
    "name": "Klagenfurt Hbf (in Kt)",
    "abbr": "Kt  ",
    "lat": "46.6156",
    "lng": "14.3137",
    "arrival": null,
    "departure": "2023-08-18T17:33:00Z"
  },
  {
    "train_number": "57052 ",
    "unit_number": "1116.0016",
    "name": "Villach Hbf",
    "abbr": "Vb  ",
    "lat": "46.6186",
    "lng": "13.8484",
    "arrival": "2023-08-18T17:05:00Z",
    "departure": "2023-08-18T17:05:00Z"
  },
  {
    "train_number": "47258 ",
    "unit_number": "1116.0016",
    "name": "Villach Westbf",
    "abbr": "Vf  ",
    "lat": "46.6186",
    "lng": "13.8484",
    "arrival": "2023-08-18T15:42:00Z",
    "departure": "2023-08-18T17:01:00Z"
  },
  {
    "train_number": "89875 ",
    "unit_number": "1116.0016",
    "name": "Tarvisio Boscoverde",
    "abbr": "Tbv ",
    "lat": "46.5059",
    "lng": "13.6081",
    "arrival": "2023-08-18T14:34:00Z",
    "departure": "2023-08-18T15:20:00Z"
  },
  {
    "train_number": null,
    "unit_number": "1116.0016",
    "name": "Villach S端d Gvbf Ausfgr",
    "abbr": "Va  ",
    "lat": "46.5674",
    "lng": "13.8238",
    "arrival": null,
    "departure": "2023-08-18T14:15:00Z"
  },
  {
    "train_number": "45233 ",
    "unit_number": "1116.0016",
    "name": "Tarvisio Boscoverde",
    "abbr": "Tbv ",
    "lat": "46.5059",
    "lng": "13.6081",
    "arrival": "2023-08-18T08:55:00Z",
    "departure": "2023-08-18T09:02:00Z"
  },
  {
    "train_number": null,
    "unit_number": "1116.0016",
    "name": "Villach S端d Gvbf Ausfgr",
    "abbr": "Va  ",
    "lat": "46.5674",
    "lng": "13.8238",
    "arrival": null,
    "departure": "2023-08-18T08:33:00Z"
  },
  {
    "train_number": "54509 ",
    "unit_number": "1116.0016",
    "name": "Villach Hbf",
    "abbr": "Vb  ",
    "lat": "46.6186",
    "lng": "13.8484",
    "arrival": null,
    "departure": "2023-08-18T07:00:00Z"
  },
  {
    "train_number": "54509 ",
    "unit_number": "1116.0016",
    "name": "Klagenfurt Hbf (in Kt)",
    "abbr": "Kt  ",
    "lat": "46.6156",
    "lng": "14.3137",
    "arrival": null,
    "departure": "2023-08-18T06:25:00Z"
  },
  {
    "train_number": "54509 ",
    "unit_number": "1116.0016",
    "name": "St.Veit a.d.Glan (in Vps)",
    "abbr": "Vps ",
    "lat": "46.7704",
    "lng": "14.3672",
    "arrival": null,
    "departure": "2023-08-18T05:46:00Z"
  },
  {
    "train_number": "54509 ",
    "unit_number": "1116.0016",
    "name": "Zeltweg",
    "abbr": "Zg  ",
    "lat": "47.1887",
    "lng": "14.7425",
    "arrival": null,
    "departure": "2023-08-18T04:20:00Z"
  },
  {
    "train_number": "54509 ",
    "unit_number": "1116.0016",
    "name": "Leoben Hbf (in Leb)",
    "abbr": "Leb ",
    "lat": "47.3867",
    "lng": "15.0898",
    "arrival": null,
    "departure": "2023-08-18T03:33:00Z"
  },
  {
    "train_number": "54509 ",
    "unit_number": "1116.0016",
    "name": "Bruck a.d.Mur (in Bm)",
    "abbr": "Bm  ",
    "lat": "47.4134",
    "lng": "15.2797",
    "arrival": null,
    "departure": "2023-08-18T03:15:00Z"
  },
  {
    "train_number": "54509 ",
    "unit_number": "1116.0016",
    "name": "M端rzzuschlag (in Mz)",
    "abbr": "Mz  ",
    "lat": "47.6079",
    "lng": "15.677",
    "arrival": null,
    "departure": "2023-08-18T02:41:00Z"
  }
]
