[
  {
    "train_number": "2335  ",
    "unit_number": "1116.0157",
    "name": "Leobersdorf",
    "abbr": "Lb  ",
    "lat": "47.9375",
    "lng": "16.2313",
    "arrival": "2023-10-05T11:35:00Z",
    "departure": "2023-10-05T11:35:00Z"
  },
  {
    "train_number": "2335  ",
    "unit_number": "1116.0157",
    "name": "Mödling",
    "abbr": "Md  ",
    "lat": "48.0858",
    "lng": "16.2958",
    "arrival": "2023-10-05T11:18:00Z",
    "departure": "2023-10-05T11:19:00Z"
  },
  {
    "train_number": "2335  ",
    "unit_number": "1116.0157",
    "name": "Wien Meidling (in Wbf)",
    "abbr": "Mi  ",
    "lat": "48.1747",
    "lng": "16.3348",
    "arrival": "2023-10-05T11:04:00Z",
    "departure": "2023-10-05T11:07:00Z"
  },
  {
    "train_number": "2335  ",
    "unit_number": "1116.0157",
    "name": "Floridsdorf (in F)",
    "abbr": "F   ",
    "lat": "48.2568",
    "lng": "16.4004",
    "arrival": "2023-10-05T10:38:00Z",
    "departure": "2023-10-05T10:39:00Z"
  },
  {
    "train_number": "2335  ",
    "unit_number": "1116.0157",
    "name": "Gänserndorf",
    "abbr": "Gae ",
    "lat": "48.3401",
    "lng": "16.7324",
    "arrival": "2023-10-05T10:14:00Z",
    "departure": "2023-10-05T10:15:00Z"
  },
  {
    "train_number": "2335  ",
    "unit_number": "1116.0157",
    "name": "Hohenau",
    "abbr": "Nh  ",
    "lat": "48.5981",
    "lng": "16.9008",
    "arrival": "2023-10-05T09:42:00Z",
    "departure": "2023-10-05T09:42:00Z"
  },
  {
    "train_number": "2316  ",
    "unit_number": "1116.0157",
    "name": "Hohenau",
    "abbr": "Nh  ",
    "lat": "48.5981",
    "lng": "16.9008",
    "arrival": "2023-10-05T08:14:00Z",
    "departure": "2023-10-05T08:14:00Z"
  },
  {
    "train_number": "2316  ",
    "unit_number": "1116.0157",
    "name": "Gänserndorf",
    "abbr": "Gae ",
    "lat": "48.3401",
    "lng": "16.7324",
    "arrival": "2023-10-05T07:42:00Z",
    "departure": "2023-10-05T07:42:00Z"
  },
  {
    "train_number": "2316  ",
    "unit_number": "1116.0157",
    "name": "Floridsdorf (in F)",
    "abbr": "F   ",
    "lat": "48.2568",
    "lng": "16.4004",
    "arrival": "2023-10-05T07:19:00Z",
    "departure": "2023-10-05T07:20:00Z"
  },
  {
    "train_number": "2316  ",
    "unit_number": "1116.0157",
    "name": "Wien Meidling (in Wbf)",
    "abbr": "Mi  ",
    "lat": "48.1747",
    "lng": "16.3348",
    "arrival": "2023-10-05T06:53:00Z",
    "departure": "2023-10-05T06:54:00Z"
  },
  {
    "train_number": "2316  ",
    "unit_number": "1116.0157",
    "name": "Mödling",
    "abbr": "Md  ",
    "lat": "48.0858",
    "lng": "16.2958",
    "arrival": "2023-10-05T06:39:00Z",
    "departure": "2023-10-05T06:40:00Z"
  },
  {
    "train_number": "2316  ",
    "unit_number": "1116.0157",
    "name": "Leobersdorf",
    "abbr": "Lb  ",
    "lat": "47.9375",
    "lng": "16.2313",
    "arrival": "2023-10-05T06:22:00Z",
    "departure": "2023-10-05T06:23:00Z"
  },
  {
    "train_number": "2311  ",
    "unit_number": "1116.0157",
    "name": "Wr. Neustadt Hbf (in Nb)",
    "abbr": "Nb  ",
    "lat": "47.8113",
    "lng": "16.2337",
    "arrival": "2023-10-05T05:47:00Z",
    "departure": "2023-10-05T06:11:00Z"
  },
  {
    "train_number": "2311  ",
    "unit_number": "1116.0157",
    "name": "Leobersdorf",
    "abbr": "Lb  ",
    "lat": "47.9375",
    "lng": "16.2313",
    "arrival": "2023-10-05T05:35:00Z",
    "departure": "2023-10-05T05:35:00Z"
  },
  {
    "train_number": "2311  ",
    "unit_number": "1116.0157",
    "name": "Mödling",
    "abbr": "Md  ",
    "lat": "48.0858",
    "lng": "16.2958",
    "arrival": "2023-10-05T05:18:00Z",
    "departure": "2023-10-05T05:19:00Z"
  },
  {
    "train_number": "2311  ",
    "unit_number": "1116.0157",
    "name": "Wien Meidling (in Wbf)",
    "abbr": "Mi  ",
    "lat": "48.1747",
    "lng": "16.3348",
    "arrival": "2023-10-05T05:04:00Z",
    "departure": "2023-10-05T05:07:00Z"
  },
  {
    "train_number": "2311  ",
    "unit_number": "1116.0157",
    "name": "Floridsdorf (in F)",
    "abbr": "F   ",
    "lat": "48.2568",
    "lng": "16.4004",
    "arrival": "2023-10-05T04:38:00Z",
    "departure": "2023-10-05T04:39:00Z"
  },
  {
    "train_number": "2311  ",
    "unit_number": "1116.0157",
    "name": "Gänserndorf",
    "abbr": "Gae ",
    "lat": "48.3401",
    "lng": "16.7324",
    "arrival": "2023-10-05T04:14:00Z",
    "departure": "2023-10-05T04:15:00Z"
  },
  {
    "train_number": "2311  ",
    "unit_number": "1116.0157",
    "name": "Hohenau",
    "abbr": "Nh  ",
    "lat": "48.5981",
    "lng": "16.9008",
    "arrival": "2023-10-05T03:42:00Z",
    "departure": "2023-10-05T03:42:00Z"
  },
  {
    "train_number": "Blockz",
    "unit_number": "1116.0157",
    "name": "Hohenau",
    "abbr": "Nh  ",
    "lat": "48.5981",
    "lng": "16.9008",
    "arrival": "2023-10-05T03:00:00Z",
    "departure": "2023-10-05T03:10:00Z"
  }
]
