[
  {
    "train_number": "55440 ",
    "unit_number": "1116.0165",
    "name": "Dornbirn (in Do)",
    "abbr": "Do  ",
    "lat": "47.4176",
    "lng": "9.73871",
    "arrival": null,
    "departure": "2023-08-19T01:40:00Z"
  },
  {
    "train_number": "55440 ",
    "unit_number": "1116.0165",
    "name": "Feldkirch",
    "abbr": "Fk  ",
    "lat": "47.2417",
    "lng": "9.60519",
    "arrival": "2023-08-19T01:07:00Z",
    "departure": "2023-08-19T01:22:00Z"
  },
  {
    "train_number": "55440 ",
    "unit_number": "1116.0165",
    "name": "Bludenz",
    "abbr": "B   ",
    "lat": "47.155",
    "lng": "9.81448",
    "arrival": "2023-08-19T00:42:00Z",
    "departure": "2023-08-19T00:52:00Z"
  },
  {
    "train_number": "55440 ",
    "unit_number": "1116.0165",
    "name": "Landeck-Zams",
    "abbr": "Le  ",
    "lat": "47.148",
    "lng": "10.5782",
    "arrival": "2023-08-18T23:37:00Z",
    "departure": "2023-08-18T23:45:00Z"
  },
  {
    "train_number": "55440 ",
    "unit_number": "1116.0165",
    "name": "Imst-Pitztal",
    "abbr": "Im  ",
    "lat": "47.219",
    "lng": "10.7619",
    "arrival": null,
    "departure": "2023-08-18T23:22:00Z"
  },
  {
    "train_number": "55440 ",
    "unit_number": "1116.0165",
    "name": "Innsbruck Hbf  (in I)",
    "abbr": "I   ",
    "lat": "47.2634",
    "lng": "11.4017",
    "arrival": "2023-08-18T22:33:00Z",
    "departure": "2023-08-18T22:40:00Z"
  },
  {
    "train_number": "54445 ",
    "unit_number": "1116.0165",
    "name": "Hall in Tirol",
    "abbr": "H   ",
    "lat": "47.2769",
    "lng": "11.5013",
    "arrival": "2023-08-18T19:24:00Z",
    "departure": "2023-08-18T22:22:00Z"
  },
  {
    "train_number": "54445 ",
    "unit_number": "1116.0165",
    "name": "Innsbruck Hbf  (in I)",
    "abbr": "I   ",
    "lat": "47.2634",
    "lng": "11.4017",
    "arrival": "2023-08-18T19:12:00Z",
    "departure": "2023-08-18T19:15:00Z"
  },
  {
    "train_number": "54445 ",
    "unit_number": "1116.0165",
    "name": "Imst-Pitztal",
    "abbr": "Im  ",
    "lat": "47.219",
    "lng": "10.7619",
    "arrival": "2023-08-18T18:21:00Z",
    "departure": "2023-08-18T18:31:00Z"
  },
  {
    "train_number": "54445 ",
    "unit_number": "1116.0165",
    "name": "Landeck-Zams",
    "abbr": "Le  ",
    "lat": "47.148",
    "lng": "10.5782",
    "arrival": "2023-08-18T17:20:00Z",
    "departure": "2023-08-18T18:06:00Z"
  },
  {
    "train_number": "54445 ",
    "unit_number": "1116.0165",
    "name": "Bludenz",
    "abbr": "B   ",
    "lat": "47.155",
    "lng": "9.81448",
    "arrival": "2023-08-18T15:56:00Z",
    "departure": "2023-08-18T16:12:00Z"
  },
  {
    "train_number": "54445 ",
    "unit_number": "1116.0165",
    "name": "Feldkirch",
    "abbr": "Fk  ",
    "lat": "47.2417",
    "lng": "9.60519",
    "arrival": null,
    "departure": "2023-08-18T15:34:00Z"
  },
  {
    "train_number": "54445 ",
    "unit_number": "1116.0165",
    "name": "Dornbirn (in Do)",
    "abbr": "Do  ",
    "lat": "47.4176",
    "lng": "9.73871",
    "arrival": null,
    "departure": "2023-08-18T15:10:00Z"
  },
  {
    "train_number": "45737 ",
    "unit_number": "1116.0165",
    "name": "Wolfurt (in Wo)",
    "abbr": "Wo  ",
    "lat": "47.457",
    "lng": "9.74133",
    "arrival": "2023-08-18T10:28:00Z",
    "departure": "2023-08-18T15:03:00Z"
  },
  {
    "train_number": "45736 ",
    "unit_number": "1116.0165",
    "name": "St.Margrethen",
    "abbr": "Mt  ",
    "lat": "47.4532",
    "lng": "9.64002",
    "arrival": "2023-08-18T07:46:00Z",
    "departure": "2023-08-18T10:12:00Z"
  },
  {
    "train_number": "66470 ",
    "unit_number": "1116.0165",
    "name": "Wolfurt (in Wo)",
    "abbr": "Wo  ",
    "lat": "47.457",
    "lng": "9.74133",
    "arrival": "2023-08-17T23:15:00Z",
    "departure": "2023-08-18T07:30:00Z"
  }
]
