[
  {
    "train_number": "19164 ",
    "unit_number": "1116.0157",
    "name": "Innsbruck Hbf  (in I)",
    "abbr": "I   ",
    "lat": "47.2634",
    "lng": "11.4017",
    "arrival": "2023-11-01T14:40:00Z",
    "departure": "2023-11-01T14:47:00Z"
  },
  {
    "train_number": "19164 ",
    "unit_number": "1116.0157",
    "name": "Hall in Tirol",
    "abbr": "H   ",
    "lat": "47.2769",
    "lng": "11.5013",
    "arrival": null,
    "departure": "2023-11-01T14:34:00Z"
  },
  {
    "train_number": "19164 ",
    "unit_number": "1116.0157",
    "name": "Jenbach",
    "abbr": "Jb  ",
    "lat": "47.3884",
    "lng": "11.7783",
    "arrival": "2023-11-01T14:16:00Z",
    "departure": "2023-11-01T14:18:00Z"
  },
  {
    "train_number": "19164 ",
    "unit_number": "1116.0157",
    "name": "Wörgl Hbf-T. N. (in W)",
    "abbr": "Wtn ",
    "lat": "47.4824",
    "lng": "12.033",
    "arrival": null,
    "departure": "2023-11-01T14:05:00Z"
  },
  {
    "train_number": "19164 ",
    "unit_number": "1116.0157",
    "name": "Wörgl Hbf (in W)",
    "abbr": "W   ",
    "lat": "47.4912",
    "lng": "12.0603",
    "arrival": "2023-11-01T14:01:00Z",
    "departure": "2023-11-01T14:03:00Z"
  },
  {
    "train_number": "19164 ",
    "unit_number": "1116.0157",
    "name": "Kitzbühel",
    "abbr": "Kzb ",
    "lat": "47.4542",
    "lng": "12.391",
    "arrival": "2023-11-01T13:30:00Z",
    "departure": "2023-11-01T13:31:00Z"
  },
  {
    "train_number": "Vhz   ",
    "unit_number": "1116.0157",
    "name": "Schwarzach-St.Veit",
    "abbr": "Swa ",
    "lat": "47.3186",
    "lng": "13.1561",
    "arrival": "2023-11-01T12:00:00Z",
    "departure": "2023-11-01T12:13:00Z"
  }
]
