[
  {
    "train_number": "2412  ",
    "unit_number": "1116.0157",
    "name": "Mistelbach",
    "abbr": "Mb  ",
    "lat": "48.5646",
    "lng": "16.5608",
    "arrival": "2023-09-26T16:04:00Z",
    "departure": "2023-09-26T16:05:00Z"
  },
  {
    "train_number": "2412  ",
    "unit_number": "1116.0157",
    "name": "Floridsdorf (in F)",
    "abbr": "F   ",
    "lat": "48.2568",
    "lng": "16.4004",
    "arrival": "2023-09-26T15:22:00Z",
    "departure": "2023-09-26T15:23:00Z"
  },
  {
    "train_number": null,
    "unit_number": "1116.0157",
    "name": "Wien Meidling (in Wbf)",
    "abbr": "Mi  ",
    "lat": "48.1747",
    "lng": "16.3348",
    "arrival": null,
    "departure": "2023-09-26T14:57:00Z"
  },
  {
    "train_number": "2914  ",
    "unit_number": "1116.0157",
    "name": "Wien Meidling (in Wbf)",
    "abbr": "Mi  ",
    "lat": "48.1747",
    "lng": "16.3348",
    "arrival": "2023-09-26T06:29:00Z",
    "departure": "2023-09-26T06:31:00Z"
  },
  {
    "train_number": "2914  ",
    "unit_number": "1116.0157",
    "name": "Mödling",
    "abbr": "Md  ",
    "lat": "48.0858",
    "lng": "16.2958",
    "arrival": null,
    "departure": "2023-09-26T06:20:00Z"
  },
  {
    "train_number": "2914  ",
    "unit_number": "1116.0157",
    "name": "Leobersdorf",
    "abbr": "Lb  ",
    "lat": "47.9375",
    "lng": "16.2313",
    "arrival": null,
    "departure": "2023-09-26T06:10:00Z"
  },
  {
    "train_number": "2914  ",
    "unit_number": "1116.0157",
    "name": "Wr. Neustadt Hbf (in Nb)",
    "abbr": "Nb  ",
    "lat": "47.8113",
    "lng": "16.2337",
    "arrival": "2023-09-26T05:59:00Z",
    "departure": "2023-09-26T06:02:00Z"
  },
  {
    "train_number": "2914  ",
    "unit_number": "1116.0157",
    "name": "Neunkirchen N.Ö.",
    "abbr": "Nek ",
    "lat": "47.731",
    "lng": "16.0826",
    "arrival": "2023-09-26T05:46:00Z",
    "departure": "2023-09-26T05:47:00Z"
  },
  {
    "train_number": "2205  ",
    "unit_number": "1116.0157",
    "name": "Payerbach-Reichenau",
    "abbr": "Pr  ",
    "lat": "47.696",
    "lng": "15.8632",
    "arrival": "2023-09-26T05:09:00Z",
    "departure": "2023-09-26T05:27:00Z"
  },
  {
    "train_number": "2205  ",
    "unit_number": "1116.0157",
    "name": "Neunkirchen N.Ö.",
    "abbr": "Nek ",
    "lat": "47.731",
    "lng": "16.0826",
    "arrival": "2023-09-26T04:48:00Z",
    "departure": "2023-09-26T04:48:00Z"
  },
  {
    "train_number": "2205  ",
    "unit_number": "1116.0157",
    "name": "Wr. Neustadt Hbf (in Nb)",
    "abbr": "Nb  ",
    "lat": "47.8113",
    "lng": "16.2337",
    "arrival": "2023-09-26T04:24:00Z",
    "departure": "2023-09-26T04:35:00Z"
  },
  {
    "train_number": "2205  ",
    "unit_number": "1116.0157",
    "name": "Leobersdorf",
    "abbr": "Lb  ",
    "lat": "47.9375",
    "lng": "16.2313",
    "arrival": "2023-09-26T04:12:00Z",
    "departure": "2023-09-26T04:13:00Z"
  },
  {
    "train_number": "2205  ",
    "unit_number": "1116.0157",
    "name": "Mödling",
    "abbr": "Md  ",
    "lat": "48.0858",
    "lng": "16.2958",
    "arrival": "2023-09-26T03:58:00Z",
    "departure": "2023-09-26T03:59:00Z"
  },
  {
    "train_number": "2205  ",
    "unit_number": "1116.0157",
    "name": "Wien Meidling (in Wbf)",
    "abbr": "Mi  ",
    "lat": "48.1747",
    "lng": "16.3348",
    "arrival": "2023-09-26T03:44:00Z",
    "departure": "2023-09-26T03:45:00Z"
  },
  {
    "train_number": "83019 ",
    "unit_number": "1116.0157",
    "name": "Floridsdorf (in F)",
    "abbr": "F   ",
    "lat": "48.2568",
    "lng": "16.4004",
    "arrival": "2023-09-26T03:14:00Z",
    "departure": "2023-09-26T03:19:00Z"
  }
]
