[
  {
    "train_number": "90100 ",
    "unit_number": "1116.0016",
    "name": "Enns",
    "abbr": "Ens ",
    "lat": "48.2212",
    "lng": "14.4668",
    "arrival": null,
    "departure": "2023-08-28T23:32:00Z"
  },
  {
    "train_number": "90100 ",
    "unit_number": "1116.0016",
    "name": "St.Valentin (in Sv)",
    "abbr": "Sv  ",
    "lat": "48.1784",
    "lng": "14.5219",
    "arrival": null,
    "departure": "2023-08-28T23:26:00Z"
  },
  {
    "train_number": "90100 ",
    "unit_number": "1116.0016",
    "name": "Amstetten (in Ams)",
    "abbr": "Ams ",
    "lat": "48.1215",
    "lng": "14.8792",
    "arrival": null,
    "departure": "2023-08-28T22:54:00Z"
  },
  {
    "train_number": "90100 ",
    "unit_number": "1116.0016",
    "name": "Ybbs a.d.Donau",
    "abbr": "Y   ",
    "lat": "48.158",
    "lng": "15.0981",
    "arrival": null,
    "departure": "2023-08-28T22:40:00Z"
  },
  {
    "train_number": "90100 ",
    "unit_number": "1116.0016",
    "name": "Pöchlarn",
    "abbr": "Poe ",
    "lat": "48.208",
    "lng": "15.2148",
    "arrival": null,
    "departure": "2023-08-28T22:30:00Z"
  },
  {
    "train_number": "90100 ",
    "unit_number": "1116.0016",
    "name": "Kledering (in Zur)",
    "abbr": "Za  ",
    "lat": "48.1453",
    "lng": "16.43",
    "arrival": "2023-08-28T20:48:00Z",
    "departure": "2023-08-28T20:53:00Z"
  },
  {
    "train_number": "90100 ",
    "unit_number": "1116.0016",
    "name": "Ebenfurth (in Ef)",
    "abbr": "Ef  ",
    "lat": "47.8777",
    "lng": "16.3621",
    "arrival": null,
    "departure": "2023-08-28T20:15:00Z"
  },
  {
    "train_number": "90100 ",
    "unit_number": "1116.0016",
    "name": "Wr. Neustadt Hbf (in Nb)",
    "abbr": "Nb  ",
    "lat": "47.8113",
    "lng": "16.2337",
    "arrival": null,
    "departure": "2023-08-28T20:04:00Z"
  },
  {
    "train_number": "90063 ",
    "unit_number": "1116.0016",
    "name": "Wr. Neust.Hbf-Ausf. (in Nb)",
    "abbr": "Nr  ",
    "lat": "47.8113",
    "lng": "16.2337",
    "arrival": "2023-08-28T15:40:00Z",
    "departure": "2023-08-28T20:00:00Z"
  },
  {
    "train_number": "90063 ",
    "unit_number": "1116.0016",
    "name": "Wr. Neustadt Hbf (in Nb)",
    "abbr": "Nb  ",
    "lat": "47.8113",
    "lng": "16.2337",
    "arrival": null,
    "departure": "2023-08-28T15:37:00Z"
  },
  {
    "train_number": "90063 ",
    "unit_number": "1116.0016",
    "name": "Ebenfurth (in Ef)",
    "abbr": "Ef  ",
    "lat": "47.8777",
    "lng": "16.3621",
    "arrival": null,
    "departure": "2023-08-28T15:28:00Z"
  },
  {
    "train_number": null,
    "unit_number": "1116.0016",
    "name": "Kledering (in Zur)",
    "abbr": "Za  ",
    "lat": "48.1453",
    "lng": "16.43",
    "arrival": null,
    "departure": "2023-08-28T15:00:00Z"
  },
  {
    "train_number": "45027 ",
    "unit_number": "1116.0016",
    "name": "Gänserndorf",
    "abbr": "Gae ",
    "lat": "48.3401",
    "lng": "16.7324",
    "arrival": null,
    "departure": "2023-08-28T12:51:00Z"
  },
  {
    "train_number": "45027 ",
    "unit_number": "1116.0016",
    "name": "Hohenau",
    "abbr": "Nh  ",
    "lat": "48.5981",
    "lng": "16.9008",
    "arrival": "2023-08-28T12:17:00Z",
    "departure": "2023-08-28T12:26:00Z"
  },
  {
    "train_number": "V-Tfz ",
    "unit_number": "1116.0016",
    "name": "Hohenau",
    "abbr": "Nh  ",
    "lat": "48.5981",
    "lng": "16.9008",
    "arrival": "2023-08-28T10:01:00Z",
    "departure": "2023-08-28T10:33:00Z"
  },
  {
    "train_number": "45004 ",
    "unit_number": "1116.0016",
    "name": "Gänserndorf",
    "abbr": "Gae ",
    "lat": "48.3401",
    "lng": "16.7324",
    "arrival": null,
    "departure": "2023-08-28T09:21:00Z"
  },
  {
    "train_number": "45004 ",
    "unit_number": "1116.0016",
    "name": "Wien Zvbf (in Zur)",
    "abbr": "Zur ",
    "lat": "48.1453",
    "lng": "16.43",
    "arrival": null,
    "departure": "2023-08-28T08:41:00Z"
  },
  {
    "train_number": "41128 ",
    "unit_number": "1116.0016",
    "name": "Kledering (in Zur)",
    "abbr": "Za  ",
    "lat": "48.1453",
    "lng": "16.43",
    "arrival": "2023-08-28T06:02:00Z",
    "departure": "2023-08-28T08:37:00Z"
  },
  {
    "train_number": "41128 ",
    "unit_number": "1116.0016",
    "name": "Parndorf",
    "abbr": "Par ",
    "lat": "47.987",
    "lng": "16.8702",
    "arrival": null,
    "departure": "2023-08-28T05:30:00Z"
  },
  {
    "train_number": null,
    "unit_number": "1116.0016",
    "name": "Hegyeshalom",
    "abbr": "He  ",
    "lat": "47.9139",
    "lng": "17.1455",
    "arrival": null,
    "departure": "2023-08-28T05:10:00Z"
  }
]
