[
  {
    "train_number": "62    ",
    "unit_number": "1116.0231",
    "name": "Wien Hauptbahnhof (in Wbf)",
    "abbr": "Wbf ",
    "lat": "48.185",
    "lng": "16.3778",
    "arrival": "2023-10-17T10:41:00Z",
    "departure": "2023-10-18T11:42:00Z"
  },
  {
    "train_number": "62    ",
    "unit_number": "1116.0231",
    "name": "Wien Zvbf (in Zur)",
    "abbr": "Zur ",
    "lat": "48.1453",
    "lng": "16.43",
    "arrival": "2023-10-17T10:32:00Z",
    "departure": "2023-10-17T10:34:00Z"
  },
  {
    "train_number": "62    ",
    "unit_number": "1116.0231",
    "name": "Parndorf",
    "abbr": "Par ",
    "lat": "47.987",
    "lng": "16.8702",
    "arrival": null,
    "departure": "2023-10-17T09:44:00Z"
  },
  {
    "train_number": "62    ",
    "unit_number": "1116.0231",
    "name": "Hegyeshalom",
    "abbr": "He  ",
    "lat": "47.9139",
    "lng": "17.1455",
    "arrival": "2023-10-17T09:29:00Z",
    "departure": "2023-10-17T09:32:00Z"
  },
  {
    "train_number": "62    ",
    "unit_number": "1116.0231",
    "name": "Tatabanya",
    "abbr": "TB  ",
    "lat": "47.587",
    "lng": "18.3923",
    "arrival": "2023-10-17T08:25:00Z",
    "departure": "2023-10-17T08:26:00Z"
  },
  {
    "train_number": "62    ",
    "unit_number": "1116.0231",
    "name": "Budapest-Ferencvaros",
    "abbr": "BUFE",
    "lat": "47.4687",
    "lng": "19.0882",
    "arrival": null,
    "departure": "2023-10-17T07:47:00Z"
  },
  {
    "train_number": "67    ",
    "unit_number": "1116.0231",
    "name": "Budapest Keleti",
    "abbr": "BPK ",
    "lat": "47.501",
    "lng": "19.0869",
    "arrival": "2023-10-16T18:19:00Z",
    "departure": "2023-10-17T07:40:00Z"
  }
]
