[
  {
    "train_number": "18423 ",
    "unit_number": "1116.0157",
    "name": "Kledering (in Zur)",
    "abbr": "Za  ",
    "lat": "48.1453",
    "lng": "16.43",
    "arrival": "2023-09-01T02:15:00Z",
    "departure": "2023-09-01T02:56:00Z"
  },
  {
    "train_number": "42981 ",
    "unit_number": "1116.0157",
    "name": "Kledering (in Zur)",
    "abbr": "Za  ",
    "lat": "48.1453",
    "lng": "16.43",
    "arrival": "2023-09-01T01:38:00Z",
    "departure": "2023-09-01T01:44:00Z"
  },
  {
    "train_number": "42981 ",
    "unit_number": "1116.0157",
    "name": "St.Pölten Hbf (in Pb)",
    "abbr": "Pb  ",
    "lat": "48.2081",
    "lng": "15.6237",
    "arrival": null,
    "departure": "2023-09-01T00:35:00Z"
  },
  {
    "train_number": "42981 ",
    "unit_number": "1116.0157",
    "name": "Pöchlarn",
    "abbr": "Poe ",
    "lat": "48.208",
    "lng": "15.2148",
    "arrival": null,
    "departure": "2023-09-01T00:04:00Z"
  },
  {
    "train_number": "42981 ",
    "unit_number": "1116.0157",
    "name": "Ybbs a.d.Donau",
    "abbr": "Y   ",
    "lat": "48.158",
    "lng": "15.0981",
    "arrival": null,
    "departure": "2023-08-31T23:51:00Z"
  },
  {
    "train_number": "42981 ",
    "unit_number": "1116.0157",
    "name": "Amstetten (in Ams)",
    "abbr": "Ams ",
    "lat": "48.1215",
    "lng": "14.8792",
    "arrival": null,
    "departure": "2023-08-31T23:34:00Z"
  },
  {
    "train_number": "42981 ",
    "unit_number": "1116.0157",
    "name": "St.Valentin (in Sv)",
    "abbr": "Sv  ",
    "lat": "48.1784",
    "lng": "14.5219",
    "arrival": null,
    "departure": "2023-08-31T22:56:00Z"
  },
  {
    "train_number": "42981 ",
    "unit_number": "1116.0157",
    "name": "Enns",
    "abbr": "Ens ",
    "lat": "48.2212",
    "lng": "14.4668",
    "arrival": null,
    "departure": "2023-08-31T22:48:00Z"
  },
  {
    "train_number": "42981 ",
    "unit_number": "1116.0157",
    "name": "Linz Hbf",
    "abbr": "Lz  ",
    "lat": "48.2908",
    "lng": "14.2927",
    "arrival": "2023-08-31T22:27:00Z",
    "departure": "2023-08-31T22:32:00Z"
  },
  {
    "train_number": "42981 ",
    "unit_number": "1116.0157",
    "name": "Wels Hbf",
    "abbr": "We  ",
    "lat": "48.1662",
    "lng": "14.0273",
    "arrival": null,
    "departure": "2023-08-31T21:58:00Z"
  },
  {
    "train_number": "42981 ",
    "unit_number": "1116.0157",
    "name": "Neumarkt-Kallham (in Neu)",
    "abbr": "Neu ",
    "lat": "48.2714",
    "lng": "13.7245",
    "arrival": null,
    "departure": "2023-08-31T21:37:00Z"
  },
  {
    "train_number": "42981 ",
    "unit_number": "1116.0157",
    "name": "Schärding (in Sch)",
    "abbr": "Sch ",
    "lat": "48.4638",
    "lng": "13.4424",
    "arrival": null,
    "departure": "2023-08-31T21:10:00Z"
  },
  {
    "train_number": "49980 ",
    "unit_number": "1116.0157",
    "name": "Passau Gbf",
    "abbr": "Pag ",
    "lat": "48.5729",
    "lng": "13.4342",
    "arrival": "2023-08-31T05:35:00Z",
    "departure": "2023-08-31T20:00:00Z"
  },
  {
    "train_number": "49980 ",
    "unit_number": "1116.0157",
    "name": "Schärding (in Sch)",
    "abbr": "Sch ",
    "lat": "48.4638",
    "lng": "13.4424",
    "arrival": null,
    "departure": "2023-08-31T05:19:00Z"
  },
  {
    "train_number": "49980 ",
    "unit_number": "1116.0157",
    "name": "Neumarkt-Kallham (in Neu)",
    "abbr": "Neu ",
    "lat": "48.2714",
    "lng": "13.7245",
    "arrival": null,
    "departure": "2023-08-31T04:42:00Z"
  },
  {
    "train_number": "49980 ",
    "unit_number": "1116.0157",
    "name": "Wels Hbf",
    "abbr": "We  ",
    "lat": "48.1662",
    "lng": "14.0273",
    "arrival": null,
    "departure": "2023-08-31T04:12:00Z"
  },
  {
    "train_number": "49980 ",
    "unit_number": "1116.0157",
    "name": "Linz Hbf",
    "abbr": "Lz  ",
    "lat": "48.2908",
    "lng": "14.2927",
    "arrival": null,
    "departure": "2023-08-31T03:48:00Z"
  },
  {
    "train_number": "49980 ",
    "unit_number": "1116.0157",
    "name": "Linz Vbf-West (in Lzv)",
    "abbr": "Lr  ",
    "lat": "48.2607",
    "lng": "14.2927",
    "arrival": "2023-08-31T03:26:00Z",
    "departure": "2023-08-31T03:44:00Z"
  },
  {
    "train_number": "49980 ",
    "unit_number": "1116.0157",
    "name": "Enns",
    "abbr": "Ens ",
    "lat": "48.2212",
    "lng": "14.4668",
    "arrival": null,
    "departure": "2023-08-31T03:11:00Z"
  },
  {
    "train_number": "49980 ",
    "unit_number": "1116.0157",
    "name": "St.Valentin (in Sv)",
    "abbr": "Sv  ",
    "lat": "48.1784",
    "lng": "14.5219",
    "arrival": null,
    "departure": "2023-08-31T03:03:00Z"
  }
]
