[
  {
    "train_number": "2329  ",
    "unit_number": "1116.0157",
    "name": "Leobersdorf",
    "abbr": "Lb  ",
    "lat": "47.9375",
    "lng": "16.2313",
    "arrival": "2023-09-29T10:05:00Z",
    "departure": "2023-09-29T10:06:00Z"
  },
  {
    "train_number": "2329  ",
    "unit_number": "1116.0157",
    "name": "Mödling",
    "abbr": "Md  ",
    "lat": "48.0858",
    "lng": "16.2958",
    "arrival": "2023-09-29T09:48:00Z",
    "departure": "2023-09-29T09:49:00Z"
  },
  {
    "train_number": "2329  ",
    "unit_number": "1116.0157",
    "name": "Wien Meidling (in Wbf)",
    "abbr": "Mi  ",
    "lat": "48.1747",
    "lng": "16.3348",
    "arrival": "2023-09-29T09:34:00Z",
    "departure": "2023-09-29T09:37:00Z"
  },
  {
    "train_number": "Blockz",
    "unit_number": "1116.0157",
    "name": "Floridsdorf (in F)",
    "abbr": "F   ",
    "lat": "48.2568",
    "lng": "16.4004",
    "arrival": "2023-09-29T09:00:00Z",
    "departure": "2023-09-29T09:09:00Z"
  },
  {
    "train_number": "2216  ",
    "unit_number": "1116.0157",
    "name": "Wien Meidling (in Wbf)",
    "abbr": "Mi  ",
    "lat": "48.1747",
    "lng": "16.3348",
    "arrival": "2023-09-29T07:13:00Z",
    "departure": "2023-09-29T07:14:00Z"
  },
  {
    "train_number": "2216  ",
    "unit_number": "1116.0157",
    "name": "Mödling",
    "abbr": "Md  ",
    "lat": "48.0858",
    "lng": "16.2958",
    "arrival": "2023-09-29T06:59:00Z",
    "departure": "2023-09-29T07:00:00Z"
  },
  {
    "train_number": "2216  ",
    "unit_number": "1116.0157",
    "name": "Leobersdorf",
    "abbr": "Lb  ",
    "lat": "47.9375",
    "lng": "16.2313",
    "arrival": "2023-09-29T06:44:00Z",
    "departure": "2023-09-29T06:45:00Z"
  },
  {
    "train_number": "2216  ",
    "unit_number": "1116.0157",
    "name": "Wr. Neustadt Hbf (in Nb)",
    "abbr": "Nb  ",
    "lat": "47.8113",
    "lng": "16.2337",
    "arrival": "2023-09-29T06:25:00Z",
    "departure": "2023-09-29T06:35:00Z"
  },
  {
    "train_number": "2216  ",
    "unit_number": "1116.0157",
    "name": "Neunkirchen N.Ö.",
    "abbr": "Nek ",
    "lat": "47.731",
    "lng": "16.0826",
    "arrival": "2023-09-29T06:12:00Z",
    "departure": "2023-09-29T06:13:00Z"
  },
  {
    "train_number": "2207  ",
    "unit_number": "1116.0157",
    "name": "Payerbach-Reichenau",
    "abbr": "Pr  ",
    "lat": "47.696",
    "lng": "15.8632",
    "arrival": "2023-09-29T05:36:00Z",
    "departure": "2023-09-29T05:53:00Z"
  },
  {
    "train_number": "2207  ",
    "unit_number": "1116.0157",
    "name": "Neunkirchen N.Ö.",
    "abbr": "Nek ",
    "lat": "47.731",
    "lng": "16.0826",
    "arrival": "2023-09-29T05:14:00Z",
    "departure": "2023-09-29T05:15:00Z"
  },
  {
    "train_number": "2207  ",
    "unit_number": "1116.0157",
    "name": "Wr. Neustadt Hbf (in Nb)",
    "abbr": "Nb  ",
    "lat": "47.8113",
    "lng": "16.2337",
    "arrival": "2023-09-29T04:54:00Z",
    "departure": "2023-09-29T05:02:00Z"
  },
  {
    "train_number": "2207  ",
    "unit_number": "1116.0157",
    "name": "Leobersdorf",
    "abbr": "Lb  ",
    "lat": "47.9375",
    "lng": "16.2313",
    "arrival": "2023-09-29T04:41:00Z",
    "departure": "2023-09-29T04:45:00Z"
  },
  {
    "train_number": "2207  ",
    "unit_number": "1116.0157",
    "name": "Mödling",
    "abbr": "Md  ",
    "lat": "48.0858",
    "lng": "16.2958",
    "arrival": "2023-09-29T04:28:00Z",
    "departure": "2023-09-29T04:29:00Z"
  },
  {
    "train_number": "2207  ",
    "unit_number": "1116.0157",
    "name": "Wien Meidling (in Wbf)",
    "abbr": "Mi  ",
    "lat": "48.1747",
    "lng": "16.3348",
    "arrival": "2023-09-29T04:14:00Z",
    "departure": "2023-09-29T04:15:00Z"
  },
  {
    "train_number": "2207  ",
    "unit_number": "1116.0157",
    "name": "Floridsdorf (in F)",
    "abbr": "F   ",
    "lat": "48.2568",
    "lng": "16.4004",
    "arrival": "2023-09-29T03:47:00Z",
    "departure": "2023-09-29T03:49:00Z"
  },
  {
    "train_number": "2207  ",
    "unit_number": "1116.0157",
    "name": "Korneuburg",
    "abbr": "Ko  ",
    "lat": "48.3429",
    "lng": "16.3289",
    "arrival": "2023-09-29T03:35:00Z",
    "departure": "2023-09-29T03:36:00Z"
  },
  {
    "train_number": "2207  ",
    "unit_number": "1116.0157",
    "name": "Stockerau (in Su)",
    "abbr": "Su  ",
    "lat": "48.3824",
    "lng": "16.2126",
    "arrival": "2023-09-29T03:26:00Z",
    "departure": "2023-09-29T03:27:00Z"
  },
  {
    "train_number": "2207  ",
    "unit_number": "1116.0157",
    "name": "Hollabrunn",
    "abbr": "Oh  ",
    "lat": "48.563",
    "lng": "16.0722",
    "arrival": "2023-09-29T03:01:00Z",
    "departure": "2023-09-29T03:02:00Z"
  },
  {
    "train_number": "Blockz",
    "unit_number": "1116.0157",
    "name": "Retz",
    "abbr": "R   ",
    "lat": "48.7539",
    "lng": "15.9574",
    "arrival": "2023-09-29T02:30:00Z",
    "departure": "2023-09-29T02:34:00Z"
  }
]
