[
  {
    "train_number": "59441 ",
    "unit_number": "1116.0157",
    "name": "Wörgl Hbf (in W)",
    "abbr": "W   ",
    "lat": "47.4912",
    "lng": "12.0603",
    "arrival": "2023-11-07T02:02:00Z",
    "departure": "2023-11-07T02:22:00Z"
  },
  {
    "train_number": "59442 ",
    "unit_number": "1116.0157",
    "name": "Kufstein",
    "abbr": "K   ",
    "lat": "47.5833",
    "lng": "12.1657",
    "arrival": "2023-11-07T00:19:00Z",
    "departure": "2023-11-07T01:50:00Z"
  },
  {
    "train_number": "59442 ",
    "unit_number": "1116.0157",
    "name": "Wörgl Hbf (in W)",
    "abbr": "W   ",
    "lat": "47.4912",
    "lng": "12.0603",
    "arrival": null,
    "departure": "2023-11-07T00:07:00Z"
  },
  {
    "train_number": "59442 ",
    "unit_number": "1116.0157",
    "name": "Wörgl Hbf-T. N. (in W)",
    "abbr": "Wtn ",
    "lat": "47.4824",
    "lng": "12.033",
    "arrival": null,
    "departure": "2023-11-07T00:04:00Z"
  },
  {
    "train_number": "59442 ",
    "unit_number": "1116.0157",
    "name": "Hall in Tirol",
    "abbr": "H   ",
    "lat": "47.2769",
    "lng": "11.5013",
    "arrival": null,
    "departure": "2023-11-06T23:30:00Z"
  },
  {
    "train_number": "59442 ",
    "unit_number": "1116.0157",
    "name": "Innsbruck Hbf  (in I)",
    "abbr": "I   ",
    "lat": "47.2634",
    "lng": "11.4017",
    "arrival": "2023-11-06T23:08:00Z",
    "departure": "2023-11-06T23:21:00Z"
  },
  {
    "train_number": "59442 ",
    "unit_number": "1116.0157",
    "name": "Imst-Pitztal",
    "abbr": "Im  ",
    "lat": "47.219",
    "lng": "10.7619",
    "arrival": null,
    "departure": "2023-11-06T22:24:00Z"
  },
  {
    "train_number": "59442 ",
    "unit_number": "1116.0157",
    "name": "Landeck-Zams",
    "abbr": "Le  ",
    "lat": "47.148",
    "lng": "10.5782",
    "arrival": null,
    "departure": "2023-11-06T22:11:00Z"
  },
  {
    "train_number": "59442 ",
    "unit_number": "1116.0157",
    "name": "Bludenz",
    "abbr": "B   ",
    "lat": "47.155",
    "lng": "9.81448",
    "arrival": "2023-11-06T20:25:00Z",
    "departure": "2023-11-06T20:55:00Z"
  },
  {
    "train_number": "59442 ",
    "unit_number": "1116.0157",
    "name": "Feldkirch",
    "abbr": "Fk  ",
    "lat": "47.2417",
    "lng": "9.60519",
    "arrival": null,
    "departure": "2023-11-06T20:07:00Z"
  },
  {
    "train_number": "59442 ",
    "unit_number": "1116.0157",
    "name": "Dornbirn (in Do)",
    "abbr": "Do  ",
    "lat": "47.4176",
    "lng": "9.73871",
    "arrival": null,
    "departure": "2023-11-06T19:46:00Z"
  },
  {
    "train_number": "953xx ",
    "unit_number": "1116.0157",
    "name": "Wolfurt (in Wo)",
    "abbr": "Wo  ",
    "lat": "47.457",
    "lng": "9.74133",
    "arrival": "2023-11-06T18:59:00Z",
    "departure": "2023-11-06T19:39:00Z"
  },
  {
    "train_number": "45174 ",
    "unit_number": "1116.0157",
    "name": "St.Margrethen",
    "abbr": "Mt  ",
    "lat": "47.4532",
    "lng": "9.64002",
    "arrival": "2023-11-06T18:16:00Z",
    "departure": "2023-11-06T18:45:00Z"
  },
  {
    "train_number": "45737 ",
    "unit_number": "1116.0157",
    "name": "Wolfurt (in Wo)",
    "abbr": "Wo  ",
    "lat": "47.457",
    "lng": "9.74133",
    "arrival": "2023-11-06T11:28:00Z",
    "departure": "2023-11-06T18:00:00Z"
  },
  {
    "train_number": "45736 ",
    "unit_number": "1116.0157",
    "name": "St.Margrethen",
    "abbr": "Mt  ",
    "lat": "47.4532",
    "lng": "9.64002",
    "arrival": "2023-11-06T08:46:00Z",
    "departure": "2023-11-06T11:12:00Z"
  },
  {
    "train_number": "66470 ",
    "unit_number": "1116.0157",
    "name": "Wolfurt (in Wo)",
    "abbr": "Wo  ",
    "lat": "47.457",
    "lng": "9.74133",
    "arrival": "2023-11-06T00:15:00Z",
    "departure": "2023-11-06T08:30:00Z"
  }
]
