[
  {
    "train_number": "368   ",
    "unit_number": "1116.0231",
    "name": "Innsbruck Hbf  (in I)",
    "abbr": "I   ",
    "lat": "47.2634",
    "lng": "11.4017",
    "arrival": "2023-08-18T07:44:00Z",
    "departure": "2023-08-18T07:47:00Z"
  },
  {
    "train_number": "368   ",
    "unit_number": "1116.0231",
    "name": "Hall in Tirol",
    "abbr": "H   ",
    "lat": "47.2769",
    "lng": "11.5013",
    "arrival": null,
    "departure": "2023-08-18T07:38:00Z"
  },
  {
    "train_number": "368   ",
    "unit_number": "1116.0231",
    "name": "Wörgl Hbf-T. N. (in W)",
    "abbr": "Wtn ",
    "lat": "47.4824",
    "lng": "12.033",
    "arrival": null,
    "departure": "2023-08-18T07:21:00Z"
  },
  {
    "train_number": "368   ",
    "unit_number": "1116.0231",
    "name": "Wörgl Hbf (in W)",
    "abbr": "W   ",
    "lat": "47.4912",
    "lng": "12.0603",
    "arrival": "2023-08-18T07:17:00Z",
    "departure": "2023-08-18T07:19:00Z"
  },
  {
    "train_number": "368   ",
    "unit_number": "1116.0231",
    "name": "Kufstein",
    "abbr": "K   ",
    "lat": "47.5833",
    "lng": "12.1657",
    "arrival": "2023-08-18T07:07:00Z",
    "departure": "2023-08-18T07:09:00Z"
  },
  {
    "train_number": "368   ",
    "unit_number": "1116.0231",
    "name": "Traunstein",
    "abbr": "MTS ",
    "lat": "47.8697",
    "lng": "12.6391",
    "arrival": null,
    "departure": "2023-08-18T06:18:00Z"
  },
  {
    "train_number": "368   ",
    "unit_number": "1116.0231",
    "name": "Freilassing",
    "abbr": "MFL ",
    "lat": "47.8368",
    "lng": "12.9764",
    "arrival": null,
    "departure": "2023-08-18T06:02:00Z"
  },
  {
    "train_number": "368   ",
    "unit_number": "1116.0231",
    "name": "Salzburg Liefering (in Sb)",
    "abbr": "Lfg ",
    "lat": "47.8229",
    "lng": "13.0021",
    "arrival": null,
    "departure": "2023-08-18T06:00:00Z"
  },
  {
    "train_number": "368   ",
    "unit_number": "1116.0231",
    "name": "Salzburg Hbf (in Sb)",
    "abbr": "Sb  ",
    "lat": "47.8135",
    "lng": "13.0466",
    "arrival": "2023-08-18T05:53:00Z",
    "departure": "2023-08-18T05:56:00Z"
  },
  {
    "train_number": "368   ",
    "unit_number": "1116.0231",
    "name": "Steindorf b.Straßw. (in Nst)",
    "abbr": "Nst ",
    "lat": "47.9676",
    "lng": "13.2406",
    "arrival": null,
    "departure": "2023-08-18T05:34:00Z"
  },
  {
    "train_number": "368   ",
    "unit_number": "1116.0231",
    "name": "Attnang-Puchheim",
    "abbr": "At  ",
    "lat": "48.0112",
    "lng": "13.7193",
    "arrival": null,
    "departure": "2023-08-18T05:11:00Z"
  },
  {
    "train_number": "368   ",
    "unit_number": "1116.0231",
    "name": "Wels Hbf",
    "abbr": "We  ",
    "lat": "48.1662",
    "lng": "14.0273",
    "arrival": null,
    "departure": "2023-08-18T04:58:00Z"
  },
  {
    "train_number": "368   ",
    "unit_number": "1116.0231",
    "name": "Linz Hbf",
    "abbr": "Lz  ",
    "lat": "48.2908",
    "lng": "14.2927",
    "arrival": "2023-08-18T04:43:00Z",
    "departure": "2023-08-18T04:45:00Z"
  },
  {
    "train_number": "368   ",
    "unit_number": "1116.0231",
    "name": "St.Valentin (in Sv)",
    "abbr": "Sv  ",
    "lat": "48.1784",
    "lng": "14.5219",
    "arrival": null,
    "departure": "2023-08-18T04:31:00Z"
  },
  {
    "train_number": "368   ",
    "unit_number": "1116.0231",
    "name": "Amstetten (in Ams)",
    "abbr": "Ams ",
    "lat": "48.1215",
    "lng": "14.8792",
    "arrival": null,
    "departure": "2023-08-18T04:19:00Z"
  },
  {
    "train_number": "368   ",
    "unit_number": "1116.0231",
    "name": "Ybbs a.d.Donau",
    "abbr": "Y   ",
    "lat": "48.158",
    "lng": "15.0981",
    "arrival": null,
    "departure": "2023-08-18T04:12:00Z"
  },
  {
    "train_number": "368   ",
    "unit_number": "1116.0231",
    "name": "Pöchlarn",
    "abbr": "Poe ",
    "lat": "48.208",
    "lng": "15.2148",
    "arrival": null,
    "departure": "2023-08-18T04:07:00Z"
  },
  {
    "train_number": "368   ",
    "unit_number": "1116.0231",
    "name": "St.Pölten Hbf (in Pb)",
    "abbr": "Pb  ",
    "lat": "48.2081",
    "lng": "15.6237",
    "arrival": "2023-08-18T03:50:00Z",
    "departure": "2023-08-18T03:52:00Z"
  },
  {
    "train_number": "368   ",
    "unit_number": "1116.0231",
    "name": "Wien Meidling (in Wbf)",
    "abbr": "Mi  ",
    "lat": "48.1747",
    "lng": "16.3348",
    "arrival": "2023-08-18T03:27:00Z",
    "departure": "2023-08-18T03:29:00Z"
  },
  {
    "train_number": null,
    "unit_number": "1116.0231",
    "name": "Wien Hauptbahnhof (in Wbf)",
    "abbr": "Wbf ",
    "lat": "48.1747",
    "lng": "16.3348",
    "arrival": null,
    "departure": "2023-08-18T03:21:00Z"
  }
]
