[
  {
    "train_number": "41408 ",
    "unit_number": "1116.0157",
    "name": "Werndorf",
    "abbr": "Wr  ",
    "lat": "46.9171",
    "lng": "15.477",
    "arrival": null,
    "departure": "2023-08-17T21:42:00Z"
  },
  {
    "train_number": "89935 ",
    "unit_number": "1116.0157",
    "name": "Spielfeld-Straß",
    "abbr": "Sd  ",
    "lat": "46.71",
    "lng": "15.6282",
    "arrival": "2023-08-17T20:40:00Z",
    "departure": "2023-08-17T21:10:00Z"
  },
  {
    "train_number": "89935 ",
    "unit_number": "1116.0157",
    "name": "Werndorf",
    "abbr": "Wr  ",
    "lat": "46.9171",
    "lng": "15.477",
    "arrival": null,
    "departure": "2023-08-17T20:18:00Z"
  },
  {
    "train_number": null,
    "unit_number": "1116.0157",
    "name": "Graz Hbf (in G)",
    "abbr": "G   ",
    "lat": "47.0733",
    "lng": "15.4163",
    "arrival": null,
    "departure": "2023-08-17T20:06:00Z"
  },
  {
    "train_number": "54754 ",
    "unit_number": "1116.0157",
    "name": "Leoben Hbf (in Leb)",
    "abbr": "Leb ",
    "lat": "47.3867",
    "lng": "15.0898",
    "arrival": null,
    "departure": "2023-08-17T15:15:00Z"
  },
  {
    "train_number": "54754 ",
    "unit_number": "1116.0157",
    "name": "Zeltweg",
    "abbr": "Zg  ",
    "lat": "47.1887",
    "lng": "14.7425",
    "arrival": null,
    "departure": "2023-08-17T14:38:00Z"
  },
  {
    "train_number": "54754 ",
    "unit_number": "1116.0157",
    "name": "St.Veit a.d.Glan (in Vps)",
    "abbr": "Vps ",
    "lat": "46.7704",
    "lng": "14.3672",
    "arrival": null,
    "departure": "2023-08-17T13:17:00Z"
  },
  {
    "train_number": "54754 ",
    "unit_number": "1116.0157",
    "name": "Klagenfurt Hbf (in Kt)",
    "abbr": "Kt  ",
    "lat": "46.6156",
    "lng": "14.3137",
    "arrival": null,
    "departure": "2023-08-17T13:00:00Z"
  },
  {
    "train_number": "54754 ",
    "unit_number": "1116.0157",
    "name": "Villach Hbf",
    "abbr": "Vb  ",
    "lat": "46.6186",
    "lng": "13.8484",
    "arrival": null,
    "departure": "2023-08-17T12:32:00Z"
  },
  {
    "train_number": null,
    "unit_number": "1116.0157",
    "name": "Villach Süd Gvbf Ausfgr",
    "abbr": "Va  ",
    "lat": "46.5674",
    "lng": "13.8238",
    "arrival": null,
    "departure": "2023-08-17T12:23:00Z"
  },
  {
    "train_number": "76563 ",
    "unit_number": "1116.0157",
    "name": "Villach Hbf",
    "abbr": "Vb  ",
    "lat": "46.6186",
    "lng": "13.8484",
    "arrival": null,
    "departure": "2023-08-17T12:03:00Z"
  },
  {
    "train_number": "76562 ",
    "unit_number": "1116.0157",
    "name": "Villach Hbf",
    "abbr": "Vb  ",
    "lat": "46.6186",
    "lng": "13.8484",
    "arrival": null,
    "departure": "2023-08-17T09:17:00Z"
  },
  {
    "train_number": null,
    "unit_number": "1116.0157",
    "name": "Villach Süd Gvbf Ausfgr",
    "abbr": "Va  ",
    "lat": "46.5674",
    "lng": "13.8238",
    "arrival": null,
    "departure": "2023-08-17T09:06:00Z"
  },
  {
    "train_number": "54509 ",
    "unit_number": "1116.0157",
    "name": "Villach Hbf",
    "abbr": "Vb  ",
    "lat": "46.6186",
    "lng": "13.8484",
    "arrival": null,
    "departure": "2023-08-17T07:00:00Z"
  },
  {
    "train_number": "54509 ",
    "unit_number": "1116.0157",
    "name": "Klagenfurt Hbf (in Kt)",
    "abbr": "Kt  ",
    "lat": "46.6156",
    "lng": "14.3137",
    "arrival": null,
    "departure": "2023-08-17T06:25:00Z"
  },
  {
    "train_number": "54509 ",
    "unit_number": "1116.0157",
    "name": "St.Veit a.d.Glan (in Vps)",
    "abbr": "Vps ",
    "lat": "46.7704",
    "lng": "14.3672",
    "arrival": null,
    "departure": "2023-08-17T05:46:00Z"
  },
  {
    "train_number": "54509 ",
    "unit_number": "1116.0157",
    "name": "Zeltweg",
    "abbr": "Zg  ",
    "lat": "47.1887",
    "lng": "14.7425",
    "arrival": null,
    "departure": "2023-08-17T04:20:00Z"
  },
  {
    "train_number": "54509 ",
    "unit_number": "1116.0157",
    "name": "Leoben Hbf (in Leb)",
    "abbr": "Leb ",
    "lat": "47.3867",
    "lng": "15.0898",
    "arrival": null,
    "departure": "2023-08-17T03:33:00Z"
  },
  {
    "train_number": "54509 ",
    "unit_number": "1116.0157",
    "name": "Bruck a.d.Mur (in Bm)",
    "abbr": "Bm  ",
    "lat": "47.4134",
    "lng": "15.2797",
    "arrival": null,
    "departure": "2023-08-17T03:15:00Z"
  },
  {
    "train_number": "54509 ",
    "unit_number": "1116.0157",
    "name": "Mürzzuschlag (in Mz)",
    "abbr": "Mz  ",
    "lat": "47.6079",
    "lng": "15.677",
    "arrival": null,
    "departure": "2023-08-17T02:41:00Z"
  }
]
