[
  {
    "train_number": "765   ",
    "unit_number": "1116.0153",
    "name": "Pöchlarn",
    "abbr": "Poe ",
    "lat": "48.208",
    "lng": "15.2148",
    "arrival": null,
    "departure": "2023-10-25T09:49:00Z"
  },
  {
    "train_number": "765   ",
    "unit_number": "1116.0153",
    "name": "Ybbs a.d.Donau",
    "abbr": "Y   ",
    "lat": "48.158",
    "lng": "15.0981",
    "arrival": null,
    "departure": "2023-10-25T09:45:00Z"
  },
  {
    "train_number": "765   ",
    "unit_number": "1116.0153",
    "name": "Amstetten (in Ams)",
    "abbr": "Ams ",
    "lat": "48.1215",
    "lng": "14.8792",
    "arrival": null,
    "departure": "2023-10-25T09:40:00Z"
  },
  {
    "train_number": "765   ",
    "unit_number": "1116.0153",
    "name": "St.Valentin (in Sv)",
    "abbr": "Sv  ",
    "lat": "48.1784",
    "lng": "14.5219",
    "arrival": null,
    "departure": "2023-10-25T09:28:00Z"
  },
  {
    "train_number": "765   ",
    "unit_number": "1116.0153",
    "name": "Linz Hbf",
    "abbr": "Lz  ",
    "lat": "48.2908",
    "lng": "14.2927",
    "arrival": "2023-10-25T09:15:00Z",
    "departure": "2023-10-25T09:17:00Z"
  },
  {
    "train_number": "765   ",
    "unit_number": "1116.0153",
    "name": "Wels Hbf",
    "abbr": "We  ",
    "lat": "48.1662",
    "lng": "14.0273",
    "arrival": null,
    "departure": "2023-10-25T09:00:00Z"
  },
  {
    "train_number": "765   ",
    "unit_number": "1116.0153",
    "name": "Attnang-Puchheim",
    "abbr": "At  ",
    "lat": "48.0112",
    "lng": "13.7193",
    "arrival": null,
    "departure": "2023-10-25T08:48:00Z"
  },
  {
    "train_number": "765   ",
    "unit_number": "1116.0153",
    "name": "Steindorf b.Straßw. (in Nst)",
    "abbr": "Nst ",
    "lat": "47.9676",
    "lng": "13.2406",
    "arrival": null,
    "departure": "2023-10-25T08:23:00Z"
  },
  {
    "train_number": "368   ",
    "unit_number": "1116.0153",
    "name": "Salzburg Hbf (in Sb)",
    "abbr": "Sb  ",
    "lat": "47.8135",
    "lng": "13.0466",
    "arrival": "2023-10-25T05:53:00Z",
    "departure": "2023-10-25T08:07:00Z"
  },
  {
    "train_number": "368   ",
    "unit_number": "1116.0153",
    "name": "Steindorf b.Straßw. (in Nst)",
    "abbr": "Nst ",
    "lat": "47.9676",
    "lng": "13.2406",
    "arrival": null,
    "departure": "2023-10-25T05:34:00Z"
  },
  {
    "train_number": "368   ",
    "unit_number": "1116.0153",
    "name": "Attnang-Puchheim",
    "abbr": "At  ",
    "lat": "48.0112",
    "lng": "13.7193",
    "arrival": null,
    "departure": "2023-10-25T05:11:00Z"
  },
  {
    "train_number": "368   ",
    "unit_number": "1116.0153",
    "name": "Wels Hbf",
    "abbr": "We  ",
    "lat": "48.1662",
    "lng": "14.0273",
    "arrival": null,
    "departure": "2023-10-25T04:58:00Z"
  },
  {
    "train_number": "368   ",
    "unit_number": "1116.0153",
    "name": "Linz Hbf",
    "abbr": "Lz  ",
    "lat": "48.2908",
    "lng": "14.2927",
    "arrival": "2023-10-25T04:43:00Z",
    "departure": "2023-10-25T04:45:00Z"
  },
  {
    "train_number": "368   ",
    "unit_number": "1116.0153",
    "name": "St.Valentin (in Sv)",
    "abbr": "Sv  ",
    "lat": "48.1784",
    "lng": "14.5219",
    "arrival": null,
    "departure": "2023-10-25T04:31:00Z"
  },
  {
    "train_number": "368   ",
    "unit_number": "1116.0153",
    "name": "Amstetten (in Ams)",
    "abbr": "Ams ",
    "lat": "48.1215",
    "lng": "14.8792",
    "arrival": null,
    "departure": "2023-10-25T04:19:00Z"
  },
  {
    "train_number": "368   ",
    "unit_number": "1116.0153",
    "name": "Ybbs a.d.Donau",
    "abbr": "Y   ",
    "lat": "48.158",
    "lng": "15.0981",
    "arrival": null,
    "departure": "2023-10-25T04:14:00Z"
  },
  {
    "train_number": "368   ",
    "unit_number": "1116.0153",
    "name": "Pöchlarn",
    "abbr": "Poe ",
    "lat": "48.208",
    "lng": "15.2148",
    "arrival": null,
    "departure": "2023-10-25T04:10:00Z"
  },
  {
    "train_number": "368   ",
    "unit_number": "1116.0153",
    "name": "St.Pölten Hbf (in Pb)",
    "abbr": "Pb  ",
    "lat": "48.2081",
    "lng": "15.6237",
    "arrival": "2023-10-25T03:57:00Z",
    "departure": "2023-10-25T03:59:00Z"
  },
  {
    "train_number": "368   ",
    "unit_number": "1116.0153",
    "name": "Wien Meidling (in Wbf)",
    "abbr": "Mi  ",
    "lat": "48.1747",
    "lng": "16.3348",
    "arrival": "2023-10-25T03:33:00Z",
    "departure": "2023-10-25T03:35:00Z"
  },
  {
    "train_number": "632   ",
    "unit_number": "1116.0153",
    "name": "Wien Hauptbahnhof (in Wbf)",
    "abbr": "Wbf ",
    "lat": "48.185",
    "lng": "16.3778",
    "arrival": "2023-10-24T19:42:00Z",
    "departure": "2023-10-25T03:28:00Z"
  }
]
