[
  {
    "train_number": "45814 ",
    "unit_number": "1116.0016",
    "name": "Schwarzach-St.Veit",
    "abbr": "Swa ",
    "lat": "47.3186",
    "lng": "13.1561",
    "arrival": "2023-08-17T19:08:00Z",
    "departure": "2023-08-17T19:57:00Z"
  },
  {
    "train_number": null,
    "unit_number": "1116.0016",
    "name": "Villach Süd Gvbf Ausfgr",
    "abbr": "Va  ",
    "lat": "46.5674",
    "lng": "13.8238",
    "arrival": null,
    "departure": "2023-08-17T17:22:00Z"
  },
  {
    "train_number": "55509 ",
    "unit_number": "1116.0016",
    "name": "Villach Hbf",
    "abbr": "Vb  ",
    "lat": "46.6186",
    "lng": "13.8484",
    "arrival": null,
    "departure": "2023-08-17T15:59:00Z"
  },
  {
    "train_number": "55509 ",
    "unit_number": "1116.0016",
    "name": "Klagenfurt Hbf (in Kt)",
    "abbr": "Kt  ",
    "lat": "46.6156",
    "lng": "14.3137",
    "arrival": null,
    "departure": "2023-08-17T15:11:00Z"
  },
  {
    "train_number": "55509 ",
    "unit_number": "1116.0016",
    "name": "St.Veit a.d.Glan (in Vps)",
    "abbr": "Vps ",
    "lat": "46.7704",
    "lng": "14.3672",
    "arrival": null,
    "departure": "2023-08-17T14:49:00Z"
  },
  {
    "train_number": "55509 ",
    "unit_number": "1116.0016",
    "name": "Zeltweg",
    "abbr": "Zg  ",
    "lat": "47.1887",
    "lng": "14.7425",
    "arrival": null,
    "departure": "2023-08-17T13:29:00Z"
  },
  {
    "train_number": "55509 ",
    "unit_number": "1116.0016",
    "name": "Leoben Hbf (in Leb)",
    "abbr": "Leb ",
    "lat": "47.3867",
    "lng": "15.0898",
    "arrival": null,
    "departure": "2023-08-17T12:42:00Z"
  },
  {
    "train_number": "55509 ",
    "unit_number": "1116.0016",
    "name": "Bruck a.d.Mur (in Bm)",
    "abbr": "Bm  ",
    "lat": "47.4134",
    "lng": "15.2797",
    "arrival": null,
    "departure": "2023-08-17T12:28:00Z"
  },
  {
    "train_number": "55509 ",
    "unit_number": "1116.0016",
    "name": "Mürzzuschlag (in Mz)",
    "abbr": "Mz  ",
    "lat": "47.6079",
    "lng": "15.677",
    "arrival": null,
    "departure": "2023-08-17T11:58:00Z"
  },
  {
    "train_number": "55509 ",
    "unit_number": "1116.0016",
    "name": "Payerbach-Reichenau",
    "abbr": "Pr  ",
    "lat": "47.696",
    "lng": "15.8632",
    "arrival": null,
    "departure": "2023-08-17T11:21:00Z"
  },
  {
    "train_number": "55509 ",
    "unit_number": "1116.0016",
    "name": "Neunkirchen N.Ö.",
    "abbr": "Nek ",
    "lat": "47.731",
    "lng": "16.0826",
    "arrival": null,
    "departure": "2023-08-17T10:53:00Z"
  },
  {
    "train_number": "55509 ",
    "unit_number": "1116.0016",
    "name": "Wr. Neust.Hbf-Ausf. (in Nb)",
    "abbr": "Nr  ",
    "lat": "47.8113",
    "lng": "16.2337",
    "arrival": "2023-08-17T09:55:00Z",
    "departure": "2023-08-17T10:35:00Z"
  },
  {
    "train_number": "55509 ",
    "unit_number": "1116.0016",
    "name": "Wr. Neustadt Hbf (in Nb)",
    "abbr": "Nb  ",
    "lat": "47.8113",
    "lng": "16.2337",
    "arrival": null,
    "departure": "2023-08-17T09:52:00Z"
  },
  {
    "train_number": "55509 ",
    "unit_number": "1116.0016",
    "name": "Ebenfurth (in Ef)",
    "abbr": "Ef  ",
    "lat": "47.8777",
    "lng": "16.3621",
    "arrival": null,
    "departure": "2023-08-17T09:40:00Z"
  },
  {
    "train_number": null,
    "unit_number": "1116.0016",
    "name": "Wien Zvbf (in Zur)",
    "abbr": "Zur ",
    "lat": "48.1453",
    "lng": "16.43",
    "arrival": null,
    "departure": "2023-08-17T09:04:00Z"
  },
  {
    "train_number": "18434 ",
    "unit_number": "1116.0016",
    "name": "Ebenfurth (in Ef)",
    "abbr": "Ef  ",
    "lat": "47.8777",
    "lng": "16.3621",
    "arrival": null,
    "departure": "2023-08-17T06:37:00Z"
  },
  {
    "train_number": null,
    "unit_number": "1116.0016",
    "name": "Wr. Neustadt Hbf (in Nb)",
    "abbr": "Nb  ",
    "lat": "47.8113",
    "lng": "16.2337",
    "arrival": null,
    "departure": "2023-08-17T06:30:00Z"
  },
  {
    "train_number": "54507 ",
    "unit_number": "1116.0016",
    "name": "Wr. Neustadt Hbf (in Nb)",
    "abbr": "Nb  ",
    "lat": "47.8113",
    "lng": "16.2337",
    "arrival": null,
    "departure": "2023-08-17T05:50:00Z"
  },
  {
    "train_number": "54507 ",
    "unit_number": "1116.0016",
    "name": "Ebenfurth (in Ef)",
    "abbr": "Ef  ",
    "lat": "47.8777",
    "lng": "16.3621",
    "arrival": null,
    "departure": "2023-08-17T05:38:00Z"
  },
  {
    "train_number": "18442 ",
    "unit_number": "1116.0016",
    "name": "Wien Zvbf (in Zur)",
    "abbr": "Zur ",
    "lat": "48.1453",
    "lng": "16.43",
    "arrival": "2023-08-16T18:55:00Z",
    "departure": "2023-08-17T05:03:00Z"
  }
]
