[
  {
    "train_number": "91921 ",
    "unit_number": "1116.0157",
    "name": "St.Valentin (in Sv)",
    "abbr": "Sv  ",
    "lat": "48.1784",
    "lng": "14.5219",
    "arrival": "2023-10-25T00:23:00Z",
    "departure": "2023-10-25T00:28:00Z"
  },
  {
    "train_number": "91921 ",
    "unit_number": "1116.0157",
    "name": "Selzthal (in Sl)",
    "abbr": "Sl  ",
    "lat": "47.5505",
    "lng": "14.3134",
    "arrival": "2023-10-24T22:44:00Z",
    "departure": "2023-10-24T22:49:00Z"
  },
  {
    "train_number": "91921 ",
    "unit_number": "1116.0157",
    "name": "St.Michael (in M)",
    "abbr": "M   ",
    "lat": "47.3445",
    "lng": "15.0103",
    "arrival": null,
    "departure": "2023-10-24T22:00:00Z"
  },
  {
    "train_number": "91921 ",
    "unit_number": "1116.0157",
    "name": "Zeltweg",
    "abbr": "Zg  ",
    "lat": "47.1887",
    "lng": "14.7425",
    "arrival": null,
    "departure": "2023-10-24T21:36:00Z"
  },
  {
    "train_number": "91921 ",
    "unit_number": "1116.0157",
    "name": "St.Veit a.d.Glan (in Vps)",
    "abbr": "Vps ",
    "lat": "46.7704",
    "lng": "14.3672",
    "arrival": null,
    "departure": "2023-10-24T20:34:00Z"
  },
  {
    "train_number": "91921 ",
    "unit_number": "1116.0157",
    "name": "Villach Hbf-Ostbf (in Vb)",
    "abbr": "Vbo ",
    "lat": "46.62",
    "lng": "13.8617",
    "arrival": "2023-10-24T19:53:00Z",
    "departure": "2023-10-24T19:58:00Z"
  },
  {
    "train_number": "91921 ",
    "unit_number": "1116.0157",
    "name": "Villach Hbf",
    "abbr": "Vb  ",
    "lat": "46.6186",
    "lng": "13.8484",
    "arrival": null,
    "departure": "2023-10-24T19:51:00Z"
  },
  {
    "train_number": null,
    "unit_number": "1116.0157",
    "name": "Villach Westbf",
    "abbr": "Vf  ",
    "lat": "46.6092",
    "lng": "13.8407",
    "arrival": null,
    "departure": "2023-10-24T16:35:00Z"
  },
  {
    "train_number": "54535 ",
    "unit_number": "1116.0157",
    "name": "Schwarzach-St.Veit",
    "abbr": "Swa ",
    "lat": "47.3186",
    "lng": "13.1561",
    "arrival": "2023-10-24T12:15:00Z",
    "departure": "2023-10-24T12:26:00Z"
  },
  {
    "train_number": "54535 ",
    "unit_number": "1116.0157",
    "name": "Bischofshofen (in Bo)",
    "abbr": "Bo  ",
    "lat": "47.42",
    "lng": "13.2199",
    "arrival": null,
    "departure": "2023-10-24T11:59:00Z"
  },
  {
    "train_number": "54535 ",
    "unit_number": "1116.0157",
    "name": "Salzburg Gnigl-Einfgr. (in Sb)",
    "abbr": "Sre ",
    "lat": "47.8075",
    "lng": "13.0687",
    "arrival": null,
    "departure": "2023-10-24T11:19:00Z"
  },
  {
    "train_number": "54843 ",
    "unit_number": "1116.0157",
    "name": "Salzburg Gnigl-Vbf (in Sb)",
    "abbr": "Sr  ",
    "lat": "47.8167",
    "lng": "13.0639",
    "arrival": "2023-10-24T10:10:00Z",
    "departure": "2023-10-24T11:14:00Z"
  },
  {
    "train_number": "54843 ",
    "unit_number": "1116.0157",
    "name": "Salzburg Gnigl-Einfgr. (in Sb)",
    "abbr": "Sre ",
    "lat": "47.8075",
    "lng": "13.0687",
    "arrival": null,
    "departure": "2023-10-24T10:07:00Z"
  },
  {
    "train_number": "54843 ",
    "unit_number": "1116.0157",
    "name": "Bischofshofen (in Bo)",
    "abbr": "Bo  ",
    "lat": "47.42",
    "lng": "13.2199",
    "arrival": null,
    "departure": "2023-10-24T09:21:00Z"
  },
  {
    "train_number": "54843 ",
    "unit_number": "1116.0157",
    "name": "Schwarzach-St.Veit",
    "abbr": "Swa ",
    "lat": "47.3186",
    "lng": "13.1561",
    "arrival": "2023-10-24T08:32:00Z",
    "departure": "2023-10-24T09:06:00Z"
  },
  {
    "train_number": "54843 ",
    "unit_number": "1116.0157",
    "name": "Kitzbühel",
    "abbr": "Kzb ",
    "lat": "47.4542",
    "lng": "12.391",
    "arrival": null,
    "departure": "2023-10-24T07:15:00Z"
  },
  {
    "train_number": "54843 ",
    "unit_number": "1116.0157",
    "name": "Wörgl Hbf (in W)",
    "abbr": "W   ",
    "lat": "47.4912",
    "lng": "12.0603",
    "arrival": "2023-10-24T06:01:00Z",
    "departure": "2023-10-24T06:30:00Z"
  },
  {
    "train_number": "54843 ",
    "unit_number": "1116.0157",
    "name": "Wörgl Hbf-T. N. (in W)",
    "abbr": "Wtn ",
    "lat": "47.4824",
    "lng": "12.033",
    "arrival": null,
    "departure": "2023-10-24T05:58:00Z"
  },
  {
    "train_number": "88413 ",
    "unit_number": "1116.0157",
    "name": "Hall in Tirol",
    "abbr": "H   ",
    "lat": "47.2769",
    "lng": "11.5013",
    "arrival": "2023-10-24T05:04:00Z",
    "departure": "2023-10-24T05:25:00Z"
  },
  {
    "train_number": "18343 ",
    "unit_number": "1116.0157",
    "name": "Innsbruck Hbf  (in I)",
    "abbr": "I   ",
    "lat": "47.2634",
    "lng": "11.4017",
    "arrival": "2023-10-23T17:38:00Z",
    "departure": "2023-10-24T04:55:00Z"
  }
]
