[
  {
    "train_number": "45801 ",
    "unit_number": "1116.0157",
    "name": "Schwarzach-St.Veit",
    "abbr": "Swa ",
    "lat": "47.3186",
    "lng": "13.1561",
    "arrival": "2023-10-22T01:28:00Z",
    "departure": "2023-10-22T01:37:00Z"
  },
  {
    "train_number": "45801 ",
    "unit_number": "1116.0157",
    "name": "Bischofshofen (in Bo)",
    "abbr": "Bo  ",
    "lat": "47.42",
    "lng": "13.2199",
    "arrival": null,
    "departure": "2023-10-22T01:15:00Z"
  },
  {
    "train_number": "45801 ",
    "unit_number": "1116.0157",
    "name": "Salzburg Gnigl-Einfgr. (in Sb)",
    "abbr": "Sre ",
    "lat": "47.8075",
    "lng": "13.0687",
    "arrival": null,
    "departure": "2023-10-22T00:38:00Z"
  },
  {
    "train_number": "45801 ",
    "unit_number": "1116.0157",
    "name": "Salzburg Gnigl-Vbf (in Sb)",
    "abbr": "Sr  ",
    "lat": "47.8167",
    "lng": "13.0639",
    "arrival": "2023-10-22T00:23:00Z",
    "departure": "2023-10-22T00:33:00Z"
  },
  {
    "train_number": "45801 ",
    "unit_number": "1116.0157",
    "name": "Salzburg Hbf (in Sb)",
    "abbr": "Sb  ",
    "lat": "47.8135",
    "lng": "13.0466",
    "arrival": "2023-10-22T00:18:00Z",
    "departure": "2023-10-22T00:18:00Z"
  },
  {
    "train_number": "45801 ",
    "unit_number": "1116.0157",
    "name": "Salzburg Liefering (in Sb)",
    "abbr": "Lfg ",
    "lat": "47.8229",
    "lng": "13.0021",
    "arrival": null,
    "departure": "2023-10-22T00:13:00Z"
  },
  {
    "train_number": "45801 ",
    "unit_number": "1116.0157",
    "name": "Freilassing",
    "abbr": "MFL ",
    "lat": "47.8368",
    "lng": "12.9764",
    "arrival": "2023-10-22T00:11:00Z",
    "departure": "2023-10-22T00:11:00Z"
  },
  {
    "train_number": "45801 ",
    "unit_number": "1116.0157",
    "name": "Traunstein",
    "abbr": "MTS ",
    "lat": "47.8697",
    "lng": "12.6391",
    "arrival": null,
    "departure": "2023-10-21T23:49:00Z"
  },
  {
    "train_number": "45801 ",
    "unit_number": "1116.0157",
    "name": "Rosenheim",
    "abbr": "MRO ",
    "lat": "47.8511",
    "lng": "12.1196",
    "arrival": null,
    "departure": "2023-10-21T23:10:00Z"
  },
  {
    "train_number": "45808 ",
    "unit_number": "1116.0157",
    "name": "Kufstein",
    "abbr": "K   ",
    "lat": "47.5833",
    "lng": "12.1657",
    "arrival": "2023-10-21T10:34:00Z",
    "departure": "2023-10-21T10:45:00Z"
  },
  {
    "train_number": "45808 ",
    "unit_number": "1116.0157",
    "name": "Wörgl Hbf (in W)",
    "abbr": "W   ",
    "lat": "47.4912",
    "lng": "12.0603",
    "arrival": "2023-10-21T09:52:00Z",
    "departure": "2023-10-21T10:22:00Z"
  },
  {
    "train_number": "45808 ",
    "unit_number": "1116.0157",
    "name": "Kitzbühel",
    "abbr": "Kzb ",
    "lat": "47.4542",
    "lng": "12.391",
    "arrival": null,
    "departure": "2023-10-21T09:20:00Z"
  },
  {
    "train_number": "45808 ",
    "unit_number": "1116.0157",
    "name": "Schwarzach-St.Veit",
    "abbr": "Swa ",
    "lat": "47.3186",
    "lng": "13.1561",
    "arrival": "2023-10-21T07:39:00Z",
    "departure": "2023-10-21T07:59:00Z"
  },
  {
    "train_number": null,
    "unit_number": "1116.0157",
    "name": "Villach Süd Gvbf Ausfgr",
    "abbr": "Va  ",
    "lat": "46.5674",
    "lng": "13.8238",
    "arrival": null,
    "departure": "2023-10-21T05:37:00Z"
  }
]
