[
  {
    "train_number": "2265  ",
    "unit_number": "1116.0165",
    "name": "Satov",
    "abbr": "S   ",
    "lat": "48.7808",
    "lng": "16.026",
    "arrival": "2023-09-15T17:06:00Z",
    "departure": "2023-09-15T17:06:00Z"
  },
  {
    "train_number": "2246  ",
    "unit_number": "1116.0165",
    "name": "Satov",
    "abbr": "S   ",
    "lat": "48.7808",
    "lng": "16.026",
    "arrival": "2023-09-15T16:25:00Z",
    "departure": "2023-09-15T16:25:00Z"
  },
  {
    "train_number": "2246  ",
    "unit_number": "1116.0165",
    "name": "Retz",
    "abbr": "R   ",
    "lat": "48.7539",
    "lng": "15.9574",
    "arrival": "2023-09-15T16:12:00Z",
    "departure": "2023-09-15T16:17:00Z"
  },
  {
    "train_number": "2246  ",
    "unit_number": "1116.0165",
    "name": "Hollabrunn",
    "abbr": "Oh  ",
    "lat": "48.563",
    "lng": "16.0722",
    "arrival": "2023-09-15T15:44:00Z",
    "departure": "2023-09-15T15:45:00Z"
  },
  {
    "train_number": "2246  ",
    "unit_number": "1116.0165",
    "name": "Stockerau (in Su)",
    "abbr": "Su  ",
    "lat": "48.3824",
    "lng": "16.2126",
    "arrival": "2023-09-15T15:27:00Z",
    "departure": "2023-09-15T15:28:00Z"
  },
  {
    "train_number": "2246  ",
    "unit_number": "1116.0165",
    "name": "Korneuburg",
    "abbr": "Ko  ",
    "lat": "48.3429",
    "lng": "16.3289",
    "arrival": "2023-09-15T15:19:00Z",
    "departure": "2023-09-15T15:20:00Z"
  },
  {
    "train_number": "2246  ",
    "unit_number": "1116.0165",
    "name": "Floridsdorf (in F)",
    "abbr": "F   ",
    "lat": "48.2568",
    "lng": "16.4004",
    "arrival": "2023-09-15T15:09:00Z",
    "departure": "2023-09-15T15:11:00Z"
  },
  {
    "train_number": "2246  ",
    "unit_number": "1116.0165",
    "name": "Wien Meidling (in Wbf)",
    "abbr": "Mi  ",
    "lat": "48.1747",
    "lng": "16.3348",
    "arrival": "2023-09-15T14:43:00Z",
    "departure": "2023-09-15T14:44:00Z"
  },
  {
    "train_number": "2246  ",
    "unit_number": "1116.0165",
    "name": "Mödling",
    "abbr": "Md  ",
    "lat": "48.0858",
    "lng": "16.2958",
    "arrival": "2023-09-15T14:29:00Z",
    "departure": "2023-09-15T14:30:00Z"
  },
  {
    "train_number": "2246  ",
    "unit_number": "1116.0165",
    "name": "Leobersdorf",
    "abbr": "Lb  ",
    "lat": "47.9375",
    "lng": "16.2313",
    "arrival": "2023-09-15T14:13:00Z",
    "departure": "2023-09-15T14:17:00Z"
  },
  {
    "train_number": "2243  ",
    "unit_number": "1116.0165",
    "name": "Wr. Neustadt Hbf (in Nb)",
    "abbr": "Nb  ",
    "lat": "47.8113",
    "lng": "16.2337",
    "arrival": "2023-09-15T13:54:00Z",
    "departure": "2023-09-15T14:04:00Z"
  },
  {
    "train_number": "2243  ",
    "unit_number": "1116.0165",
    "name": "Leobersdorf",
    "abbr": "Lb  ",
    "lat": "47.9375",
    "lng": "16.2313",
    "arrival": "2023-09-15T13:41:00Z",
    "departure": "2023-09-15T13:45:00Z"
  },
  {
    "train_number": "2243  ",
    "unit_number": "1116.0165",
    "name": "Mödling",
    "abbr": "Md  ",
    "lat": "48.0858",
    "lng": "16.2958",
    "arrival": "2023-09-15T13:28:00Z",
    "departure": "2023-09-15T13:29:00Z"
  },
  {
    "train_number": "2243  ",
    "unit_number": "1116.0165",
    "name": "Wien Meidling (in Wbf)",
    "abbr": "Mi  ",
    "lat": "48.1747",
    "lng": "16.3348",
    "arrival": "2023-09-15T13:14:00Z",
    "departure": "2023-09-15T13:15:00Z"
  },
  {
    "train_number": "84507 ",
    "unit_number": "1116.0165",
    "name": "Floridsdorf (in F)",
    "abbr": "F   ",
    "lat": "48.2568",
    "lng": "16.4004",
    "arrival": "2023-09-15T12:43:00Z",
    "departure": "2023-09-15T12:49:00Z"
  },
  {
    "train_number": "2310  ",
    "unit_number": "1116.0165",
    "name": "Floridsdorf (in F)",
    "abbr": "F   ",
    "lat": "48.2568",
    "lng": "16.4004",
    "arrival": "2023-09-15T05:52:00Z",
    "departure": "2023-09-15T05:59:00Z"
  },
  {
    "train_number": "2310  ",
    "unit_number": "1116.0165",
    "name": "Wien Meidling (in Wbf)",
    "abbr": "Mi  ",
    "lat": "48.1747",
    "lng": "16.3348",
    "arrival": "2023-09-15T05:26:00Z",
    "departure": "2023-09-15T05:27:00Z"
  },
  {
    "train_number": "2310  ",
    "unit_number": "1116.0165",
    "name": "Mödling",
    "abbr": "Md  ",
    "lat": "48.0858",
    "lng": "16.2958",
    "arrival": "2023-09-15T05:14:00Z",
    "departure": "2023-09-15T05:15:00Z"
  },
  {
    "train_number": "2310  ",
    "unit_number": "1116.0165",
    "name": "Leobersdorf",
    "abbr": "Lb  ",
    "lat": "47.9375",
    "lng": "16.2313",
    "arrival": "2023-09-15T04:57:00Z",
    "departure": "2023-09-15T04:58:00Z"
  },
  {
    "train_number": "Blockz",
    "unit_number": "1116.0165",
    "name": "Wr. Neustadt Hbf (in Nb)",
    "abbr": "Nb  ",
    "lat": "47.8113",
    "lng": "16.2337",
    "arrival": "2023-09-15T04:35:00Z",
    "departure": "2023-09-15T04:45:00Z"
  }
]
