[
  {
    "train_number": "63    ",
    "unit_number": "1116.0231",
    "name": "St.Pölten Hbf (in Pb)",
    "abbr": "Pb  ",
    "lat": "48.2081",
    "lng": "15.6237",
    "arrival": "2023-10-10T11:01:00Z",
    "departure": "2023-10-10T11:03:00Z"
  },
  {
    "train_number": "63    ",
    "unit_number": "1116.0231",
    "name": "Pöchlarn",
    "abbr": "Poe ",
    "lat": "48.208",
    "lng": "15.2148",
    "arrival": null,
    "departure": "2023-10-10T10:49:00Z"
  },
  {
    "train_number": "63    ",
    "unit_number": "1116.0231",
    "name": "Ybbs a.d.Donau",
    "abbr": "Y   ",
    "lat": "48.158",
    "lng": "15.0981",
    "arrival": null,
    "departure": "2023-10-10T10:45:00Z"
  },
  {
    "train_number": "63    ",
    "unit_number": "1116.0231",
    "name": "Amstetten (in Ams)",
    "abbr": "Ams ",
    "lat": "48.1215",
    "lng": "14.8792",
    "arrival": null,
    "departure": "2023-10-10T10:40:00Z"
  },
  {
    "train_number": "63    ",
    "unit_number": "1116.0231",
    "name": "St.Valentin (in Sv)",
    "abbr": "Sv  ",
    "lat": "48.1784",
    "lng": "14.5219",
    "arrival": null,
    "departure": "2023-10-10T10:28:00Z"
  },
  {
    "train_number": "63    ",
    "unit_number": "1116.0231",
    "name": "Linz Hbf",
    "abbr": "Lz  ",
    "lat": "48.2908",
    "lng": "14.2927",
    "arrival": "2023-10-10T10:15:00Z",
    "departure": "2023-10-10T10:17:00Z"
  },
  {
    "train_number": "63    ",
    "unit_number": "1116.0231",
    "name": "Wels Hbf",
    "abbr": "We  ",
    "lat": "48.1662",
    "lng": "14.0273",
    "arrival": null,
    "departure": "2023-10-10T10:00:00Z"
  },
  {
    "train_number": "63    ",
    "unit_number": "1116.0231",
    "name": "Attnang-Puchheim",
    "abbr": "At  ",
    "lat": "48.0112",
    "lng": "13.7193",
    "arrival": null,
    "departure": "2023-10-10T09:48:00Z"
  },
  {
    "train_number": "63    ",
    "unit_number": "1116.0231",
    "name": "Steindorf b.Straßw. (in Nst)",
    "abbr": "Nst ",
    "lat": "47.9676",
    "lng": "13.2406",
    "arrival": null,
    "departure": "2023-10-10T09:23:00Z"
  },
  {
    "train_number": "63    ",
    "unit_number": "1116.0231",
    "name": "Salzburg Hbf (in Sb)",
    "abbr": "Sb  ",
    "lat": "47.8135",
    "lng": "13.0466",
    "arrival": "2023-10-10T08:58:00Z",
    "departure": "2023-10-10T09:07:00Z"
  },
  {
    "train_number": "63    ",
    "unit_number": "1116.0231",
    "name": "Salzburg Liefering (in Sb)",
    "abbr": "Lfg ",
    "lat": "47.8229",
    "lng": "13.0021",
    "arrival": null,
    "departure": "2023-10-10T08:54:00Z"
  },
  {
    "train_number": "63    ",
    "unit_number": "1116.0231",
    "name": "Freilassing",
    "abbr": "MFL ",
    "lat": "47.8368",
    "lng": "12.9764",
    "arrival": "2023-10-10T08:51:00Z",
    "departure": "2023-10-10T08:52:00Z"
  },
  {
    "train_number": "63    ",
    "unit_number": "1116.0231",
    "name": "Traunstein",
    "abbr": "MTS ",
    "lat": "47.8697",
    "lng": "12.6391",
    "arrival": null,
    "departure": "2023-10-10T08:35:00Z"
  },
  {
    "train_number": "63    ",
    "unit_number": "1116.0231",
    "name": "Rosenheim",
    "abbr": "MRO ",
    "lat": "47.8511",
    "lng": "12.1196",
    "arrival": null,
    "departure": "2023-10-10T08:05:00Z"
  },
  {
    "train_number": "1298  ",
    "unit_number": "1116.0231",
    "name": "München Hauptbahnhof",
    "abbr": "MH  ",
    "lat": "48.1399",
    "lng": "11.5604",
    "arrival": "2023-10-10T06:28:00Z",
    "departure": "2023-10-10T07:30:00Z"
  },
  {
    "train_number": "1298  ",
    "unit_number": "1116.0231",
    "name": "Rosenheim",
    "abbr": "MRO ",
    "lat": "47.8511",
    "lng": "12.1196",
    "arrival": "2023-10-10T05:47:00Z",
    "departure": "2023-10-10T05:49:00Z"
  },
  {
    "train_number": "1298  ",
    "unit_number": "1116.0231",
    "name": "Traunstein",
    "abbr": "MTS ",
    "lat": "47.8697",
    "lng": "12.6391",
    "arrival": "2023-10-10T05:06:00Z",
    "departure": "2023-10-10T05:07:00Z"
  },
  {
    "train_number": "1298  ",
    "unit_number": "1116.0231",
    "name": "Freilassing",
    "abbr": "MFL ",
    "lat": "47.8368",
    "lng": "12.9764",
    "arrival": "2023-10-10T04:48:00Z",
    "departure": "2023-10-10T04:50:00Z"
  },
  {
    "train_number": "1298  ",
    "unit_number": "1116.0231",
    "name": "Salzburg Liefering (in Sb)",
    "abbr": "Lfg ",
    "lat": "47.8229",
    "lng": "13.0021",
    "arrival": null,
    "departure": "2023-10-10T04:45:00Z"
  },
  {
    "train_number": "1299  ",
    "unit_number": "1116.0231",
    "name": "Salzburg Hbf (in Sb)",
    "abbr": "Sb  ",
    "lat": "47.8135",
    "lng": "13.0466",
    "arrival": "2023-10-09T19:00:00Z",
    "departure": "2023-10-10T04:42:00Z"
  }
]
