[
  {
    "train_number": "596   ",
    "unit_number": "1116.0165",
    "name": "Wels Hbf",
    "abbr": "We  ",
    "lat": "48.1662",
    "lng": "14.0273",
    "arrival": "2023-08-24T08:44:00Z",
    "departure": "2023-08-24T08:46:00Z"
  },
  {
    "train_number": "596   ",
    "unit_number": "1116.0165",
    "name": "Linz Hbf",
    "abbr": "Lz  ",
    "lat": "48.2908",
    "lng": "14.2927",
    "arrival": "2023-08-24T08:28:00Z",
    "departure": "2023-08-24T08:30:00Z"
  },
  {
    "train_number": "596   ",
    "unit_number": "1116.0165",
    "name": "St.Valentin (in Sv)",
    "abbr": "Sv  ",
    "lat": "48.1784",
    "lng": "14.5219",
    "arrival": "2023-08-24T08:14:00Z",
    "departure": "2023-08-24T08:15:00Z"
  },
  {
    "train_number": "596   ",
    "unit_number": "1116.0165",
    "name": "Amstetten (in Ams)",
    "abbr": "Ams ",
    "lat": "48.1215",
    "lng": "14.8792",
    "arrival": "2023-08-24T07:53:00Z",
    "departure": "2023-08-24T08:00:00Z"
  },
  {
    "train_number": "596   ",
    "unit_number": "1116.0165",
    "name": "Ybbs a.d.Donau",
    "abbr": "Y   ",
    "lat": "48.158",
    "lng": "15.0981",
    "arrival": null,
    "departure": "2023-08-24T07:43:00Z"
  },
  {
    "train_number": "596   ",
    "unit_number": "1116.0165",
    "name": "Pöchlarn",
    "abbr": "Poe ",
    "lat": "48.208",
    "lng": "15.2148",
    "arrival": null,
    "departure": "2023-08-24T07:38:00Z"
  },
  {
    "train_number": "596   ",
    "unit_number": "1116.0165",
    "name": "St.Pölten Hbf (in Pb)",
    "abbr": "Pb  ",
    "lat": "48.2081",
    "lng": "15.6237",
    "arrival": "2023-08-24T07:18:00Z",
    "departure": "2023-08-24T07:20:00Z"
  },
  {
    "train_number": "596   ",
    "unit_number": "1116.0165",
    "name": "Wien Meidling (in Wbf)",
    "abbr": "Mi  ",
    "lat": "48.1747",
    "lng": "16.3348",
    "arrival": "2023-08-24T06:50:00Z",
    "departure": "2023-08-24T06:52:00Z"
  },
  {
    "train_number": "541   ",
    "unit_number": "1116.0165",
    "name": "Wien Hauptbahnhof (in Wbf)",
    "abbr": "Wbf ",
    "lat": "48.1747",
    "lng": "16.3348",
    "arrival": "2023-08-24T06:15:00Z",
    "departure": "2023-08-24T06:45:00Z"
  },
  {
    "train_number": "541   ",
    "unit_number": "1116.0165",
    "name": "Wien Meidling (in Wbf)",
    "abbr": "Mi  ",
    "lat": "48.1747",
    "lng": "16.3348",
    "arrival": "2023-08-24T06:08:00Z",
    "departure": "2023-08-24T06:10:00Z"
  },
  {
    "train_number": "541   ",
    "unit_number": "1116.0165",
    "name": "St.Pölten Hbf (in Pb)",
    "abbr": "Pb  ",
    "lat": "48.2081",
    "lng": "15.6237",
    "arrival": "2023-08-24T05:40:00Z",
    "departure": "2023-08-24T05:42:00Z"
  },
  {
    "train_number": "541   ",
    "unit_number": "1116.0165",
    "name": "Pöchlarn",
    "abbr": "Poe ",
    "lat": "48.208",
    "lng": "15.2148",
    "arrival": null,
    "departure": "2023-08-24T05:22:00Z"
  },
  {
    "train_number": "541   ",
    "unit_number": "1116.0165",
    "name": "Ybbs a.d.Donau",
    "abbr": "Y   ",
    "lat": "48.158",
    "lng": "15.0981",
    "arrival": null,
    "departure": "2023-08-24T05:17:00Z"
  },
  {
    "train_number": "541   ",
    "unit_number": "1116.0165",
    "name": "Amstetten (in Ams)",
    "abbr": "Ams ",
    "lat": "48.1215",
    "lng": "14.8792",
    "arrival": "2023-08-24T05:05:00Z",
    "departure": "2023-08-24T05:07:00Z"
  },
  {
    "train_number": "541   ",
    "unit_number": "1116.0165",
    "name": "St.Valentin (in Sv)",
    "abbr": "Sv  ",
    "lat": "48.1784",
    "lng": "14.5219",
    "arrival": "2023-08-24T04:46:00Z",
    "departure": "2023-08-24T04:50:00Z"
  },
  {
    "train_number": "541   ",
    "unit_number": "1116.0165",
    "name": "Linz Hbf",
    "abbr": "Lz  ",
    "lat": "48.2908",
    "lng": "14.2927",
    "arrival": "2023-08-24T04:30:00Z",
    "departure": "2023-08-24T04:32:00Z"
  },
  {
    "train_number": "541   ",
    "unit_number": "1116.0165",
    "name": "Wels Hbf",
    "abbr": "We  ",
    "lat": "48.1662",
    "lng": "14.0273",
    "arrival": "2023-08-24T04:14:00Z",
    "departure": "2023-08-24T04:16:00Z"
  },
  {
    "train_number": "541   ",
    "unit_number": "1116.0165",
    "name": "Attnang-Puchheim",
    "abbr": "At  ",
    "lat": "48.0112",
    "lng": "13.7193",
    "arrival": "2023-08-24T03:58:00Z",
    "departure": "2023-08-24T04:00:00Z"
  },
  {
    "train_number": "541   ",
    "unit_number": "1116.0165",
    "name": "Steindorf b.Straßw. (in Nst)",
    "abbr": "Nst ",
    "lat": "47.9676",
    "lng": "13.2406",
    "arrival": null,
    "departure": "2023-08-24T03:31:00Z"
  },
  {
    "train_number": null,
    "unit_number": "1116.0165",
    "name": "Salzburg Hbf (in Sb)",
    "abbr": "Sb  ",
    "lat": "47.8135",
    "lng": "13.0466",
    "arrival": null,
    "departure": "2023-08-24T03:11:00Z"
  }
]
