[
  {
    "train_number": "44610 ",
    "unit_number": "1116.0157",
    "name": "Wien Zvbf-Einfgr. (in Zur)",
    "abbr": "Ze  ",
    "lat": "48.1453",
    "lng": "16.43",
    "arrival": "2023-09-16T18:32:00Z",
    "departure": "2023-09-17T03:17:00Z"
  },
  {
    "train_number": "44610 ",
    "unit_number": "1116.0157",
    "name": "Wien Zvbf (in Zur)",
    "abbr": "Zur ",
    "lat": "48.1453",
    "lng": "16.43",
    "arrival": null,
    "departure": "2023-09-16T18:27:00Z"
  },
  {
    "train_number": "44610 ",
    "unit_number": "1116.0157",
    "name": "Parndorf",
    "abbr": "Par ",
    "lat": "47.987",
    "lng": "16.8702",
    "arrival": null,
    "departure": "2023-09-16T17:53:00Z"
  },
  {
    "train_number": "44610 ",
    "unit_number": "1116.0157",
    "name": "Staatsgrenze n. Kittsee",
    "abbr": "Kttg",
    "lat": "48.1028",
    "lng": "17.0842",
    "arrival": null,
    "departure": "2023-09-16T17:35:00Z"
  },
  {
    "train_number": "44609 ",
    "unit_number": "1116.0157",
    "name": "Staatsgrenze n. Kittsee",
    "abbr": "Kttg",
    "lat": "48.1028",
    "lng": "17.0842",
    "arrival": null,
    "departure": "2023-09-16T12:58:00Z"
  },
  {
    "train_number": "44609 ",
    "unit_number": "1116.0157",
    "name": "Parndorf",
    "abbr": "Par ",
    "lat": "47.987",
    "lng": "16.8702",
    "arrival": "2023-09-16T12:29:00Z",
    "departure": "2023-09-16T12:40:00Z"
  },
  {
    "train_number": null,
    "unit_number": "1116.0157",
    "name": "Wien Zvbf (in Zur)",
    "abbr": "Zur ",
    "lat": "48.1453",
    "lng": "16.43",
    "arrival": null,
    "departure": "2023-09-16T11:50:00Z"
  },
  {
    "train_number": "64101 ",
    "unit_number": "1116.0157",
    "name": "Mistelbach",
    "abbr": "Mb  ",
    "lat": "48.5646",
    "lng": "16.5608",
    "arrival": "2023-09-16T08:02:00Z",
    "departure": "2023-09-16T08:04:00Z"
  },
  {
    "train_number": "64104 ",
    "unit_number": "1116.0157",
    "name": "Laa a.d.Thaya",
    "abbr": "Laa ",
    "lat": "48.7233",
    "lng": "16.4031",
    "arrival": "2023-09-16T04:48:00Z",
    "departure": "2023-09-16T07:34:00Z"
  },
  {
    "train_number": "64104 ",
    "unit_number": "1116.0157",
    "name": "Mistelbach",
    "abbr": "Mb  ",
    "lat": "48.5646",
    "lng": "16.5608",
    "arrival": "2023-09-16T04:20:00Z",
    "departure": "2023-09-16T04:23:00Z"
  },
  {
    "train_number": null,
    "unit_number": "1116.0157",
    "name": "Wien Zvbf (in Zur)",
    "abbr": "Zur ",
    "lat": "48.1453",
    "lng": "16.43",
    "arrival": null,
    "departure": "2023-09-16T02:46:00Z"
  }
]
