[
  {
    "train_number": "2239  ",
    "unit_number": "1116.0165",
    "name": "Leobersdorf",
    "abbr": "Lb  ",
    "lat": "47.9375",
    "lng": "16.2313",
    "arrival": "2023-09-22T12:41:00Z",
    "departure": "2023-09-22T12:45:00Z"
  },
  {
    "train_number": "2239  ",
    "unit_number": "1116.0165",
    "name": "Mödling",
    "abbr": "Md  ",
    "lat": "48.0858",
    "lng": "16.2958",
    "arrival": "2023-09-22T12:28:00Z",
    "departure": "2023-09-22T12:29:00Z"
  },
  {
    "train_number": "2239  ",
    "unit_number": "1116.0165",
    "name": "Wien Meidling (in Wbf)",
    "abbr": "Mi  ",
    "lat": "48.1747",
    "lng": "16.3348",
    "arrival": "2023-09-22T12:14:00Z",
    "departure": "2023-09-22T12:15:00Z"
  },
  {
    "train_number": "Blockz",
    "unit_number": "1116.0165",
    "name": "Floridsdorf (in F)",
    "abbr": "F   ",
    "lat": "48.2568",
    "lng": "16.4004",
    "arrival": "2023-09-22T11:39:00Z",
    "departure": "2023-09-22T11:49:00Z"
  },
  {
    "train_number": "2322  ",
    "unit_number": "1116.0165",
    "name": "Wien Meidling (in Wbf)",
    "abbr": "Mi  ",
    "lat": "48.1747",
    "lng": "16.3348",
    "arrival": "2023-09-22T08:23:00Z",
    "departure": "2023-09-22T08:24:00Z"
  },
  {
    "train_number": "2322  ",
    "unit_number": "1116.0165",
    "name": "Mödling",
    "abbr": "Md  ",
    "lat": "48.0858",
    "lng": "16.2958",
    "arrival": "2023-09-22T08:09:00Z",
    "departure": "2023-09-22T08:10:00Z"
  },
  {
    "train_number": "2322  ",
    "unit_number": "1116.0165",
    "name": "Leobersdorf",
    "abbr": "Lb  ",
    "lat": "47.9375",
    "lng": "16.2313",
    "arrival": "2023-09-22T07:50:00Z",
    "departure": "2023-09-22T07:52:00Z"
  },
  {
    "train_number": "2322  ",
    "unit_number": "1116.0165",
    "name": "Wr. Neustadt Hbf (in Nb)",
    "abbr": "Nb  ",
    "lat": "47.8113",
    "lng": "16.2337",
    "arrival": "2023-09-22T07:25:00Z",
    "departure": "2023-09-22T07:38:00Z"
  },
  {
    "train_number": "2322  ",
    "unit_number": "1116.0165",
    "name": "Neunkirchen N.Ö.",
    "abbr": "Nek ",
    "lat": "47.731",
    "lng": "16.0826",
    "arrival": "2023-09-22T07:12:00Z",
    "departure": "2023-09-22T07:13:00Z"
  },
  {
    "train_number": "2211  ",
    "unit_number": "1116.0165",
    "name": "Payerbach-Reichenau",
    "abbr": "Pr  ",
    "lat": "47.696",
    "lng": "15.8632",
    "arrival": "2023-09-22T06:36:00Z",
    "departure": "2023-09-22T06:53:00Z"
  },
  {
    "train_number": "2211  ",
    "unit_number": "1116.0165",
    "name": "Neunkirchen N.Ö.",
    "abbr": "Nek ",
    "lat": "47.731",
    "lng": "16.0826",
    "arrival": "2023-09-22T06:14:00Z",
    "departure": "2023-09-22T06:15:00Z"
  },
  {
    "train_number": "2211  ",
    "unit_number": "1116.0165",
    "name": "Wr. Neustadt Hbf (in Nb)",
    "abbr": "Nb  ",
    "lat": "47.8113",
    "lng": "16.2337",
    "arrival": "2023-09-22T05:51:00Z",
    "departure": "2023-09-22T06:02:00Z"
  },
  {
    "train_number": "2211  ",
    "unit_number": "1116.0165",
    "name": "Leobersdorf",
    "abbr": "Lb  ",
    "lat": "47.9375",
    "lng": "16.2313",
    "arrival": "2023-09-22T05:41:00Z",
    "departure": "2023-09-22T05:42:00Z"
  },
  {
    "train_number": "2211  ",
    "unit_number": "1116.0165",
    "name": "Mödling",
    "abbr": "Md  ",
    "lat": "48.0858",
    "lng": "16.2958",
    "arrival": "2023-09-22T05:28:00Z",
    "departure": "2023-09-22T05:29:00Z"
  },
  {
    "train_number": "2211  ",
    "unit_number": "1116.0165",
    "name": "Wien Meidling (in Wbf)",
    "abbr": "Mi  ",
    "lat": "48.1747",
    "lng": "16.3348",
    "arrival": "2023-09-22T05:14:00Z",
    "departure": "2023-09-22T05:15:00Z"
  },
  {
    "train_number": "2211  ",
    "unit_number": "1116.0165",
    "name": "Floridsdorf (in F)",
    "abbr": "F   ",
    "lat": "48.2568",
    "lng": "16.4004",
    "arrival": "2023-09-22T04:47:00Z",
    "departure": "2023-09-22T04:49:00Z"
  },
  {
    "train_number": "2211  ",
    "unit_number": "1116.0165",
    "name": "Korneuburg",
    "abbr": "Ko  ",
    "lat": "48.3429",
    "lng": "16.3289",
    "arrival": "2023-09-22T04:34:00Z",
    "departure": "2023-09-22T04:35:00Z"
  },
  {
    "train_number": "2211  ",
    "unit_number": "1116.0165",
    "name": "Stockerau (in Su)",
    "abbr": "Su  ",
    "lat": "48.3824",
    "lng": "16.2126",
    "arrival": "2023-09-22T04:23:00Z",
    "departure": "2023-09-22T04:25:00Z"
  },
  {
    "train_number": "2211  ",
    "unit_number": "1116.0165",
    "name": "Hollabrunn",
    "abbr": "Oh  ",
    "lat": "48.563",
    "lng": "16.0722",
    "arrival": "2023-09-22T03:57:00Z",
    "departure": "2023-09-22T03:58:00Z"
  },
  {
    "train_number": "Blockz",
    "unit_number": "1116.0165",
    "name": "Retz",
    "abbr": "R   ",
    "lat": "48.7539",
    "lng": "15.9574",
    "arrival": "2023-09-22T03:20:00Z",
    "departure": "2023-09-22T03:30:00Z"
  }
]
