[
  {
    "train_number": "82376 ",
    "unit_number": "1116.0249",
    "name": "Wolfurt (in Wo)",
    "abbr": "Wo  ",
    "lat": "47.457",
    "lng": "9.74133",
    "arrival": "2023-09-09T15:36:00Z",
    "departure": "2023-09-10T09:08:00Z"
  },
  {
    "train_number": "860   ",
    "unit_number": "1116.0249",
    "name": "Bregenz (in Bg)",
    "abbr": "Bg  ",
    "lat": "47.5029",
    "lng": "9.73947",
    "arrival": "2023-09-09T15:17:00Z",
    "departure": "2023-09-09T15:30:00Z"
  },
  {
    "train_number": "860   ",
    "unit_number": "1116.0249",
    "name": "Wolfurt (in Wo)",
    "abbr": "Wo  ",
    "lat": "47.457",
    "lng": "9.74133",
    "arrival": null,
    "departure": "2023-09-09T15:12:00Z"
  },
  {
    "train_number": "860   ",
    "unit_number": "1116.0249",
    "name": "Dornbirn (in Do)",
    "abbr": "Do  ",
    "lat": "47.4176",
    "lng": "9.73871",
    "arrival": "2023-09-09T15:07:00Z",
    "departure": "2023-09-09T15:09:00Z"
  },
  {
    "train_number": "860   ",
    "unit_number": "1116.0249",
    "name": "Feldkirch",
    "abbr": "Fk  ",
    "lat": "47.2417",
    "lng": "9.60519",
    "arrival": "2023-09-09T14:42:00Z",
    "departure": "2023-09-09T14:47:00Z"
  },
  {
    "train_number": "860   ",
    "unit_number": "1116.0249",
    "name": "Bludenz",
    "abbr": "B   ",
    "lat": "47.155",
    "lng": "9.81448",
    "arrival": "2023-09-09T14:29:00Z",
    "departure": "2023-09-09T14:31:00Z"
  },
  {
    "train_number": "860   ",
    "unit_number": "1116.0249",
    "name": "Landeck-Zams",
    "abbr": "Le  ",
    "lat": "47.148",
    "lng": "10.5782",
    "arrival": "2023-09-09T13:31:00Z",
    "departure": "2023-09-09T13:33:00Z"
  },
  {
    "train_number": "860   ",
    "unit_number": "1116.0249",
    "name": "Imst-Pitztal",
    "abbr": "Im  ",
    "lat": "47.219",
    "lng": "10.7619",
    "arrival": "2023-09-09T13:17:00Z",
    "departure": "2023-09-09T13:19:00Z"
  },
  {
    "train_number": "421   ",
    "unit_number": "1116.0249",
    "name": "Innsbruck Hbf  (in I)",
    "abbr": "----",
    "lat": "47.2634",
    "lng": "11.4017",
    "arrival": "2023-09-09T07:14:00Z",
    "departure": "2023-09-09T12:47:00Z"
  },
  {
    "train_number": "421   ",
    "unit_number": "1116.0249",
    "name": "Hall in Tirol",
    "abbr": "H   ",
    "lat": "47.2769",
    "lng": "11.5013",
    "arrival": null,
    "departure": "2023-09-09T07:07:00Z"
  },
  {
    "train_number": "421   ",
    "unit_number": "1116.0249",
    "name": "Jenbach",
    "abbr": "Jb  ",
    "lat": "47.3884",
    "lng": "11.7783",
    "arrival": "2023-09-09T06:53:00Z",
    "departure": "2023-09-09T06:55:00Z"
  },
  {
    "train_number": "421   ",
    "unit_number": "1116.0249",
    "name": "Wörgl Hbf-T. N. (in W)",
    "abbr": "Wtn ",
    "lat": "47.4824",
    "lng": "12.033",
    "arrival": null,
    "departure": "2023-09-09T06:41:00Z"
  },
  {
    "train_number": "421   ",
    "unit_number": "1116.0249",
    "name": "Wörgl Hbf (in W)",
    "abbr": "W   ",
    "lat": "47.4912",
    "lng": "12.0603",
    "arrival": "2023-09-09T06:37:00Z",
    "departure": "2023-09-09T06:39:00Z"
  },
  {
    "train_number": "421   ",
    "unit_number": "1116.0249",
    "name": "Kufstein",
    "abbr": "K   ",
    "lat": "47.5833",
    "lng": "12.1657",
    "arrival": "2023-09-09T06:26:00Z",
    "departure": "2023-09-09T06:28:00Z"
  },
  {
    "train_number": "421   ",
    "unit_number": "1116.0249",
    "name": "Rosenheim",
    "abbr": "MRO ",
    "lat": "47.8511",
    "lng": "12.1196",
    "arrival": "2023-09-09T06:02:00Z",
    "departure": "2023-09-09T06:02:00Z"
  },
  {
    "train_number": "421   ",
    "unit_number": "1116.0249",
    "name": "München Laim Rbf",
    "abbr": "MLR ",
    "lat": "48.1454",
    "lng": "11.5032",
    "arrival": null,
    "departure": "2023-09-09T05:11:00Z"
  }
]
