[
  {
    "train_number": "45860 ",
    "unit_number": "1116.0157",
    "name": "Kufstein",
    "abbr": "K   ",
    "lat": "47.5833",
    "lng": "12.1657",
    "arrival": null,
    "departure": "2023-08-26T00:58:00Z"
  },
  {
    "train_number": "45860 ",
    "unit_number": "1116.0157",
    "name": "Traunstein",
    "abbr": "MTS ",
    "lat": "47.8697",
    "lng": "12.6391",
    "arrival": null,
    "departure": "2023-08-25T23:57:00Z"
  },
  {
    "train_number": "45860 ",
    "unit_number": "1116.0157",
    "name": "Freilassing",
    "abbr": "MFL ",
    "lat": "47.8368",
    "lng": "12.9764",
    "arrival": null,
    "departure": "2023-08-25T23:38:00Z"
  },
  {
    "train_number": "45860 ",
    "unit_number": "1116.0157",
    "name": "Salzburg Liefering (in Sb)",
    "abbr": "Lfg ",
    "lat": "47.8229",
    "lng": "13.0021",
    "arrival": null,
    "departure": "2023-08-25T23:36:00Z"
  },
  {
    "train_number": "45860 ",
    "unit_number": "1116.0157",
    "name": "Salzburg Hbf (in Sb)",
    "abbr": "Sb  ",
    "lat": "47.8135",
    "lng": "13.0466",
    "arrival": "2023-08-25T23:10:00Z",
    "departure": "2023-08-25T23:30:00Z"
  },
  {
    "train_number": "45860 ",
    "unit_number": "1116.0157",
    "name": "Steindorf b.Straßw. (in Nst)",
    "abbr": "Nst ",
    "lat": "47.9676",
    "lng": "13.2406",
    "arrival": null,
    "departure": "2023-08-25T22:51:00Z"
  },
  {
    "train_number": "45860 ",
    "unit_number": "1116.0157",
    "name": "Attnang-Puchheim",
    "abbr": "At  ",
    "lat": "48.0112",
    "lng": "13.7193",
    "arrival": null,
    "departure": "2023-08-25T22:20:00Z"
  },
  {
    "train_number": "45860 ",
    "unit_number": "1116.0157",
    "name": "Wels Hbf",
    "abbr": "We  ",
    "lat": "48.1662",
    "lng": "14.0273",
    "arrival": null,
    "departure": "2023-08-25T21:53:00Z"
  },
  {
    "train_number": "45860 ",
    "unit_number": "1116.0157",
    "name": "Linz Hbf",
    "abbr": "Lz  ",
    "lat": "48.2908",
    "lng": "14.2927",
    "arrival": "2023-08-25T21:32:00Z",
    "departure": "2023-08-25T21:36:00Z"
  },
  {
    "train_number": "45860 ",
    "unit_number": "1116.0157",
    "name": "Enns",
    "abbr": "Ens ",
    "lat": "48.2212",
    "lng": "14.4668",
    "arrival": null,
    "departure": "2023-08-25T21:18:00Z"
  },
  {
    "train_number": "45860 ",
    "unit_number": "1116.0157",
    "name": "St.Valentin (in Sv)",
    "abbr": "Sv  ",
    "lat": "48.1784",
    "lng": "14.5219",
    "arrival": null,
    "departure": "2023-08-25T21:13:00Z"
  },
  {
    "train_number": "45860 ",
    "unit_number": "1116.0157",
    "name": "Amstetten (in Ams)",
    "abbr": "Ams ",
    "lat": "48.1215",
    "lng": "14.8792",
    "arrival": null,
    "departure": "2023-08-25T20:46:00Z"
  },
  {
    "train_number": "45860 ",
    "unit_number": "1116.0157",
    "name": "Ybbs a.d.Donau",
    "abbr": "Y   ",
    "lat": "48.158",
    "lng": "15.0981",
    "arrival": null,
    "departure": "2023-08-25T20:34:00Z"
  },
  {
    "train_number": "45860 ",
    "unit_number": "1116.0157",
    "name": "Pöchlarn",
    "abbr": "Poe ",
    "lat": "48.208",
    "lng": "15.2148",
    "arrival": null,
    "departure": "2023-08-25T20:25:00Z"
  },
  {
    "train_number": "45860 ",
    "unit_number": "1116.0157",
    "name": "Wien Zvbf (in Zur)",
    "abbr": "Zur ",
    "lat": "48.1453",
    "lng": "16.43",
    "arrival": "2023-08-25T16:08:00Z",
    "departure": "2023-08-25T16:08:00Z"
  },
  {
    "train_number": "63023 ",
    "unit_number": "1116.0157",
    "name": "Wien Meidling (in Wbf)",
    "abbr": "Mi  ",
    "lat": "48.1747",
    "lng": "16.3348",
    "arrival": null,
    "departure": "2023-08-25T14:07:00Z"
  },
  {
    "train_number": "Mos1  ",
    "unit_number": "1116.0157",
    "name": "Tulln a. d. Donau (in Tu)",
    "abbr": "Tu  ",
    "lat": "48.3275",
    "lng": "16.0644",
    "arrival": "2023-08-25T12:08:00Z",
    "departure": "2023-08-25T12:08:00Z"
  },
  {
    "train_number": null,
    "unit_number": "1116.0157",
    "name": "Wien Zvbf (in Zur)",
    "abbr": "Zur ",
    "lat": "48.1453",
    "lng": "16.43",
    "arrival": null,
    "departure": "2023-08-25T06:06:00Z"
  },
  {
    "train_number": "54060 ",
    "unit_number": "1116.0157",
    "name": "Wien Meidling (in Wbf)",
    "abbr": "Mi  ",
    "lat": "48.1747",
    "lng": "16.3348",
    "arrival": null,
    "departure": "2023-08-25T02:36:00Z"
  },
  {
    "train_number": "54060 ",
    "unit_number": "1116.0157",
    "name": "Mödling",
    "abbr": "Md  ",
    "lat": "48.0858",
    "lng": "16.2958",
    "arrival": null,
    "departure": "2023-08-25T02:24:00Z"
  }
]
