[
  {
    "train_number": "740   ",
    "unit_number": "1116.0231",
    "name": "Ybbs a.d.Donau",
    "abbr": "Y   ",
    "lat": "48.158",
    "lng": "15.0981",
    "arrival": null,
    "departure": "2023-09-09T14:36:00Z"
  },
  {
    "train_number": "740   ",
    "unit_number": "1116.0231",
    "name": "Pöchlarn",
    "abbr": "Poe ",
    "lat": "48.208",
    "lng": "15.2148",
    "arrival": null,
    "departure": "2023-09-09T14:33:00Z"
  },
  {
    "train_number": "740   ",
    "unit_number": "1116.0231",
    "name": "St.Pölten Hbf (in Pb)",
    "abbr": "Pb  ",
    "lat": "48.2081",
    "lng": "15.6237",
    "arrival": "2023-09-09T14:18:00Z",
    "departure": "2023-09-09T14:20:00Z"
  },
  {
    "train_number": "740   ",
    "unit_number": "1116.0231",
    "name": "Wien Meidling (in Wbf)",
    "abbr": "Mi  ",
    "lat": "48.1747",
    "lng": "16.3348",
    "arrival": "2023-09-09T13:50:00Z",
    "departure": "2023-09-09T13:52:00Z"
  },
  {
    "train_number": "645   ",
    "unit_number": "1116.0231",
    "name": "Wien Hauptbahnhof (in Wbf)",
    "abbr": "Wbf ",
    "lat": "48.1747",
    "lng": "16.3348",
    "arrival": "2023-09-09T13:15:00Z",
    "departure": "2023-09-09T13:45:00Z"
  },
  {
    "train_number": "645   ",
    "unit_number": "1116.0231",
    "name": "Wien Meidling (in Wbf)",
    "abbr": "Mi  ",
    "lat": "48.1747",
    "lng": "16.3348",
    "arrival": "2023-09-09T13:08:00Z",
    "departure": "2023-09-09T13:10:00Z"
  },
  {
    "train_number": "645   ",
    "unit_number": "1116.0231",
    "name": "St.Pölten Hbf (in Pb)",
    "abbr": "Pb  ",
    "lat": "48.2081",
    "lng": "15.6237",
    "arrival": "2023-09-09T12:40:00Z",
    "departure": "2023-09-09T12:42:00Z"
  },
  {
    "train_number": "645   ",
    "unit_number": "1116.0231",
    "name": "Pöchlarn",
    "abbr": "Poe ",
    "lat": "48.208",
    "lng": "15.2148",
    "arrival": null,
    "departure": "2023-09-09T12:27:00Z"
  },
  {
    "train_number": "645   ",
    "unit_number": "1116.0231",
    "name": "Ybbs a.d.Donau",
    "abbr": "Y   ",
    "lat": "48.158",
    "lng": "15.0981",
    "arrival": null,
    "departure": "2023-09-09T12:24:00Z"
  },
  {
    "train_number": "645   ",
    "unit_number": "1116.0231",
    "name": "Amstetten (in Ams)",
    "abbr": "Ams ",
    "lat": "48.1215",
    "lng": "14.8792",
    "arrival": "2023-09-09T12:15:00Z",
    "departure": "2023-09-09T12:17:00Z"
  },
  {
    "train_number": "645   ",
    "unit_number": "1116.0231",
    "name": "St.Valentin (in Sv)",
    "abbr": "Sv  ",
    "lat": "48.1784",
    "lng": "14.5219",
    "arrival": "2023-09-09T11:54:00Z",
    "departure": "2023-09-09T11:55:00Z"
  },
  {
    "train_number": "645   ",
    "unit_number": "1116.0231",
    "name": "Enns",
    "abbr": "Ens ",
    "lat": "48.2212",
    "lng": "14.4668",
    "arrival": null,
    "departure": "2023-09-09T11:47:00Z"
  },
  {
    "train_number": "645   ",
    "unit_number": "1116.0231",
    "name": "Linz Hbf",
    "abbr": "Lz  ",
    "lat": "48.2908",
    "lng": "14.2927",
    "arrival": "2023-09-09T11:30:00Z",
    "departure": "2023-09-09T11:32:00Z"
  },
  {
    "train_number": "645   ",
    "unit_number": "1116.0231",
    "name": "Wels Hbf",
    "abbr": "We  ",
    "lat": "48.1662",
    "lng": "14.0273",
    "arrival": "2023-09-09T11:14:00Z",
    "departure": "2023-09-09T11:16:00Z"
  },
  {
    "train_number": "645   ",
    "unit_number": "1116.0231",
    "name": "Attnang-Puchheim",
    "abbr": "At  ",
    "lat": "48.0112",
    "lng": "13.7193",
    "arrival": "2023-09-09T10:58:00Z",
    "departure": "2023-09-09T11:00:00Z"
  },
  {
    "train_number": "645   ",
    "unit_number": "1116.0231",
    "name": "Steindorf b.Straßw. (in Nst)",
    "abbr": "Nst ",
    "lat": "47.9676",
    "lng": "13.2406",
    "arrival": null,
    "departure": "2023-09-09T10:31:00Z"
  },
  {
    "train_number": "1501  ",
    "unit_number": "1116.0231",
    "name": "Salzburg Hbf (in Sb)",
    "abbr": "Sb  ",
    "lat": "47.8135",
    "lng": "13.0466",
    "arrival": "2023-09-09T05:44:00Z",
    "departure": "2023-09-09T10:11:00Z"
  },
  {
    "train_number": "1501  ",
    "unit_number": "1116.0231",
    "name": "Salzburg Gnigl-Einfgr. (in Sb)",
    "abbr": "Sre ",
    "lat": "47.8075",
    "lng": "13.0687",
    "arrival": null,
    "departure": "2023-09-09T05:40:00Z"
  },
  {
    "train_number": "1501  ",
    "unit_number": "1116.0231",
    "name": "Bischofshofen (in Bo)",
    "abbr": "Bo  ",
    "lat": "47.42",
    "lng": "13.2199",
    "arrival": "2023-09-09T04:53:00Z",
    "departure": "2023-09-09T04:55:00Z"
  },
  {
    "train_number": "1530  ",
    "unit_number": "1116.0231",
    "name": "Schwarzach-St.Veit",
    "abbr": "Swa ",
    "lat": "47.3186",
    "lng": "13.1561",
    "arrival": "2023-09-08T21:19:00Z",
    "departure": "2023-09-09T04:39:00Z"
  }
]
