[
  {
    "train_number": "662   ",
    "unit_number": "1116.0249",
    "name": "Jenbach",
    "abbr": "Jb  ",
    "lat": "47.3884",
    "lng": "11.7783",
    "arrival": null,
    "departure": "2023-09-20T10:28:00Z"
  },
  {
    "train_number": "662   ",
    "unit_number": "1116.0249",
    "name": "Wörgl Hbf-T. N. (in W)",
    "abbr": "Wtn ",
    "lat": "47.4824",
    "lng": "12.033",
    "arrival": null,
    "departure": "2023-09-20T10:17:00Z"
  },
  {
    "train_number": "662   ",
    "unit_number": "1116.0249",
    "name": "Wörgl Hbf (in W)",
    "abbr": "W   ",
    "lat": "47.4912",
    "lng": "12.0603",
    "arrival": "2023-09-20T10:13:00Z",
    "departure": "2023-09-20T10:15:00Z"
  },
  {
    "train_number": "662   ",
    "unit_number": "1116.0249",
    "name": "Kufstein",
    "abbr": "K   ",
    "lat": "47.5833",
    "lng": "12.1657",
    "arrival": null,
    "departure": "2023-09-20T10:06:00Z"
  },
  {
    "train_number": "662   ",
    "unit_number": "1116.0249",
    "name": "Traunstein",
    "abbr": "MTS ",
    "lat": "47.8697",
    "lng": "12.6391",
    "arrival": null,
    "departure": "2023-09-20T09:17:00Z"
  },
  {
    "train_number": "662   ",
    "unit_number": "1116.0249",
    "name": "Freilassing",
    "abbr": "MFL ",
    "lat": "47.8368",
    "lng": "12.9764",
    "arrival": null,
    "departure": "2023-09-20T09:02:00Z"
  },
  {
    "train_number": "662   ",
    "unit_number": "1116.0249",
    "name": "Salzburg Liefering (in Sb)",
    "abbr": "Lfg ",
    "lat": "47.8229",
    "lng": "13.0021",
    "arrival": null,
    "departure": "2023-09-20T09:00:00Z"
  },
  {
    "train_number": "262   ",
    "unit_number": "1116.0249",
    "name": "Salzburg Hbf (in Sb)",
    "abbr": "Sb  ",
    "lat": "47.8135",
    "lng": "13.0466",
    "arrival": "2023-09-20T08:53:00Z",
    "departure": "2023-09-20T08:56:00Z"
  },
  {
    "train_number": "262   ",
    "unit_number": "1116.0249",
    "name": "Steindorf b.Straßw. (in Nst)",
    "abbr": "Nst ",
    "lat": "47.9676",
    "lng": "13.2406",
    "arrival": null,
    "departure": "2023-09-20T08:34:00Z"
  },
  {
    "train_number": "262   ",
    "unit_number": "1116.0249",
    "name": "Attnang-Puchheim",
    "abbr": "At  ",
    "lat": "48.0112",
    "lng": "13.7193",
    "arrival": null,
    "departure": "2023-09-20T08:11:00Z"
  },
  {
    "train_number": "262   ",
    "unit_number": "1116.0249",
    "name": "Wels Hbf",
    "abbr": "We  ",
    "lat": "48.1662",
    "lng": "14.0273",
    "arrival": null,
    "departure": "2023-09-20T07:58:00Z"
  },
  {
    "train_number": "262   ",
    "unit_number": "1116.0249",
    "name": "Linz Hbf",
    "abbr": "Lz  ",
    "lat": "48.2908",
    "lng": "14.2927",
    "arrival": "2023-09-20T07:43:00Z",
    "departure": "2023-09-20T07:45:00Z"
  },
  {
    "train_number": "262   ",
    "unit_number": "1116.0249",
    "name": "St.Valentin (in Sv)",
    "abbr": "Sv  ",
    "lat": "48.1784",
    "lng": "14.5219",
    "arrival": null,
    "departure": "2023-09-20T07:31:00Z"
  },
  {
    "train_number": "262   ",
    "unit_number": "1116.0249",
    "name": "Amstetten (in Ams)",
    "abbr": "Ams ",
    "lat": "48.1215",
    "lng": "14.8792",
    "arrival": null,
    "departure": "2023-09-20T07:19:00Z"
  },
  {
    "train_number": "262   ",
    "unit_number": "1116.0249",
    "name": "Ybbs a.d.Donau",
    "abbr": "Y   ",
    "lat": "48.158",
    "lng": "15.0981",
    "arrival": null,
    "departure": "2023-09-20T07:14:00Z"
  },
  {
    "train_number": "262   ",
    "unit_number": "1116.0249",
    "name": "Pöchlarn",
    "abbr": "Poe ",
    "lat": "48.208",
    "lng": "15.2148",
    "arrival": null,
    "departure": "2023-09-20T07:10:00Z"
  },
  {
    "train_number": "262   ",
    "unit_number": "1116.0249",
    "name": "St.Pölten Hbf (in Pb)",
    "abbr": "Pb  ",
    "lat": "48.2081",
    "lng": "15.6237",
    "arrival": "2023-09-20T06:57:00Z",
    "departure": "2023-09-20T06:59:00Z"
  },
  {
    "train_number": "262   ",
    "unit_number": "1116.0249",
    "name": "Wien Meidling (in Wbf)",
    "abbr": "Mi  ",
    "lat": "48.1747",
    "lng": "16.3348",
    "arrival": "2023-09-20T06:33:00Z",
    "departure": "2023-09-20T06:35:00Z"
  },
  {
    "train_number": "662   ",
    "unit_number": "1116.0249",
    "name": "Wien Hauptbahnhof (in Wbf)",
    "abbr": "Wbf ",
    "lat": "48.1747",
    "lng": "16.3348",
    "arrival": "2023-09-20T06:18:00Z",
    "departure": "2023-09-20T06:28:00Z"
  },
  {
    "train_number": "820   ",
    "unit_number": "1116.0249",
    "name": "Wien Hauptbahnhof (in Wbf)",
    "abbr": "Wbf ",
    "lat": "48.1747",
    "lng": "16.3348",
    "arrival": "2023-09-19T19:48:00Z",
    "departure": "2023-09-20T04:42:00Z"
  }
]
