[
  {
    "train_number": "47707 ",
    "unit_number": "1116.0157",
    "name": "Stainach-Irdning",
    "abbr": "Rg  ",
    "lat": "47.5293",
    "lng": "14.1078",
    "arrival": null,
    "departure": "2023-10-27T22:13:00Z"
  },
  {
    "train_number": "47707 ",
    "unit_number": "1116.0157",
    "name": "Bischofshofen (in Bo)",
    "abbr": "Bo  ",
    "lat": "47.42",
    "lng": "13.2199",
    "arrival": null,
    "departure": "2023-10-27T20:52:00Z"
  },
  {
    "train_number": "47707 ",
    "unit_number": "1116.0157",
    "name": "Bischofshofen Fbf (in Bo)",
    "abbr": "Bob ",
    "lat": "47.4118",
    "lng": "13.2191",
    "arrival": "2023-10-27T20:18:00Z",
    "departure": "2023-10-27T20:49:00Z"
  },
  {
    "train_number": "47707 ",
    "unit_number": "1116.0157",
    "name": "Schwarzach-St.Veit",
    "abbr": "Swa ",
    "lat": "47.3186",
    "lng": "13.1561",
    "arrival": null,
    "departure": "2023-10-27T20:06:00Z"
  },
  {
    "train_number": "47707 ",
    "unit_number": "1116.0157",
    "name": "Kitzbühel",
    "abbr": "Kzb ",
    "lat": "47.4542",
    "lng": "12.391",
    "arrival": null,
    "departure": "2023-10-27T18:47:00Z"
  },
  {
    "train_number": "47707 ",
    "unit_number": "1116.0157",
    "name": "Wörgl Hbf (in W)",
    "abbr": "W   ",
    "lat": "47.4912",
    "lng": "12.0603",
    "arrival": "2023-10-27T17:28:00Z",
    "departure": "2023-10-27T18:04:00Z"
  },
  {
    "train_number": "47707 ",
    "unit_number": "1116.0157",
    "name": "Wörgl Hbf-T. N. (in W)",
    "abbr": "Wtn ",
    "lat": "47.4824",
    "lng": "12.033",
    "arrival": null,
    "departure": "2023-10-27T17:25:00Z"
  },
  {
    "train_number": "64404 ",
    "unit_number": "1116.0157",
    "name": "Hall in Tirol",
    "abbr": "H   ",
    "lat": "47.2769",
    "lng": "11.5013",
    "arrival": "2023-10-27T16:08:00Z",
    "departure": "2023-10-27T16:53:00Z"
  },
  {
    "train_number": "88321 ",
    "unit_number": "1116.0157",
    "name": "Jenbach",
    "abbr": "Jb  ",
    "lat": "47.3884",
    "lng": "11.7783",
    "arrival": "2023-10-27T14:55:00Z",
    "departure": "2023-10-27T15:42:00Z"
  },
  {
    "train_number": "88321 ",
    "unit_number": "1116.0157",
    "name": "Schwaz",
    "abbr": "Sw  ",
    "lat": "47.3497",
    "lng": "11.7016",
    "arrival": null,
    "departure": "2023-10-27T14:49:00Z"
  },
  {
    "train_number": "88321 ",
    "unit_number": "1116.0157",
    "name": "Hall in Tirol",
    "abbr": "H   ",
    "lat": "47.2769",
    "lng": "11.5013",
    "arrival": null,
    "departure": "2023-10-27T14:34:00Z"
  },
  {
    "train_number": "5344  ",
    "unit_number": "1116.0157",
    "name": "Innsbruck Hbf  (in I)",
    "abbr": "I   ",
    "lat": "47.2634",
    "lng": "11.4017",
    "arrival": "2023-10-27T05:17:00Z",
    "departure": "2023-10-27T14:25:00Z"
  },
  {
    "train_number": "5344  ",
    "unit_number": "1116.0157",
    "name": "Hall in Tirol",
    "abbr": "H   ",
    "lat": "47.2769",
    "lng": "11.5013",
    "arrival": null,
    "departure": "2023-10-27T05:11:00Z"
  },
  {
    "train_number": "5344  ",
    "unit_number": "1116.0157",
    "name": "Jenbach",
    "abbr": "Jb  ",
    "lat": "47.3884",
    "lng": "11.7783",
    "arrival": "2023-10-27T04:57:00Z",
    "departure": "2023-10-27T04:59:00Z"
  },
  {
    "train_number": "5344  ",
    "unit_number": "1116.0157",
    "name": "Wörgl Hbf-T. N. (in W)",
    "abbr": "Wtn ",
    "lat": "47.4824",
    "lng": "12.033",
    "arrival": null,
    "departure": "2023-10-27T04:43:00Z"
  },
  {
    "train_number": "5344  ",
    "unit_number": "1116.0157",
    "name": "Wörgl Hbf (in W)",
    "abbr": "----",
    "lat": "47.4912",
    "lng": "12.0603",
    "arrival": "2023-10-27T04:38:00Z",
    "departure": "2023-10-27T04:40:00Z"
  },
  {
    "train_number": "Vhz   ",
    "unit_number": "1116.0157",
    "name": "Kufstein",
    "abbr": "K   ",
    "lat": "47.5833",
    "lng": "12.1657",
    "arrival": "2023-10-27T04:29:00Z",
    "departure": "2023-10-27T04:29:00Z"
  }
]
