[
  {
    "train_number": "371   ",
    "unit_number": "1216.0229",
    "name": "Graz Vbf (in G)",
    "abbr": "Gi  ",
    "lat": "47.0885",
    "lng": "15.4077",
    "arrival": null,
    "departure": "2023-10-02T19:31:00Z"
  },
  {
    "train_number": "371   ",
    "unit_number": "1216.0229",
    "name": "Bruck a.d.Mur (in Bm)",
    "abbr": "Bm  ",
    "lat": "47.4134",
    "lng": "15.2797",
    "arrival": "2023-10-02T18:57:00Z",
    "departure": "2023-10-02T18:59:00Z"
  },
  {
    "train_number": "371   ",
    "unit_number": "1216.0229",
    "name": "Mürzzuschlag (in Mz)",
    "abbr": "Mz  ",
    "lat": "47.6079",
    "lng": "15.677",
    "arrival": "2023-10-02T18:28:00Z",
    "departure": "2023-10-02T18:30:00Z"
  },
  {
    "train_number": "371   ",
    "unit_number": "1216.0229",
    "name": "Payerbach-Reichenau",
    "abbr": "Pr  ",
    "lat": "47.696",
    "lng": "15.8632",
    "arrival": null,
    "departure": "2023-10-02T17:52:00Z"
  },
  {
    "train_number": "371   ",
    "unit_number": "1216.0229",
    "name": "Neunkirchen N.Ö.",
    "abbr": "Nek ",
    "lat": "47.731",
    "lng": "16.0826",
    "arrival": null,
    "departure": "2023-10-02T17:41:00Z"
  },
  {
    "train_number": "371   ",
    "unit_number": "1216.0229",
    "name": "Wr. Neustadt Hbf (in Nb)",
    "abbr": "Nb  ",
    "lat": "47.8113",
    "lng": "16.2337",
    "arrival": "2023-10-02T17:30:00Z",
    "departure": "2023-10-02T17:32:00Z"
  },
  {
    "train_number": "371   ",
    "unit_number": "1216.0229",
    "name": "Leobersdorf",
    "abbr": "Lb  ",
    "lat": "47.9375",
    "lng": "16.2313",
    "arrival": null,
    "departure": "2023-10-02T17:21:00Z"
  },
  {
    "train_number": "371   ",
    "unit_number": "1216.0229",
    "name": "Mödling",
    "abbr": "Md  ",
    "lat": "48.0858",
    "lng": "16.2958",
    "arrival": null,
    "departure": "2023-10-02T17:13:00Z"
  },
  {
    "train_number": "371   ",
    "unit_number": "1216.0229",
    "name": "Wien Meidling (in Wbf)",
    "abbr": "Mi  ",
    "lat": "48.1747",
    "lng": "16.3348",
    "arrival": "2023-10-02T17:03:00Z",
    "departure": "2023-10-02T17:05:00Z"
  },
  {
    "train_number": "371   ",
    "unit_number": "1216.0229",
    "name": "Wien Hauptbahnhof (in Wbf)",
    "abbr": "Wbf ",
    "lat": "48.185",
    "lng": "16.3778",
    "arrival": "2023-10-02T16:49:00Z",
    "departure": "2023-10-02T16:58:00Z"
  },
  {
    "train_number": "371   ",
    "unit_number": "1216.0229",
    "name": "Gänserndorf",
    "abbr": "Gae ",
    "lat": "48.3401",
    "lng": "16.7324",
    "arrival": null,
    "departure": "2023-10-02T16:22:00Z"
  },
  {
    "train_number": "371   ",
    "unit_number": "1216.0229",
    "name": "Hohenau",
    "abbr": "Nh  ",
    "lat": "48.5981",
    "lng": "16.9008",
    "arrival": null,
    "departure": "2023-10-02T16:05:00Z"
  },
  {
    "train_number": "371   ",
    "unit_number": "1216.0229",
    "name": "Brno Hlavni Nadrazi",
    "abbr": "BRHN",
    "lat": "49.1909",
    "lng": "16.6134",
    "arrival": "2023-10-02T15:19:00Z",
    "departure": "2023-10-02T15:21:00Z"
  },
  {
    "train_number": "70    ",
    "unit_number": "1216.0229",
    "name": "Brno Hlavni Nadrazi",
    "abbr": "BRHN",
    "lat": "49.1909",
    "lng": "16.6134",
    "arrival": "2023-10-02T06:37:00Z",
    "departure": "2023-10-02T06:39:00Z"
  },
  {
    "train_number": "70    ",
    "unit_number": "1216.0229",
    "name": "Hohenau",
    "abbr": "Nh  ",
    "lat": "48.5981",
    "lng": "16.9008",
    "arrival": null,
    "departure": "2023-10-02T05:54:00Z"
  },
  {
    "train_number": "70    ",
    "unit_number": "1216.0229",
    "name": "Gänserndorf",
    "abbr": "Gae ",
    "lat": "48.3401",
    "lng": "16.7324",
    "arrival": null,
    "departure": "2023-10-02T05:35:00Z"
  },
  {
    "train_number": "523   ",
    "unit_number": "1216.0229",
    "name": "Wien Hauptbahnhof (in Wbf)",
    "abbr": "Wbf ",
    "lat": "48.185",
    "lng": "16.3778",
    "arrival": "2023-10-02T04:52:00Z",
    "departure": "2023-10-02T05:10:00Z"
  },
  {
    "train_number": "523   ",
    "unit_number": "1216.0229",
    "name": "Wien Meidling (in Wbf)",
    "abbr": "Mi  ",
    "lat": "48.1747",
    "lng": "16.3348",
    "arrival": "2023-10-02T04:45:00Z",
    "departure": "2023-10-02T04:47:00Z"
  },
  {
    "train_number": "85520 ",
    "unit_number": "1216.0229",
    "name": "St.Pölten Hbf (in Pb)",
    "abbr": "Pb  ",
    "lat": "48.2081",
    "lng": "15.6237",
    "arrival": "2023-10-02T03:50:00Z",
    "departure": "2023-10-02T04:15:00Z"
  },
  {
    "train_number": null,
    "unit_number": "1216.0229",
    "name": "Wien Meidling (in Wbf)",
    "abbr": "Mi  ",
    "lat": "48.1747",
    "lng": "16.3348",
    "arrival": null,
    "departure": "2023-10-02T03:16:00Z"
  }
]
