[
  {
    "train_number": "372   ",
    "unit_number": "1216.0229",
    "name": "Wr. Neustadt Hbf (in Nb)",
    "abbr": "Nb  ",
    "lat": "47.8113",
    "lng": "16.2337",
    "arrival": "2023-09-09T16:28:00Z",
    "departure": "2023-09-09T16:32:00Z"
  },
  {
    "train_number": "372   ",
    "unit_number": "1216.0229",
    "name": "Neunkirchen N.Ö.",
    "abbr": "Nek ",
    "lat": "47.731",
    "lng": "16.0826",
    "arrival": null,
    "departure": "2023-09-09T16:19:00Z"
  },
  {
    "train_number": "372   ",
    "unit_number": "1216.0229",
    "name": "Payerbach-Reichenau",
    "abbr": "Pr  ",
    "lat": "47.696",
    "lng": "15.8632",
    "arrival": null,
    "departure": "2023-09-09T16:08:00Z"
  },
  {
    "train_number": "372   ",
    "unit_number": "1216.0229",
    "name": "Mürzzuschlag (in Mz)",
    "abbr": "Mz  ",
    "lat": "47.6079",
    "lng": "15.677",
    "arrival": "2023-09-09T15:30:00Z",
    "departure": "2023-09-09T15:32:00Z"
  },
  {
    "train_number": "372   ",
    "unit_number": "1216.0229",
    "name": "Bruck a.d.Mur (in Bm)",
    "abbr": "Bm  ",
    "lat": "47.4134",
    "lng": "15.2797",
    "arrival": "2023-09-09T15:00:00Z",
    "departure": "2023-09-09T15:02:00Z"
  },
  {
    "train_number": "372   ",
    "unit_number": "1216.0229",
    "name": "Graz Vbf (in G)",
    "abbr": "Gi  ",
    "lat": "47.0885",
    "lng": "15.4077",
    "arrival": null,
    "departure": "2023-09-09T14:28:00Z"
  },
  {
    "train_number": "75    ",
    "unit_number": "1216.0229",
    "name": "Graz Hbf (in G)",
    "abbr": "G   ",
    "lat": "47.0733",
    "lng": "15.4163",
    "arrival": "2023-09-09T13:34:00Z",
    "departure": "2023-09-09T14:25:00Z"
  },
  {
    "train_number": "75    ",
    "unit_number": "1216.0229",
    "name": "Graz Vbf (in G)",
    "abbr": "Gi  ",
    "lat": "47.0885",
    "lng": "15.4077",
    "arrival": null,
    "departure": "2023-09-09T13:31:00Z"
  },
  {
    "train_number": "75    ",
    "unit_number": "1216.0229",
    "name": "Bruck a.d.Mur (in Bm)",
    "abbr": "Bm  ",
    "lat": "47.4134",
    "lng": "15.2797",
    "arrival": "2023-09-09T12:57:00Z",
    "departure": "2023-09-09T12:59:00Z"
  },
  {
    "train_number": "75    ",
    "unit_number": "1216.0229",
    "name": "Mürzzuschlag (in Mz)",
    "abbr": "Mz  ",
    "lat": "47.6079",
    "lng": "15.677",
    "arrival": "2023-09-09T12:28:00Z",
    "departure": "2023-09-09T12:30:00Z"
  },
  {
    "train_number": "75    ",
    "unit_number": "1216.0229",
    "name": "Payerbach-Reichenau",
    "abbr": "Pr  ",
    "lat": "47.696",
    "lng": "15.8632",
    "arrival": null,
    "departure": "2023-09-09T11:52:00Z"
  },
  {
    "train_number": "75    ",
    "unit_number": "1216.0229",
    "name": "Neunkirchen N.Ö.",
    "abbr": "Nek ",
    "lat": "47.731",
    "lng": "16.0826",
    "arrival": null,
    "departure": "2023-09-09T11:41:00Z"
  },
  {
    "train_number": "75    ",
    "unit_number": "1216.0229",
    "name": "Wr. Neustadt Hbf (in Nb)",
    "abbr": "Nb  ",
    "lat": "47.8113",
    "lng": "16.2337",
    "arrival": "2023-09-09T11:28:00Z",
    "departure": "2023-09-09T11:32:00Z"
  },
  {
    "train_number": "75    ",
    "unit_number": "1216.0229",
    "name": "Leobersdorf",
    "abbr": "Lb  ",
    "lat": "47.9375",
    "lng": "16.2313",
    "arrival": null,
    "departure": "2023-09-09T11:21:00Z"
  },
  {
    "train_number": "75    ",
    "unit_number": "1216.0229",
    "name": "Mödling",
    "abbr": "Md  ",
    "lat": "48.0858",
    "lng": "16.2958",
    "arrival": null,
    "departure": "2023-09-09T11:13:00Z"
  },
  {
    "train_number": "75    ",
    "unit_number": "1216.0229",
    "name": "Wien Meidling (in Wbf)",
    "abbr": "Mi  ",
    "lat": "48.1747",
    "lng": "16.3348",
    "arrival": "2023-09-09T11:03:00Z",
    "departure": "2023-09-09T11:05:00Z"
  },
  {
    "train_number": "75    ",
    "unit_number": "1216.0229",
    "name": "Gänserndorf",
    "abbr": "Gae ",
    "lat": "48.3401",
    "lng": "16.7324",
    "arrival": null,
    "departure": "2023-09-09T10:22:00Z"
  },
  {
    "train_number": "75    ",
    "unit_number": "1216.0229",
    "name": "Hohenau",
    "abbr": "Nh  ",
    "lat": "48.5981",
    "lng": "16.9008",
    "arrival": null,
    "departure": "2023-09-09T10:05:00Z"
  },
  {
    "train_number": "75    ",
    "unit_number": "1216.0229",
    "name": "Brno Hlavni Nadrazi",
    "abbr": "BRHN",
    "lat": "49.1909",
    "lng": "16.6134",
    "arrival": "2023-09-09T09:19:00Z",
    "departure": "2023-09-09T09:21:00Z"
  },
  {
    "train_number": "374   ",
    "unit_number": "1216.0229",
    "name": "Brno Hlavni Nadrazi",
    "abbr": "BRHN",
    "lat": "49.1909",
    "lng": "16.6134",
    "arrival": "2023-09-08T20:36:00Z",
    "departure": "2023-09-09T02:39:00Z"
  }
]
