[
  {
    "train_number": "256   ",
    "unit_number": "1216.0229",
    "name": "Wien Meidling (in Wbf)",
    "abbr": "Mi  ",
    "lat": "48.1747",
    "lng": "16.3348",
    "arrival": "2023-09-18T10:55:00Z",
    "departure": "2023-09-18T10:57:00Z"
  },
  {
    "train_number": "256   ",
    "unit_number": "1216.0229",
    "name": "Mödling",
    "abbr": "Md  ",
    "lat": "48.0858",
    "lng": "16.2958",
    "arrival": null,
    "departure": "2023-09-18T10:46:00Z"
  },
  {
    "train_number": "256   ",
    "unit_number": "1216.0229",
    "name": "Leobersdorf",
    "abbr": "Lb  ",
    "lat": "47.9375",
    "lng": "16.2313",
    "arrival": null,
    "departure": "2023-09-18T10:39:00Z"
  },
  {
    "train_number": "256   ",
    "unit_number": "1216.0229",
    "name": "Wr. Neustadt Hbf (in Nb)",
    "abbr": "Nb  ",
    "lat": "47.8113",
    "lng": "16.2337",
    "arrival": "2023-09-18T10:28:00Z",
    "departure": "2023-09-18T10:32:00Z"
  },
  {
    "train_number": "256   ",
    "unit_number": "1216.0229",
    "name": "Neunkirchen N.Ö.",
    "abbr": "Nek ",
    "lat": "47.731",
    "lng": "16.0826",
    "arrival": null,
    "departure": "2023-09-18T10:19:00Z"
  },
  {
    "train_number": "256   ",
    "unit_number": "1216.0229",
    "name": "Payerbach-Reichenau",
    "abbr": "Pr  ",
    "lat": "47.696",
    "lng": "15.8632",
    "arrival": null,
    "departure": "2023-09-18T10:08:00Z"
  },
  {
    "train_number": "256   ",
    "unit_number": "1216.0229",
    "name": "Mürzzuschlag (in Mz)",
    "abbr": "Mz  ",
    "lat": "47.6079",
    "lng": "15.677",
    "arrival": "2023-09-18T09:30:00Z",
    "departure": "2023-09-18T09:32:00Z"
  },
  {
    "train_number": "256   ",
    "unit_number": "1216.0229",
    "name": "Bruck a.d.Mur (in Bm)",
    "abbr": "Bm  ",
    "lat": "47.4134",
    "lng": "15.2797",
    "arrival": "2023-09-18T09:00:00Z",
    "departure": "2023-09-18T09:02:00Z"
  },
  {
    "train_number": "256   ",
    "unit_number": "1216.0229",
    "name": "Graz Vbf (in G)",
    "abbr": "Gi  ",
    "lat": "47.0885",
    "lng": "15.4077",
    "arrival": null,
    "departure": "2023-09-18T08:28:00Z"
  },
  {
    "train_number": "553   ",
    "unit_number": "1216.0229",
    "name": "Graz Hbf (in G)",
    "abbr": "G   ",
    "lat": "47.0733",
    "lng": "15.4163",
    "arrival": "2023-09-18T07:34:00Z",
    "departure": "2023-09-18T08:25:00Z"
  },
  {
    "train_number": "553   ",
    "unit_number": "1216.0229",
    "name": "Graz Vbf (in G)",
    "abbr": "Gi  ",
    "lat": "47.0885",
    "lng": "15.4077",
    "arrival": null,
    "departure": "2023-09-18T07:31:00Z"
  },
  {
    "train_number": "553   ",
    "unit_number": "1216.0229",
    "name": "Bruck a.d.Mur (in Bm)",
    "abbr": "Bm  ",
    "lat": "47.4134",
    "lng": "15.2797",
    "arrival": "2023-09-18T06:57:00Z",
    "departure": "2023-09-18T06:59:00Z"
  },
  {
    "train_number": "553   ",
    "unit_number": "1216.0229",
    "name": "Mürzzuschlag (in Mz)",
    "abbr": "Mz  ",
    "lat": "47.6079",
    "lng": "15.677",
    "arrival": "2023-09-18T06:28:00Z",
    "departure": "2023-09-18T06:30:00Z"
  },
  {
    "train_number": "553   ",
    "unit_number": "1216.0229",
    "name": "Payerbach-Reichenau",
    "abbr": "Pr  ",
    "lat": "47.696",
    "lng": "15.8632",
    "arrival": null,
    "departure": "2023-09-18T05:52:00Z"
  },
  {
    "train_number": "553   ",
    "unit_number": "1216.0229",
    "name": "Neunkirchen N.Ö.",
    "abbr": "Nek ",
    "lat": "47.731",
    "lng": "16.0826",
    "arrival": null,
    "departure": "2023-09-18T05:41:00Z"
  },
  {
    "train_number": "553   ",
    "unit_number": "1216.0229",
    "name": "Wr. Neustadt Hbf (in Nb)",
    "abbr": "Nb  ",
    "lat": "47.8113",
    "lng": "16.2337",
    "arrival": "2023-09-18T05:28:00Z",
    "departure": "2023-09-18T05:32:00Z"
  },
  {
    "train_number": "553   ",
    "unit_number": "1216.0229",
    "name": "Leobersdorf",
    "abbr": "Lb  ",
    "lat": "47.9375",
    "lng": "16.2313",
    "arrival": null,
    "departure": "2023-09-18T05:21:00Z"
  },
  {
    "train_number": "553   ",
    "unit_number": "1216.0229",
    "name": "Mödling",
    "abbr": "Md  ",
    "lat": "48.0858",
    "lng": "16.2958",
    "arrival": null,
    "departure": "2023-09-18T05:13:00Z"
  },
  {
    "train_number": "553   ",
    "unit_number": "1216.0229",
    "name": "Wien Meidling (in Wbf)",
    "abbr": "Mi  ",
    "lat": "48.1747",
    "lng": "16.3348",
    "arrival": "2023-09-18T05:03:00Z",
    "departure": "2023-09-18T05:05:00Z"
  },
  {
    "train_number": "632   ",
    "unit_number": "1216.0229",
    "name": "Wien Hauptbahnhof (in Wbf)",
    "abbr": "Wbf ",
    "lat": "48.1747",
    "lng": "16.3348",
    "arrival": "2023-09-14T19:42:00Z",
    "departure": "2023-09-18T04:12:00Z"
  }
]
