[
  {
    "train_number": "373   ",
    "unit_number": "1216.0229",
    "name": "Wr. Neustadt Hbf (in Nb)",
    "abbr": "Nb  ",
    "lat": "47.8113",
    "lng": "16.2337",
    "arrival": "2023-10-30T20:28:00Z",
    "departure": "2023-10-30T20:32:00Z"
  },
  {
    "train_number": "373   ",
    "unit_number": "1216.0229",
    "name": "Leobersdorf",
    "abbr": "Lb  ",
    "lat": "47.9375",
    "lng": "16.2313",
    "arrival": null,
    "departure": "2023-10-30T20:21:00Z"
  },
  {
    "train_number": "373   ",
    "unit_number": "1216.0229",
    "name": "Mödling",
    "abbr": "Md  ",
    "lat": "48.0858",
    "lng": "16.2958",
    "arrival": null,
    "departure": "2023-10-30T20:13:00Z"
  },
  {
    "train_number": "373   ",
    "unit_number": "1216.0229",
    "name": "Wien Meidling (in Wbf)",
    "abbr": "Mi  ",
    "lat": "48.1747",
    "lng": "16.3348",
    "arrival": "2023-10-30T20:03:00Z",
    "departure": "2023-10-30T20:05:00Z"
  },
  {
    "train_number": "373   ",
    "unit_number": "1216.0229",
    "name": "Gänserndorf",
    "abbr": "Gae ",
    "lat": "48.3401",
    "lng": "16.7324",
    "arrival": null,
    "departure": "2023-10-30T19:22:00Z"
  },
  {
    "train_number": "373   ",
    "unit_number": "1216.0229",
    "name": "Hohenau",
    "abbr": "Nh  ",
    "lat": "48.5981",
    "lng": "16.9008",
    "arrival": null,
    "departure": "2023-10-30T19:05:00Z"
  },
  {
    "train_number": "373   ",
    "unit_number": "1216.0229",
    "name": "Brno Hlavni Nadrazi",
    "abbr": "BRHN",
    "lat": "49.1909",
    "lng": "16.6134",
    "arrival": "2023-10-30T18:19:00Z",
    "departure": "2023-10-30T18:21:00Z"
  },
  {
    "train_number": "72    ",
    "unit_number": "1216.0229",
    "name": "Brno Hlavni Nadrazi",
    "abbr": "BRHN",
    "lat": "49.1909",
    "lng": "16.6134",
    "arrival": "2023-10-30T09:37:00Z",
    "departure": "2023-10-30T09:39:00Z"
  },
  {
    "train_number": "72    ",
    "unit_number": "1216.0229",
    "name": "Hohenau",
    "abbr": "Nh  ",
    "lat": "48.5981",
    "lng": "16.9008",
    "arrival": null,
    "departure": "2023-10-30T08:54:00Z"
  },
  {
    "train_number": "72    ",
    "unit_number": "1216.0229",
    "name": "Gänserndorf",
    "abbr": "Gae ",
    "lat": "48.3401",
    "lng": "16.7324",
    "arrival": null,
    "departure": "2023-10-30T08:35:00Z"
  },
  {
    "train_number": "72    ",
    "unit_number": "1216.0229",
    "name": "Wien Meidling (in Wbf)",
    "abbr": "Mi  ",
    "lat": "48.1747",
    "lng": "16.3348",
    "arrival": "2023-10-30T07:55:00Z",
    "departure": "2023-10-30T07:57:00Z"
  },
  {
    "train_number": "72    ",
    "unit_number": "1216.0229",
    "name": "Mödling",
    "abbr": "Md  ",
    "lat": "48.0858",
    "lng": "16.2958",
    "arrival": null,
    "departure": "2023-10-30T07:46:00Z"
  },
  {
    "train_number": "72    ",
    "unit_number": "1216.0229",
    "name": "Leobersdorf",
    "abbr": "Lb  ",
    "lat": "47.9375",
    "lng": "16.2313",
    "arrival": null,
    "departure": "2023-10-30T07:39:00Z"
  },
  {
    "train_number": "72    ",
    "unit_number": "1216.0229",
    "name": "Wr. Neustadt Hbf (in Nb)",
    "abbr": "Nb  ",
    "lat": "47.8113",
    "lng": "16.2337",
    "arrival": "2023-10-30T07:28:00Z",
    "departure": "2023-10-30T07:32:00Z"
  },
  {
    "train_number": "72    ",
    "unit_number": "1216.0229",
    "name": "Neunkirchen N.Ö.",
    "abbr": "Nek ",
    "lat": "47.731",
    "lng": "16.0826",
    "arrival": null,
    "departure": "2023-10-30T07:19:00Z"
  },
  {
    "train_number": "72    ",
    "unit_number": "1216.0229",
    "name": "Payerbach-Reichenau",
    "abbr": "Pr  ",
    "lat": "47.696",
    "lng": "15.8632",
    "arrival": null,
    "departure": "2023-10-30T07:08:00Z"
  },
  {
    "train_number": "72    ",
    "unit_number": "1216.0229",
    "name": "Mürzzuschlag (in Mz)",
    "abbr": "Mz  ",
    "lat": "47.6079",
    "lng": "15.677",
    "arrival": "2023-10-30T06:30:00Z",
    "departure": "2023-10-30T06:32:00Z"
  },
  {
    "train_number": "72    ",
    "unit_number": "1216.0229",
    "name": "Bruck a.d.Mur (in Bm)",
    "abbr": "Bm  ",
    "lat": "47.4134",
    "lng": "15.2797",
    "arrival": "2023-10-30T06:00:00Z",
    "departure": "2023-10-30T06:02:00Z"
  },
  {
    "train_number": "72    ",
    "unit_number": "1216.0229",
    "name": "Graz Vbf (in G)",
    "abbr": "Gi  ",
    "lat": "47.0885",
    "lng": "15.4077",
    "arrival": null,
    "departure": "2023-10-30T05:28:00Z"
  },
  {
    "train_number": "1271  ",
    "unit_number": "1216.0229",
    "name": "Graz Hbf (in G)",
    "abbr": "G   ",
    "lat": "47.0733",
    "lng": "15.4163",
    "arrival": "2023-10-29T20:39:00Z",
    "departure": "2023-10-30T05:25:00Z"
  }
]
