[
  {
    "train_number": "632   ",
    "unit_number": "1216.0229",
    "name": "Bruck a.d.Mur (in Bm)",
    "abbr": "Bm  ",
    "lat": "47.4134",
    "lng": "15.2797",
    "arrival": "2023-09-12T17:43:00Z",
    "departure": "2023-09-12T17:45:00Z"
  },
  {
    "train_number": "632   ",
    "unit_number": "1216.0229",
    "name": "Leoben Hbf (in Leb)",
    "abbr": "Leb ",
    "lat": "47.3867",
    "lng": "15.0898",
    "arrival": "2023-09-12T17:32:00Z",
    "departure": "2023-09-12T17:33:00Z"
  },
  {
    "train_number": "632   ",
    "unit_number": "1216.0229",
    "name": "Zeltweg",
    "abbr": "Zg  ",
    "lat": "47.1887",
    "lng": "14.7425",
    "arrival": null,
    "departure": "2023-09-12T17:07:00Z"
  },
  {
    "train_number": "632   ",
    "unit_number": "1216.0229",
    "name": "St.Veit a.d.Glan (in Vps)",
    "abbr": "Vps ",
    "lat": "46.7704",
    "lng": "14.3672",
    "arrival": "2023-09-12T15:51:00Z",
    "departure": "2023-09-12T15:53:00Z"
  },
  {
    "train_number": "632   ",
    "unit_number": "1216.0229",
    "name": "Klagenfurt Hbf (in Kt)",
    "abbr": "Kt  ",
    "lat": "46.6156",
    "lng": "14.3137",
    "arrival": "2023-09-12T15:37:00Z",
    "departure": "2023-09-12T15:39:00Z"
  },
  {
    "train_number": "632   ",
    "unit_number": "1216.0229",
    "name": "Villach Hbf",
    "abbr": "Vb  ",
    "lat": "46.6186",
    "lng": "13.8484",
    "arrival": "2023-09-12T15:09:00Z",
    "departure": "2023-09-12T15:14:00Z"
  },
  {
    "train_number": "533   ",
    "unit_number": "1216.0229",
    "name": "Villach Hbf",
    "abbr": "Vb  ",
    "lat": "46.6186",
    "lng": "13.8484",
    "arrival": "2023-09-12T10:46:00Z",
    "departure": "2023-09-12T10:50:00Z"
  },
  {
    "train_number": "533   ",
    "unit_number": "1216.0229",
    "name": "Klagenfurt Hbf (in Kt)",
    "abbr": "Kt  ",
    "lat": "46.6156",
    "lng": "14.3137",
    "arrival": "2023-09-12T10:20:00Z",
    "departure": "2023-09-12T10:22:00Z"
  },
  {
    "train_number": "533   ",
    "unit_number": "1216.0229",
    "name": "St.Veit a.d.Glan (in Vps)",
    "abbr": "Vps ",
    "lat": "46.7704",
    "lng": "14.3672",
    "arrival": "2023-09-12T10:06:00Z",
    "departure": "2023-09-12T10:08:00Z"
  },
  {
    "train_number": "533   ",
    "unit_number": "1216.0229",
    "name": "Zeltweg",
    "abbr": "Zg  ",
    "lat": "47.1887",
    "lng": "14.7425",
    "arrival": null,
    "departure": "2023-09-12T08:52:00Z"
  },
  {
    "train_number": "533   ",
    "unit_number": "1216.0229",
    "name": "Leoben Hbf (in Leb)",
    "abbr": "Leb ",
    "lat": "47.3867",
    "lng": "15.0898",
    "arrival": "2023-09-12T08:25:00Z",
    "departure": "2023-09-12T08:27:00Z"
  },
  {
    "train_number": "533   ",
    "unit_number": "1216.0229",
    "name": "Bruck a.d.Mur (in Bm)",
    "abbr": "Bm  ",
    "lat": "47.4134",
    "lng": "15.2797",
    "arrival": "2023-09-12T08:13:00Z",
    "departure": "2023-09-12T08:15:00Z"
  },
  {
    "train_number": "533   ",
    "unit_number": "1216.0229",
    "name": "Mürzzuschlag (in Mz)",
    "abbr": "Mz  ",
    "lat": "47.6079",
    "lng": "15.677",
    "arrival": null,
    "departure": "2023-09-12T07:46:00Z"
  },
  {
    "train_number": "533   ",
    "unit_number": "1216.0229",
    "name": "Payerbach-Reichenau",
    "abbr": "Pr  ",
    "lat": "47.696",
    "lng": "15.8632",
    "arrival": null,
    "departure": "2023-09-12T07:12:00Z"
  },
  {
    "train_number": "533   ",
    "unit_number": "1216.0229",
    "name": "Neunkirchen N.Ö.",
    "abbr": "Nek ",
    "lat": "47.731",
    "lng": "16.0826",
    "arrival": null,
    "departure": "2023-09-12T07:01:00Z"
  },
  {
    "train_number": "533   ",
    "unit_number": "1216.0229",
    "name": "Wr. Neustadt Hbf (in Nb)",
    "abbr": "Nb  ",
    "lat": "47.8113",
    "lng": "16.2337",
    "arrival": "2023-09-12T06:50:00Z",
    "departure": "2023-09-12T06:52:00Z"
  },
  {
    "train_number": "533   ",
    "unit_number": "1216.0229",
    "name": "Leobersdorf",
    "abbr": "Lb  ",
    "lat": "47.9375",
    "lng": "16.2313",
    "arrival": null,
    "departure": "2023-09-12T06:43:00Z"
  },
  {
    "train_number": "533   ",
    "unit_number": "1216.0229",
    "name": "Mödling",
    "abbr": "Md  ",
    "lat": "48.0858",
    "lng": "16.2958",
    "arrival": null,
    "departure": "2023-09-12T06:34:00Z"
  },
  {
    "train_number": "533   ",
    "unit_number": "1216.0229",
    "name": "Wien Meidling (in Wbf)",
    "abbr": "Mi  ",
    "lat": "48.1747",
    "lng": "16.3348",
    "arrival": "2023-09-12T06:23:00Z",
    "departure": "2023-09-12T06:25:00Z"
  },
  {
    "train_number": "850   ",
    "unit_number": "1216.0229",
    "name": "Wien Hauptbahnhof (in Wbf)",
    "abbr": "Wbf ",
    "lat": "48.1747",
    "lng": "16.3348",
    "arrival": "2023-09-11T21:02:00Z",
    "departure": "2023-09-12T06:18:00Z"
  }
]
