[
  {
    "train_number": "41173 ",
    "unit_number": "1293.0200",
    "name": "Neunkirchen N.Ö.",
    "abbr": "Nek ",
    "lat": "47.731",
    "lng": "16.0826",
    "arrival": null,
    "departure": "2023-09-29T02:01:00Z"
  },
  {
    "train_number": "41173 ",
    "unit_number": "1293.0200",
    "name": "Wr. Neustadt Hbf (in Nb)",
    "abbr": "Nb  ",
    "lat": "47.8113",
    "lng": "16.2337",
    "arrival": null,
    "departure": "2023-09-29T01:48:00Z"
  },
  {
    "train_number": "41173 ",
    "unit_number": "1293.0200",
    "name": "Leobersdorf",
    "abbr": "Lb  ",
    "lat": "47.9375",
    "lng": "16.2313",
    "arrival": null,
    "departure": "2023-09-29T01:34:00Z"
  },
  {
    "train_number": "41173 ",
    "unit_number": "1293.0200",
    "name": "Mödling",
    "abbr": "Md  ",
    "lat": "48.0858",
    "lng": "16.2958",
    "arrival": null,
    "departure": "2023-09-29T01:17:00Z"
  },
  {
    "train_number": "41173 ",
    "unit_number": "1293.0200",
    "name": "Wien Meidling (in Wbf)",
    "abbr": "Mi  ",
    "lat": "48.1747",
    "lng": "16.3348",
    "arrival": null,
    "departure": "2023-09-29T01:07:00Z"
  },
  {
    "train_number": "41173 ",
    "unit_number": "1293.0200",
    "name": "Wien Zvbf (in Zur)",
    "abbr": "Zur ",
    "lat": "48.1453",
    "lng": "16.43",
    "arrival": null,
    "departure": "2023-09-29T00:58:00Z"
  },
  {
    "train_number": "41173 ",
    "unit_number": "1293.0200",
    "name": "Kledering (in Zur)",
    "abbr": "Za  ",
    "lat": "48.1453",
    "lng": "16.43",
    "arrival": "2023-09-29T00:20:00Z",
    "departure": "2023-09-29T00:57:00Z"
  },
  {
    "train_number": "41173 ",
    "unit_number": "1293.0200",
    "name": "Parndorf",
    "abbr": "Par ",
    "lat": "47.987",
    "lng": "16.8702",
    "arrival": null,
    "departure": "2023-09-28T23:46:00Z"
  },
  {
    "train_number": "41173 ",
    "unit_number": "1293.0200",
    "name": "Hegyeshalom",
    "abbr": "He  ",
    "lat": "47.9139",
    "lng": "17.1455",
    "arrival": "2023-09-28T22:10:00Z",
    "departure": "2023-09-28T23:28:00Z"
  },
  {
    "train_number": "42182 ",
    "unit_number": "1293.0200",
    "name": "SOROKSÁRI ÚT RENDEZÖ",
    "abbr": "BKR ",
    "lat": "47.4687",
    "lng": "19.0882",
    "arrival": "2023-09-28T03:42:00Z",
    "departure": "2023-09-28T18:30:00Z"
  }
]
