[
  {
    "train_number": "82081 ",
    "unit_number": "1293.0200",
    "name": "Selzthal (in Sl)",
    "abbr": "Sl  ",
    "lat": "47.5505",
    "lng": "14.3134",
    "arrival": "2023-10-11T18:27:00Z",
    "departure": "2023-10-12T04:43:00Z"
  },
  {
    "train_number": "48912 ",
    "unit_number": "1293.0200",
    "name": "Selzthal (in Sl)",
    "abbr": "Sl  ",
    "lat": "47.5505",
    "lng": "14.3134",
    "arrival": "2023-10-11T16:10:00Z",
    "departure": "2023-10-11T17:38:00Z"
  },
  {
    "train_number": "48912 ",
    "unit_number": "1293.0200",
    "name": "St.Michael (in M)",
    "abbr": "M   ",
    "lat": "47.3445",
    "lng": "15.0103",
    "arrival": null,
    "departure": "2023-10-11T15:20:00Z"
  },
  {
    "train_number": "48912 ",
    "unit_number": "1293.0200",
    "name": "Leoben Hbf (in Leb)",
    "abbr": "Leb ",
    "lat": "47.3867",
    "lng": "15.0898",
    "arrival": null,
    "departure": "2023-10-11T15:13:00Z"
  },
  {
    "train_number": "48912 ",
    "unit_number": "1293.0200",
    "name": "Bruck a.d.Mur (in Bm)",
    "abbr": "Bm  ",
    "lat": "47.4134",
    "lng": "15.2797",
    "arrival": null,
    "departure": "2023-10-11T15:00:00Z"
  },
  {
    "train_number": "67660 ",
    "unit_number": "1293.0200",
    "name": "Bruck a.d.Mur-Fbf (in Bm)",
    "abbr": "Bk  ",
    "lat": "47.4219",
    "lng": "15.28",
    "arrival": "2023-10-11T08:49:00Z",
    "departure": "2023-10-11T13:41:00Z"
  },
  {
    "train_number": "67660 ",
    "unit_number": "1293.0200",
    "name": "Bruck a.d.Mur (in Bm)",
    "abbr": "Bm  ",
    "lat": "47.4134",
    "lng": "15.2797",
    "arrival": null,
    "departure": "2023-10-11T08:46:00Z"
  },
  {
    "train_number": "67660 ",
    "unit_number": "1293.0200",
    "name": "Leoben Hbf (in Leb)",
    "abbr": "Leb ",
    "lat": "47.3867",
    "lng": "15.0898",
    "arrival": null,
    "departure": "2023-10-11T08:30:00Z"
  },
  {
    "train_number": "67660 ",
    "unit_number": "1293.0200",
    "name": "St.Michael (in M)",
    "abbr": "M   ",
    "lat": "47.3445",
    "lng": "15.0103",
    "arrival": "2023-10-11T07:41:00Z",
    "departure": "2023-10-11T08:20:00Z"
  }
]
