[
  {
    "train_number": "42217 ",
    "unit_number": "1293.0200",
    "name": "Klagenfurt Hbf (in Kt)",
    "abbr": "Kt  ",
    "lat": "46.6156",
    "lng": "14.3137",
    "arrival": null,
    "departure": "2023-10-16T18:49:00Z"
  },
  {
    "train_number": "42217 ",
    "unit_number": "1293.0200",
    "name": "St.Veit a.d.Glan (in Vps)",
    "abbr": "Vps ",
    "lat": "46.7704",
    "lng": "14.3672",
    "arrival": null,
    "departure": "2023-10-16T18:31:00Z"
  },
  {
    "train_number": "42217 ",
    "unit_number": "1293.0200",
    "name": "Zeltweg",
    "abbr": "Zg  ",
    "lat": "47.1887",
    "lng": "14.7425",
    "arrival": null,
    "departure": "2023-10-16T17:11:00Z"
  },
  {
    "train_number": "42217 ",
    "unit_number": "1293.0200",
    "name": "Leoben Hbf (in Leb)",
    "abbr": "Leb ",
    "lat": "47.3867",
    "lng": "15.0898",
    "arrival": null,
    "departure": "2023-10-16T16:39:00Z"
  },
  {
    "train_number": "42217 ",
    "unit_number": "1293.0200",
    "name": "Bruck a.d.Mur (in Bm)",
    "abbr": "Bm  ",
    "lat": "47.4134",
    "lng": "15.2797",
    "arrival": null,
    "departure": "2023-10-16T16:25:00Z"
  },
  {
    "train_number": "42217 ",
    "unit_number": "1293.0200",
    "name": "Mürzzuschlag (in Mz)",
    "abbr": "Mz  ",
    "lat": "47.6079",
    "lng": "15.677",
    "arrival": null,
    "departure": "2023-10-16T15:17:00Z"
  },
  {
    "train_number": "42217 ",
    "unit_number": "1293.0200",
    "name": "Payerbach-Reichenau",
    "abbr": "Pr  ",
    "lat": "47.696",
    "lng": "15.8632",
    "arrival": null,
    "departure": "2023-10-16T14:41:00Z"
  },
  {
    "train_number": "42217 ",
    "unit_number": "1293.0200",
    "name": "Neunkirchen N.Ö.",
    "abbr": "Nek ",
    "lat": "47.731",
    "lng": "16.0826",
    "arrival": null,
    "departure": "2023-10-16T13:53:00Z"
  },
  {
    "train_number": "42217 ",
    "unit_number": "1293.0200",
    "name": "Wr. Neustadt Hbf (in Nb)",
    "abbr": "Nb  ",
    "lat": "47.8113",
    "lng": "16.2337",
    "arrival": null,
    "departure": "2023-10-16T13:40:00Z"
  },
  {
    "train_number": "42217 ",
    "unit_number": "1293.0200",
    "name": "Ebenfurth (in Ef)",
    "abbr": "Ef  ",
    "lat": "47.8777",
    "lng": "16.3621",
    "arrival": null,
    "departure": "2023-10-16T13:16:00Z"
  },
  {
    "train_number": null,
    "unit_number": "1293.0200",
    "name": "Kledering (in Zur)",
    "abbr": "Za  ",
    "lat": "48.1331",
    "lng": "16.4396",
    "arrival": null,
    "departure": "2023-10-16T11:45:00Z"
  },
  {
    "train_number": "54076 ",
    "unit_number": "1293.0200",
    "name": "Wien Meidling (in Wbf)",
    "abbr": "Mi  ",
    "lat": "48.1747",
    "lng": "16.3348",
    "arrival": null,
    "departure": "2023-10-16T09:11:00Z"
  },
  {
    "train_number": "54076 ",
    "unit_number": "1293.0200",
    "name": "Mödling",
    "abbr": "Md  ",
    "lat": "48.0858",
    "lng": "16.2958",
    "arrival": null,
    "departure": "2023-10-16T08:59:00Z"
  },
  {
    "train_number": "54076 ",
    "unit_number": "1293.0200",
    "name": "Leobersdorf",
    "abbr": "Lb  ",
    "lat": "47.9375",
    "lng": "16.2313",
    "arrival": null,
    "departure": "2023-10-16T08:46:00Z"
  },
  {
    "train_number": "54076 ",
    "unit_number": "1293.0200",
    "name": "Wr. Neustadt Hbf (in Nb)",
    "abbr": "Nb  ",
    "lat": "47.8113",
    "lng": "16.2337",
    "arrival": null,
    "departure": "2023-10-16T08:36:00Z"
  },
  {
    "train_number": "54076 ",
    "unit_number": "1293.0200",
    "name": "Neunkirchen N.Ö.",
    "abbr": "Nek ",
    "lat": "47.731",
    "lng": "16.0826",
    "arrival": null,
    "departure": "2023-10-16T08:26:00Z"
  },
  {
    "train_number": "54076 ",
    "unit_number": "1293.0200",
    "name": "Payerbach-Reichenau",
    "abbr": "Pr  ",
    "lat": "47.696",
    "lng": "15.8632",
    "arrival": null,
    "departure": "2023-10-16T07:59:00Z"
  },
  {
    "train_number": "54076 ",
    "unit_number": "1293.0200",
    "name": "Mürzzuschlag (in Mz)",
    "abbr": "Mz  ",
    "lat": "47.6079",
    "lng": "15.677",
    "arrival": null,
    "departure": "2023-10-16T07:21:00Z"
  },
  {
    "train_number": "54076 ",
    "unit_number": "1293.0200",
    "name": "Bruck a.d.Mur (in Bm)",
    "abbr": "Bm  ",
    "lat": "47.4134",
    "lng": "15.2797",
    "arrival": null,
    "departure": "2023-10-16T06:39:00Z"
  },
  {
    "train_number": "54758 ",
    "unit_number": "1293.0200",
    "name": "Graz Vbf (in G)",
    "abbr": "Gi  ",
    "lat": "47.0885",
    "lng": "15.4077",
    "arrival": "2023-10-14T11:59:00Z",
    "departure": "2023-10-16T05:58:00Z"
  }
]
