[
  {
    "train_number": "47642 ",
    "unit_number": "1293.0200",
    "name": "Wien Zvbf (in Zur)",
    "abbr": "Zur ",
    "lat": "48.1453",
    "lng": "16.43",
    "arrival": null,
    "departure": "2023-09-04T18:27:00Z"
  },
  {
    "train_number": "47642 ",
    "unit_number": "1293.0200",
    "name": "Parndorf",
    "abbr": "Par ",
    "lat": "47.987",
    "lng": "16.8702",
    "arrival": null,
    "departure": "2023-09-04T17:53:00Z"
  },
  {
    "train_number": "47642 ",
    "unit_number": "1293.0200",
    "name": "Staatsgrenze n. Kittsee",
    "abbr": "Kttg",
    "lat": "48.1028",
    "lng": "17.0842",
    "arrival": null,
    "departure": "2023-09-04T17:35:00Z"
  },
  {
    "train_number": "47649 ",
    "unit_number": "1293.0200",
    "name": "Staatsgrenze n. Kittsee",
    "abbr": "Kttg",
    "lat": "48.1028",
    "lng": "17.0842",
    "arrival": null,
    "departure": "2023-09-04T17:10:00Z"
  },
  {
    "train_number": "47649 ",
    "unit_number": "1293.0200",
    "name": "Parndorf",
    "abbr": "Par ",
    "lat": "47.987",
    "lng": "16.8702",
    "arrival": null,
    "departure": "2023-09-04T16:46:00Z"
  },
  {
    "train_number": "47649 ",
    "unit_number": "1293.0200",
    "name": "Kledering (in Zur)",
    "abbr": "Za  ",
    "lat": "48.1453",
    "lng": "16.43",
    "arrival": "2023-09-04T16:11:00Z",
    "departure": "2023-09-04T16:14:00Z"
  },
  {
    "train_number": "47649 ",
    "unit_number": "1293.0200",
    "name": "Ebenfurth (in Ef)",
    "abbr": "Ef  ",
    "lat": "47.8777",
    "lng": "16.3621",
    "arrival": null,
    "departure": "2023-09-04T15:11:00Z"
  },
  {
    "train_number": "47649 ",
    "unit_number": "1293.0200",
    "name": "Wr. Neustadt Hbf (in Nb)",
    "abbr": "Nb  ",
    "lat": "47.8113",
    "lng": "16.2337",
    "arrival": null,
    "departure": "2023-09-04T14:59:00Z"
  },
  {
    "train_number": "47649 ",
    "unit_number": "1293.0200",
    "name": "Neunkirchen N.Ö.",
    "abbr": "Nek ",
    "lat": "47.731",
    "lng": "16.0826",
    "arrival": null,
    "departure": "2023-09-04T14:48:00Z"
  },
  {
    "train_number": "47649 ",
    "unit_number": "1293.0200",
    "name": "Payerbach-Reichenau",
    "abbr": "Pr  ",
    "lat": "47.696",
    "lng": "15.8632",
    "arrival": null,
    "departure": "2023-09-04T14:03:00Z"
  },
  {
    "train_number": "47649 ",
    "unit_number": "1293.0200",
    "name": "Mürzzuschlag (in Mz)",
    "abbr": "Mz  ",
    "lat": "47.6079",
    "lng": "15.677",
    "arrival": null,
    "departure": "2023-09-04T13:17:00Z"
  },
  {
    "train_number": "47649 ",
    "unit_number": "1293.0200",
    "name": "Bruck a.d.Mur (in Bm)",
    "abbr": "Bm  ",
    "lat": "47.4134",
    "lng": "15.2797",
    "arrival": null,
    "departure": "2023-09-04T12:38:00Z"
  },
  {
    "train_number": "47649 ",
    "unit_number": "1293.0200",
    "name": "Leoben Hbf (in Leb)",
    "abbr": "Leb ",
    "lat": "47.3867",
    "lng": "15.0898",
    "arrival": null,
    "departure": "2023-09-04T12:25:00Z"
  },
  {
    "train_number": "89016 ",
    "unit_number": "1293.0200",
    "name": "St.Michael (in M)",
    "abbr": "M   ",
    "lat": "47.3445",
    "lng": "15.0103",
    "arrival": "2023-09-04T11:20:00Z",
    "departure": "2023-09-04T12:16:00Z"
  }
]
