[
  {
    "train_number": "46764 ",
    "unit_number": "1293.0200",
    "name": "Leoben Hbf (in Leb)",
    "abbr": "Leb ",
    "lat": "47.3867",
    "lng": "15.0898",
    "arrival": null,
    "departure": "2023-09-02T15:45:00Z"
  },
  {
    "train_number": "46764 ",
    "unit_number": "1293.0200",
    "name": "Zeltweg",
    "abbr": "Zg  ",
    "lat": "47.1887",
    "lng": "14.7425",
    "arrival": null,
    "departure": "2023-09-02T15:14:00Z"
  },
  {
    "train_number": "46764 ",
    "unit_number": "1293.0200",
    "name": "St.Veit a.d.Glan (in Vps)",
    "abbr": "Vps ",
    "lat": "46.7704",
    "lng": "14.3672",
    "arrival": null,
    "departure": "2023-09-02T13:31:00Z"
  },
  {
    "train_number": "46764 ",
    "unit_number": "1293.0200",
    "name": "Klagenfurt Hbf (in Kt)",
    "abbr": "Kt  ",
    "lat": "46.6156",
    "lng": "14.3137",
    "arrival": null,
    "departure": "2023-09-02T13:11:00Z"
  },
  {
    "train_number": "46764 ",
    "unit_number": "1293.0200",
    "name": "Villach Hbf",
    "abbr": "Vb  ",
    "lat": "46.6186",
    "lng": "13.8484",
    "arrival": null,
    "departure": "2023-09-02T12:23:00Z"
  },
  {
    "train_number": "46764 ",
    "unit_number": "1293.0200",
    "name": "Villach Westbf",
    "abbr": "Vf  ",
    "lat": "46.6186",
    "lng": "13.8484",
    "arrival": "2023-09-02T12:08:00Z",
    "departure": "2023-09-02T12:22:00Z"
  },
  {
    "train_number": "46733 ",
    "unit_number": "1293.0200",
    "name": "Tarvisio Boscoverde",
    "abbr": "Tbv ",
    "lat": "46.5059",
    "lng": "13.6081",
    "arrival": "2023-09-02T10:38:00Z",
    "departure": "2023-09-02T11:45:00Z"
  },
  {
    "train_number": "46733 ",
    "unit_number": "1293.0200",
    "name": "Villach Westbf",
    "abbr": "Vf  ",
    "lat": "46.6186",
    "lng": "13.8484",
    "arrival": "2023-09-02T09:25:00Z",
    "departure": "2023-09-02T10:11:00Z"
  },
  {
    "train_number": "46733 ",
    "unit_number": "1293.0200",
    "name": "Villach Hbf",
    "abbr": "Vb  ",
    "lat": "46.6186",
    "lng": "13.8484",
    "arrival": null,
    "departure": "2023-09-02T09:20:00Z"
  },
  {
    "train_number": "46733 ",
    "unit_number": "1293.0200",
    "name": "Klagenfurt Hbf (in Kt)",
    "abbr": "Kt  ",
    "lat": "46.6156",
    "lng": "14.3137",
    "arrival": null,
    "departure": "2023-09-02T08:46:00Z"
  },
  {
    "train_number": "46733 ",
    "unit_number": "1293.0200",
    "name": "St.Veit a.d.Glan (in Vps)",
    "abbr": "Vps ",
    "lat": "46.7704",
    "lng": "14.3672",
    "arrival": null,
    "departure": "2023-09-02T08:30:00Z"
  },
  {
    "train_number": "46733 ",
    "unit_number": "1293.0200",
    "name": "Zeltweg",
    "abbr": "Zg  ",
    "lat": "47.1887",
    "lng": "14.7425",
    "arrival": null,
    "departure": "2023-09-02T07:09:00Z"
  },
  {
    "train_number": "46733 ",
    "unit_number": "1293.0200",
    "name": "Leoben Hbf (in Leb)",
    "abbr": "Leb ",
    "lat": "47.3867",
    "lng": "15.0898",
    "arrival": null,
    "departure": "2023-09-02T06:14:00Z"
  },
  {
    "train_number": "46733 ",
    "unit_number": "1293.0200",
    "name": "Bruck a.d.Mur (in Bm)",
    "abbr": "Bm  ",
    "lat": "47.4134",
    "lng": "15.2797",
    "arrival": null,
    "departure": "2023-09-02T06:01:00Z"
  },
  {
    "train_number": "46733 ",
    "unit_number": "1293.0200",
    "name": "Mürzzuschlag (in Mz)",
    "abbr": "Mz  ",
    "lat": "47.6079",
    "lng": "15.677",
    "arrival": null,
    "departure": "2023-09-02T04:56:00Z"
  },
  {
    "train_number": "46733 ",
    "unit_number": "1293.0200",
    "name": "Payerbach-Reichenau",
    "abbr": "Pr  ",
    "lat": "47.696",
    "lng": "15.8632",
    "arrival": null,
    "departure": "2023-09-02T04:15:00Z"
  },
  {
    "train_number": "46733 ",
    "unit_number": "1293.0200",
    "name": "Neunkirchen N.Ö.",
    "abbr": "Nek ",
    "lat": "47.731",
    "lng": "16.0826",
    "arrival": null,
    "departure": "2023-09-02T03:29:00Z"
  },
  {
    "train_number": "46733 ",
    "unit_number": "1293.0200",
    "name": "Wr. Neustadt Hbf (in Nb)",
    "abbr": "Nb  ",
    "lat": "47.8113",
    "lng": "16.2337",
    "arrival": null,
    "departure": "2023-09-02T03:16:00Z"
  },
  {
    "train_number": "46733 ",
    "unit_number": "1293.0200",
    "name": "Ebenfurth (in Ef)",
    "abbr": "Ef  ",
    "lat": "47.8777",
    "lng": "16.3621",
    "arrival": null,
    "departure": "2023-09-02T03:03:00Z"
  },
  {
    "train_number": "46733 ",
    "unit_number": "1293.0200",
    "name": "Wien Zvbf (in Zur)",
    "abbr": "Zur ",
    "lat": "48.1453",
    "lng": "16.43",
    "arrival": "2023-09-02T02:18:00Z",
    "departure": "2023-09-02T02:30:00Z"
  }
]
