[
  {
    "train_number": "88094 ",
    "unit_number": "1293.0200",
    "name": "Linz Hbf",
    "abbr": "Lz  ",
    "lat": "48.2908",
    "lng": "14.2927",
    "arrival": "2023-08-26T17:39:00Z",
    "departure": "2023-08-27T09:10:00Z"
  },
  {
    "train_number": "48400 ",
    "unit_number": "1293.0200",
    "name": "Voest Alpine Linz",
    "abbr": "Ms  ",
    "lat": "48.2607",
    "lng": "14.2927",
    "arrival": "2023-08-26T16:38:00Z",
    "departure": "2023-08-26T17:28:00Z"
  },
  {
    "train_number": "48400 ",
    "unit_number": "1293.0200",
    "name": "Linz Hbf",
    "abbr": "Lz  ",
    "lat": "48.2908",
    "lng": "14.2927",
    "arrival": null,
    "departure": "2023-08-26T16:27:00Z"
  },
  {
    "train_number": "48400 ",
    "unit_number": "1293.0200",
    "name": "Wels Hbf",
    "abbr": "We  ",
    "lat": "48.1662",
    "lng": "14.0273",
    "arrival": null,
    "departure": "2023-08-26T16:08:00Z"
  },
  {
    "train_number": "48400 ",
    "unit_number": "1293.0200",
    "name": "Attnang-Puchheim",
    "abbr": "At  ",
    "lat": "48.0112",
    "lng": "13.7193",
    "arrival": null,
    "departure": "2023-08-26T15:23:00Z"
  },
  {
    "train_number": "48400 ",
    "unit_number": "1293.0200",
    "name": "Steindorf b.Straßw. (in Nst)",
    "abbr": "Nst ",
    "lat": "47.9676",
    "lng": "13.2406",
    "arrival": null,
    "departure": "2023-08-26T14:47:00Z"
  },
  {
    "train_number": "48400 ",
    "unit_number": "1293.0200",
    "name": "Salzburg Gnigl-Einfgr. (in Sb)",
    "abbr": "Sre ",
    "lat": "47.8075",
    "lng": "13.0687",
    "arrival": null,
    "departure": "2023-08-26T14:07:00Z"
  },
  {
    "train_number": "48400 ",
    "unit_number": "1293.0200",
    "name": "Bischofshofen (in Bo)",
    "abbr": "Bo  ",
    "lat": "47.42",
    "lng": "13.2199",
    "arrival": null,
    "departure": "2023-08-26T13:28:00Z"
  },
  {
    "train_number": "48400 ",
    "unit_number": "1293.0200",
    "name": "Schwarzach-St.Veit",
    "abbr": "Swa ",
    "lat": "47.3186",
    "lng": "13.1561",
    "arrival": "2023-08-26T12:59:00Z",
    "departure": "2023-08-26T13:13:00Z"
  },
  {
    "train_number": "48400 ",
    "unit_number": "1293.0200",
    "name": "Villach Westbf",
    "abbr": "Vf  ",
    "lat": "46.6186",
    "lng": "13.8484",
    "arrival": "2023-08-26T10:07:00Z",
    "departure": "2023-08-26T10:29:00Z"
  },
  {
    "train_number": "48400 ",
    "unit_number": "1293.0200",
    "name": "Rosenbach",
    "abbr": "Rn  ",
    "lat": "46.5309",
    "lng": "14.0354",
    "arrival": null,
    "departure": "2023-08-26T09:45:00Z"
  },
  {
    "train_number": "44233 ",
    "unit_number": "1293.0200",
    "name": "Tarvisio Boscoverde",
    "abbr": "Tbv ",
    "lat": "46.5059",
    "lng": "13.6081",
    "arrival": "2023-08-26T05:52:00Z",
    "departure": "2023-08-26T06:18:00Z"
  },
  {
    "train_number": null,
    "unit_number": "1293.0200",
    "name": "Villach Süd Gvbf Ausfgr",
    "abbr": "Va  ",
    "lat": "46.5674",
    "lng": "13.8238",
    "arrival": null,
    "departure": "2023-08-26T05:30:00Z"
  }
]
