[
  {
    "train_number": "45428 ",
    "unit_number": "1293.0200",
    "name": "Rosenbach",
    "abbr": "Rn  ",
    "lat": "46.5309",
    "lng": "14.0354",
    "arrival": null,
    "departure": "2023-10-15T00:07:00Z"
  },
  {
    "train_number": "13141 ",
    "unit_number": "1293.0200",
    "name": "Rosenbach",
    "abbr": "Rn  ",
    "lat": "46.5309",
    "lng": "14.0354",
    "arrival": null,
    "departure": "2023-10-14T19:57:00Z"
  },
  {
    "train_number": "13141 ",
    "unit_number": "1293.0200",
    "name": "Villach Hbf",
    "abbr": "Vb  ",
    "lat": "46.6186",
    "lng": "13.8484",
    "arrival": null,
    "departure": "2023-10-14T19:35:00Z"
  },
  {
    "train_number": null,
    "unit_number": "1293.0200",
    "name": "Villach Hbf-Autoverl. (in Vb)",
    "abbr": "Vba ",
    "lat": "46.6211",
    "lng": "13.8673",
    "arrival": null,
    "departure": "2023-10-14T19:32:00Z"
  },
  {
    "train_number": "45223 ",
    "unit_number": "1293.0200",
    "name": "Tarvisio Boscoverde",
    "abbr": "Tbv ",
    "lat": "46.5059",
    "lng": "13.6081",
    "arrival": "2023-10-14T17:35:00Z",
    "departure": "2023-10-14T18:00:00Z"
  },
  {
    "train_number": null,
    "unit_number": "1293.0200",
    "name": "Villach S端d Gvbf Ausfgr",
    "abbr": "Va  ",
    "lat": "46.5674",
    "lng": "13.8238",
    "arrival": null,
    "departure": "2023-10-14T17:13:00Z"
  },
  {
    "train_number": "44237 ",
    "unit_number": "1293.0200",
    "name": "Tarvisio Boscoverde",
    "abbr": "Tbv ",
    "lat": "46.5059",
    "lng": "13.6081",
    "arrival": "2023-10-14T14:58:00Z",
    "departure": "2023-10-14T15:20:00Z"
  },
  {
    "train_number": null,
    "unit_number": "1293.0200",
    "name": "Villach S端d Gvbf Ausfgr",
    "abbr": "Va  ",
    "lat": "46.5674",
    "lng": "13.8238",
    "arrival": null,
    "departure": "2023-10-14T14:37:00Z"
  },
  {
    "train_number": null,
    "unit_number": "1293.0200",
    "name": "Villach S端d Gvbf Ausfgr",
    "abbr": "Va  ",
    "lat": "46.5674",
    "lng": "13.8238",
    "arrival": null,
    "departure": "2023-10-14T10:22:00Z"
  },
  {
    "train_number": "45233 ",
    "unit_number": "1293.0200",
    "name": "Tarvisio Boscoverde",
    "abbr": "Tbv ",
    "lat": "46.5059",
    "lng": "13.6081",
    "arrival": "2023-10-14T08:55:00Z",
    "departure": "2023-10-14T09:02:00Z"
  },
  {
    "train_number": null,
    "unit_number": "1293.0200",
    "name": "Villach S端d Gvbf Ausfgr",
    "abbr": "Va  ",
    "lat": "46.5674",
    "lng": "13.8238",
    "arrival": null,
    "departure": "2023-10-14T08:33:00Z"
  }
]
