[
  {
    "train_number": "48442 ",
    "unit_number": "1293.0200",
    "name": "Schwarzach-St.Veit",
    "abbr": "Swa ",
    "lat": "47.3186",
    "lng": "13.1561",
    "arrival": "2023-09-24T00:45:00Z",
    "departure": "2023-09-24T01:37:00Z"
  },
  {
    "train_number": "48442 ",
    "unit_number": "1293.0200",
    "name": "Villach Westbf",
    "abbr": "Vf  ",
    "lat": "46.6186",
    "lng": "13.8484",
    "arrival": "2023-09-23T22:38:00Z",
    "departure": "2023-09-23T22:46:00Z"
  },
  {
    "train_number": "48442 ",
    "unit_number": "1293.0200",
    "name": "Rosenbach",
    "abbr": "Rn  ",
    "lat": "46.5309",
    "lng": "14.0354",
    "arrival": "2023-09-23T22:10:00Z",
    "departure": "2023-09-23T22:15:00Z"
  },
  {
    "train_number": "41823 ",
    "unit_number": "1293.0200",
    "name": "Rosenbach",
    "abbr": "Rn  ",
    "lat": "46.5309",
    "lng": "14.0354",
    "arrival": null,
    "departure": "2023-09-23T20:44:00Z"
  },
  {
    "train_number": null,
    "unit_number": "1293.0200",
    "name": "Villach Süd Gvbf Ausfgr",
    "abbr": "Va  ",
    "lat": "46.5674",
    "lng": "13.8238",
    "arrival": null,
    "departure": "2023-09-23T20:26:00Z"
  },
  {
    "train_number": "45334 ",
    "unit_number": "1293.0200",
    "name": "Villach Hbf",
    "abbr": "Vb  ",
    "lat": "46.6186",
    "lng": "13.8484",
    "arrival": null,
    "departure": "2023-09-23T16:59:00Z"
  },
  {
    "train_number": "45334 ",
    "unit_number": "1293.0200",
    "name": "Klagenfurt Hbf (in Kt)",
    "abbr": "Kt  ",
    "lat": "46.6156",
    "lng": "14.3137",
    "arrival": null,
    "departure": "2023-09-23T16:15:00Z"
  },
  {
    "train_number": "45334 ",
    "unit_number": "1293.0200",
    "name": "St.Veit a.d.Glan (in Vps)",
    "abbr": "Vps ",
    "lat": "46.7704",
    "lng": "14.3672",
    "arrival": "2023-09-23T15:57:00Z",
    "departure": "2023-09-23T16:00:00Z"
  },
  {
    "train_number": "45334 ",
    "unit_number": "1293.0200",
    "name": "Zeltweg",
    "abbr": "Zg  ",
    "lat": "47.1887",
    "lng": "14.7425",
    "arrival": null,
    "departure": "2023-09-23T14:35:00Z"
  },
  {
    "train_number": "45334 ",
    "unit_number": "1293.0200",
    "name": "Leoben Hbf (in Leb)",
    "abbr": "Leb ",
    "lat": "47.3867",
    "lng": "15.0898",
    "arrival": null,
    "departure": "2023-09-23T13:59:00Z"
  },
  {
    "train_number": "45334 ",
    "unit_number": "1293.0200",
    "name": "Bruck a.d.Mur (in Bm)",
    "abbr": "Bm  ",
    "lat": "47.4134",
    "lng": "15.2797",
    "arrival": "2023-09-23T13:45:00Z",
    "departure": "2023-09-23T13:45:00Z"
  },
  {
    "train_number": "45334 ",
    "unit_number": "1293.0200",
    "name": "Mürzzuschlag (in Mz)",
    "abbr": "Mz  ",
    "lat": "47.6079",
    "lng": "15.677",
    "arrival": null,
    "departure": "2023-09-23T12:35:00Z"
  },
  {
    "train_number": "45334 ",
    "unit_number": "1293.0200",
    "name": "Payerbach-Reichenau",
    "abbr": "Pr  ",
    "lat": "47.696",
    "lng": "15.8632",
    "arrival": null,
    "departure": "2023-09-23T11:57:00Z"
  },
  {
    "train_number": "45334 ",
    "unit_number": "1293.0200",
    "name": "Neunkirchen N.Ö.",
    "abbr": "Nek ",
    "lat": "47.731",
    "lng": "16.0826",
    "arrival": null,
    "departure": "2023-09-23T11:18:00Z"
  },
  {
    "train_number": "45334 ",
    "unit_number": "1293.0200",
    "name": "Wr. Neustadt Hbf (in Nb)",
    "abbr": "Nb  ",
    "lat": "47.8113",
    "lng": "16.2337",
    "arrival": null,
    "departure": "2023-09-23T11:06:00Z"
  },
  {
    "train_number": "45334 ",
    "unit_number": "1293.0200",
    "name": "Ebenfurth (in Ef)",
    "abbr": "Ef  ",
    "lat": "47.8777",
    "lng": "16.3621",
    "arrival": "2023-09-23T10:37:00Z",
    "departure": "2023-09-23T10:49:00Z"
  },
  {
    "train_number": "45334 ",
    "unit_number": "1293.0200",
    "name": "Sopron",
    "abbr": "SOP ",
    "lat": "47.6779",
    "lng": "16.5865",
    "arrival": null,
    "departure": "2023-09-23T10:01:00Z"
  },
  {
    "train_number": null,
    "unit_number": "1293.0200",
    "name": "Sopron Rendezö pu",
    "abbr": "SOR ",
    "lat": "47.6665",
    "lng": "16.6031",
    "arrival": null,
    "departure": "2023-09-23T09:56:00Z"
  }
]
