[
  {
    "train_number": "54599 ",
    "unit_number": "1293.0200",
    "name": "Villach Hbf",
    "abbr": "Vb  ",
    "lat": "46.6186",
    "lng": "13.8484",
    "arrival": null,
    "departure": "2023-10-13T22:41:00Z"
  },
  {
    "train_number": "54599 ",
    "unit_number": "1293.0200",
    "name": "St.Veit a.d.Glan (in Vps)",
    "abbr": "Vps ",
    "lat": "46.7704",
    "lng": "14.3672",
    "arrival": null,
    "departure": "2023-10-13T21:49:00Z"
  },
  {
    "train_number": "54599 ",
    "unit_number": "1293.0200",
    "name": "Zeltweg",
    "abbr": "Zg  ",
    "lat": "47.1887",
    "lng": "14.7425",
    "arrival": null,
    "departure": "2023-10-13T20:33:00Z"
  },
  {
    "train_number": "54599 ",
    "unit_number": "1293.0200",
    "name": "St.Michael (in M)",
    "abbr": "M   ",
    "lat": "47.3445",
    "lng": "15.0103",
    "arrival": null,
    "departure": "2023-10-13T19:55:00Z"
  },
  {
    "train_number": "54599 ",
    "unit_number": "1293.0200",
    "name": "Selzthal (in Sl)",
    "abbr": "Sl  ",
    "lat": "47.5505",
    "lng": "14.3134",
    "arrival": "2023-10-13T19:00:00Z",
    "departure": "2023-10-13T19:07:00Z"
  },
  {
    "train_number": "54599 ",
    "unit_number": "1293.0200",
    "name": "Kirchdorf a.d.Krems",
    "abbr": "Kik ",
    "lat": "47.9051",
    "lng": "14.1167",
    "arrival": null,
    "departure": "2023-10-13T17:53:00Z"
  },
  {
    "train_number": "54599 ",
    "unit_number": "1293.0200",
    "name": "Linz Hbf",
    "abbr": "Lz  ",
    "lat": "48.2908",
    "lng": "14.2927",
    "arrival": null,
    "departure": "2023-10-13T17:00:00Z"
  },
  {
    "train_number": null,
    "unit_number": "1293.0200",
    "name": "Linz Vbf-Ost Reih. (in Lzv)",
    "abbr": "Lo  ",
    "lat": "48.2718",
    "lng": "14.3196",
    "arrival": null,
    "departure": "2023-10-13T16:52:00Z"
  },
  {
    "train_number": "82072 ",
    "unit_number": "1293.0200",
    "name": "Kirchdorf a.d.Krems",
    "abbr": "Kik ",
    "lat": "47.9051",
    "lng": "14.1167",
    "arrival": "2023-10-13T12:32:00Z",
    "departure": "2023-10-13T12:36:00Z"
  },
  {
    "train_number": "72643 ",
    "unit_number": "1293.0200",
    "name": "Selzthal (in Sl)",
    "abbr": "Sl  ",
    "lat": "47.5505",
    "lng": "14.3134",
    "arrival": "2023-10-13T04:19:00Z",
    "departure": "2023-10-13T11:00:00Z"
  },
  {
    "train_number": "Sl21  ",
    "unit_number": "1293.0200",
    "name": "Selzthal (in Sl)",
    "abbr": "Sl  ",
    "lat": "47.5505",
    "lng": "14.3134",
    "arrival": "2023-10-13T03:06:00Z",
    "departure": "2023-10-13T03:06:00Z"
  }
]
