[
  {
    "train_number": null,
    "unit_number": "1293.0200",
    "name": "Villach Süd Gvbf Ausfgr",
    "abbr": "Va  ",
    "lat": "46.5674",
    "lng": "13.8238",
    "arrival": null,
    "departure": "2023-09-26T19:18:00Z"
  },
  {
    "train_number": "45817 ",
    "unit_number": "1293.0200",
    "name": "Schwarzach-St.Veit",
    "abbr": "Swa ",
    "lat": "47.3186",
    "lng": "13.1561",
    "arrival": "2023-09-26T16:55:00Z",
    "departure": "2023-09-26T17:21:00Z"
  },
  {
    "train_number": "45817 ",
    "unit_number": "1293.0200",
    "name": "Bischofshofen (in Bo)",
    "abbr": "Bo  ",
    "lat": "47.42",
    "lng": "13.2199",
    "arrival": null,
    "departure": "2023-09-26T16:41:00Z"
  },
  {
    "train_number": "45817 ",
    "unit_number": "1293.0200",
    "name": "Salzburg Gnigl-Einfgr. (in Sb)",
    "abbr": "Sre ",
    "lat": "47.8075",
    "lng": "13.0687",
    "arrival": null,
    "departure": "2023-09-26T15:54:00Z"
  },
  {
    "train_number": "45817 ",
    "unit_number": "1293.0200",
    "name": "Salzburg Gnigl-Vbf (in Sb)",
    "abbr": "Sr  ",
    "lat": "47.8075",
    "lng": "13.0021",
    "arrival": "2023-09-26T15:46:00Z",
    "departure": "2023-09-26T15:50:00Z"
  },
  {
    "train_number": "45817 ",
    "unit_number": "1293.0200",
    "name": "Salzburg Hbf (in Sb)",
    "abbr": "Sb  ",
    "lat": "47.8135",
    "lng": "13.0466",
    "arrival": "2023-09-26T15:40:00Z",
    "departure": "2023-09-26T15:40:00Z"
  },
  {
    "train_number": "45817 ",
    "unit_number": "1293.0200",
    "name": "Salzburg Liefering (in Sb)",
    "abbr": "Lfg ",
    "lat": "47.8229",
    "lng": "13.0021",
    "arrival": null,
    "departure": "2023-09-26T15:33:00Z"
  },
  {
    "train_number": "45817 ",
    "unit_number": "1293.0200",
    "name": "Freilassing",
    "abbr": "MFL ",
    "lat": "47.8368",
    "lng": "12.9764",
    "arrival": "2023-09-26T15:12:00Z",
    "departure": "2023-09-26T15:27:00Z"
  },
  {
    "train_number": "45817 ",
    "unit_number": "1293.0200",
    "name": "Traunstein",
    "abbr": "MTS ",
    "lat": "47.8697",
    "lng": "12.6391",
    "arrival": null,
    "departure": "2023-09-26T14:44:00Z"
  },
  {
    "train_number": "45817 ",
    "unit_number": "1293.0200",
    "name": "Rosenheim",
    "abbr": "MRO ",
    "lat": "47.8511",
    "lng": "12.1196",
    "arrival": null,
    "departure": "2023-09-26T13:53:00Z"
  },
  {
    "train_number": "47822 ",
    "unit_number": "1293.0200",
    "name": "Rosenheim",
    "abbr": "MRO ",
    "lat": "47.8511",
    "lng": "12.1196",
    "arrival": null,
    "departure": "2023-09-26T07:51:00Z"
  },
  {
    "train_number": "47822 ",
    "unit_number": "1293.0200",
    "name": "Traunstein",
    "abbr": "MTS ",
    "lat": "47.8697",
    "lng": "12.6391",
    "arrival": null,
    "departure": "2023-09-26T06:57:00Z"
  },
  {
    "train_number": "47822 ",
    "unit_number": "1293.0200",
    "name": "Freilassing",
    "abbr": "MFL ",
    "lat": "47.8368",
    "lng": "12.9764",
    "arrival": "2023-09-26T06:27:00Z",
    "departure": "2023-09-26T06:29:00Z"
  },
  {
    "train_number": "47822 ",
    "unit_number": "1293.0200",
    "name": "Salzburg Liefering (in Sb)",
    "abbr": "Lfg ",
    "lat": "47.8229",
    "lng": "13.0021",
    "arrival": null,
    "departure": "2023-09-26T06:24:00Z"
  },
  {
    "train_number": "47822 ",
    "unit_number": "1293.0200",
    "name": "Salzburg Hbf (in Sb)",
    "abbr": "Sb  ",
    "lat": "47.8135",
    "lng": "13.0466",
    "arrival": null,
    "departure": "2023-09-26T06:19:00Z"
  },
  {
    "train_number": "47822 ",
    "unit_number": "1293.0200",
    "name": "Salzburg Gnigl-Vbf (in Sb)",
    "abbr": "Sr  ",
    "lat": "47.8075",
    "lng": "13.0021",
    "arrival": "2023-09-26T06:08:00Z",
    "departure": "2023-09-26T06:14:00Z"
  },
  {
    "train_number": "47822 ",
    "unit_number": "1293.0200",
    "name": "Salzburg Gnigl-Einfgr. (in Sb)",
    "abbr": "Sre ",
    "lat": "47.8075",
    "lng": "13.0687",
    "arrival": null,
    "departure": "2023-09-26T06:06:00Z"
  },
  {
    "train_number": "47822 ",
    "unit_number": "1293.0200",
    "name": "Bischofshofen (in Bo)",
    "abbr": "Bo  ",
    "lat": "47.42",
    "lng": "13.2199",
    "arrival": null,
    "departure": "2023-09-26T05:23:00Z"
  },
  {
    "train_number": "47822 ",
    "unit_number": "1293.0200",
    "name": "Schwarzach-St.Veit",
    "abbr": "Swa ",
    "lat": "47.3186",
    "lng": "13.1561",
    "arrival": "2023-09-26T04:24:00Z",
    "departure": "2023-09-26T05:06:00Z"
  },
  {
    "train_number": null,
    "unit_number": "1293.0200",
    "name": "Villach Süd Gvbf Ausfgr",
    "abbr": "Va  ",
    "lat": "46.5674",
    "lng": "13.8238",
    "arrival": null,
    "departure": "2023-09-26T02:30:00Z"
  }
]
