[
  {
    "train_number": "47283 ",
    "unit_number": "1293.0200",
    "name": "Tarvisio Boscoverde",
    "abbr": "Tbv ",
    "lat": "46.5059",
    "lng": "13.6081",
    "arrival": "2023-09-11T02:00:00Z",
    "departure": "2023-09-11T02:12:00Z"
  },
  {
    "train_number": null,
    "unit_number": "1293.0200",
    "name": "Villach Süd Gvbf Ausfgr",
    "abbr": "Va  ",
    "lat": "46.5674",
    "lng": "13.8238",
    "arrival": null,
    "departure": "2023-09-11T01:36:00Z"
  },
  {
    "train_number": "46741 ",
    "unit_number": "1293.0200",
    "name": "Tarvisio Boscoverde",
    "abbr": "Tbv ",
    "lat": "46.5059",
    "lng": "13.6081",
    "arrival": "2023-09-10T20:09:00Z",
    "departure": "2023-09-10T20:23:00Z"
  },
  {
    "train_number": "46741 ",
    "unit_number": "1293.0200",
    "name": "Villach Westbf",
    "abbr": "Vf  ",
    "lat": "46.6186",
    "lng": "13.8484",
    "arrival": "2023-09-10T17:50:00Z",
    "departure": "2023-09-10T19:43:00Z"
  },
  {
    "train_number": "46741 ",
    "unit_number": "1293.0200",
    "name": "Villach Hbf",
    "abbr": "Vb  ",
    "lat": "46.6186",
    "lng": "13.8484",
    "arrival": null,
    "departure": "2023-09-10T17:45:00Z"
  },
  {
    "train_number": "46741 ",
    "unit_number": "1293.0200",
    "name": "Klagenfurt Hbf (in Kt)",
    "abbr": "Kt  ",
    "lat": "46.6156",
    "lng": "14.3137",
    "arrival": null,
    "departure": "2023-09-10T17:12:00Z"
  },
  {
    "train_number": "46741 ",
    "unit_number": "1293.0200",
    "name": "St.Veit a.d.Glan (in Vps)",
    "abbr": "Vps ",
    "lat": "46.7704",
    "lng": "14.3672",
    "arrival": null,
    "departure": "2023-09-10T16:46:00Z"
  },
  {
    "train_number": "46741 ",
    "unit_number": "1293.0200",
    "name": "Zeltweg",
    "abbr": "Zg  ",
    "lat": "47.1887",
    "lng": "14.7425",
    "arrival": null,
    "departure": "2023-09-10T15:23:00Z"
  },
  {
    "train_number": "46741 ",
    "unit_number": "1293.0200",
    "name": "Leoben Hbf (in Leb)",
    "abbr": "Leb ",
    "lat": "47.3867",
    "lng": "15.0898",
    "arrival": null,
    "departure": "2023-09-10T14:44:00Z"
  },
  {
    "train_number": "46741 ",
    "unit_number": "1293.0200",
    "name": "Bruck a.d.Mur (in Bm)",
    "abbr": "Bm  ",
    "lat": "47.4134",
    "lng": "15.2797",
    "arrival": null,
    "departure": "2023-09-10T14:01:00Z"
  },
  {
    "train_number": "46741 ",
    "unit_number": "1293.0200",
    "name": "Mürzzuschlag (in Mz)",
    "abbr": "Mz  ",
    "lat": "47.6079",
    "lng": "15.677",
    "arrival": null,
    "departure": "2023-09-10T13:03:00Z"
  },
  {
    "train_number": "46741 ",
    "unit_number": "1293.0200",
    "name": "Payerbach-Reichenau",
    "abbr": "Pr  ",
    "lat": "47.696",
    "lng": "15.8632",
    "arrival": null,
    "departure": "2023-09-10T12:24:00Z"
  },
  {
    "train_number": "46741 ",
    "unit_number": "1293.0200",
    "name": "Neunkirchen N.Ö.",
    "abbr": "Nek ",
    "lat": "47.731",
    "lng": "16.0826",
    "arrival": null,
    "departure": "2023-09-10T11:53:00Z"
  },
  {
    "train_number": "46741 ",
    "unit_number": "1293.0200",
    "name": "Wr. Neustadt Hbf (in Nb)",
    "abbr": "Nb  ",
    "lat": "47.8113",
    "lng": "16.2337",
    "arrival": null,
    "departure": "2023-09-10T11:39:00Z"
  },
  {
    "train_number": "46741 ",
    "unit_number": "1293.0200",
    "name": "Ebenfurth (in Ef)",
    "abbr": "Ef  ",
    "lat": "47.8777",
    "lng": "16.3621",
    "arrival": null,
    "departure": "2023-09-10T11:26:00Z"
  },
  {
    "train_number": "46741 ",
    "unit_number": "1293.0200",
    "name": "Wien Zvbf (in Zur)",
    "abbr": "Zur ",
    "lat": "48.1453",
    "lng": "16.43",
    "arrival": "2023-09-10T10:12:00Z",
    "departure": "2023-09-10T10:50:00Z"
  },
  {
    "train_number": "46741 ",
    "unit_number": "1293.0200",
    "name": "Gänserndorf",
    "abbr": "Gae ",
    "lat": "48.3401",
    "lng": "16.7324",
    "arrival": null,
    "departure": "2023-09-10T09:36:00Z"
  },
  {
    "train_number": "46741 ",
    "unit_number": "1293.0200",
    "name": "Hohenau",
    "abbr": "Nh  ",
    "lat": "48.5981",
    "lng": "16.9008",
    "arrival": "2023-09-10T08:52:00Z",
    "departure": "2023-09-10T09:12:00Z"
  },
  {
    "train_number": "64200 ",
    "unit_number": "1293.0200",
    "name": "Gänserndorf",
    "abbr": "Gae ",
    "lat": "48.3401",
    "lng": "16.7324",
    "arrival": null,
    "departure": "2023-09-10T03:06:00Z"
  }
]
