[
  {
    "train_number": "48286 ",
    "unit_number": "1293.0200",
    "name": "Ebenfurth (in Ef)",
    "abbr": "Ef  ",
    "lat": "47.8777",
    "lng": "16.3621",
    "arrival": null,
    "departure": "2023-08-24T01:30:00Z"
  },
  {
    "train_number": "48286 ",
    "unit_number": "1293.0200",
    "name": "Wr. Neustadt Hbf (in Nb)",
    "abbr": "Nb  ",
    "lat": "47.8113",
    "lng": "16.2337",
    "arrival": null,
    "departure": "2023-08-24T01:14:00Z"
  },
  {
    "train_number": "48286 ",
    "unit_number": "1293.0200",
    "name": "Neunkirchen N.Ö.",
    "abbr": "Nek ",
    "lat": "47.731",
    "lng": "16.0826",
    "arrival": null,
    "departure": "2023-08-24T01:04:00Z"
  },
  {
    "train_number": "48286 ",
    "unit_number": "1293.0200",
    "name": "Payerbach-Reichenau",
    "abbr": "Pr  ",
    "lat": "47.696",
    "lng": "15.8632",
    "arrival": null,
    "departure": "2023-08-24T00:36:00Z"
  },
  {
    "train_number": "48286 ",
    "unit_number": "1293.0200",
    "name": "Mürzzuschlag (in Mz)",
    "abbr": "Mz  ",
    "lat": "47.6079",
    "lng": "15.677",
    "arrival": null,
    "departure": "2023-08-23T23:57:00Z"
  },
  {
    "train_number": "48286 ",
    "unit_number": "1293.0200",
    "name": "Bruck a.d.Mur (in Bm)",
    "abbr": "Bm  ",
    "lat": "47.4134",
    "lng": "15.2797",
    "arrival": null,
    "departure": "2023-08-23T23:02:00Z"
  },
  {
    "train_number": "48286 ",
    "unit_number": "1293.0200",
    "name": "Leoben Hbf (in Leb)",
    "abbr": "Leb ",
    "lat": "47.3867",
    "lng": "15.0898",
    "arrival": null,
    "departure": "2023-08-23T22:47:00Z"
  },
  {
    "train_number": "48286 ",
    "unit_number": "1293.0200",
    "name": "Zeltweg",
    "abbr": "Zg  ",
    "lat": "47.1887",
    "lng": "14.7425",
    "arrival": null,
    "departure": "2023-08-23T22:11:00Z"
  },
  {
    "train_number": "48286 ",
    "unit_number": "1293.0200",
    "name": "St.Veit a.d.Glan (in Vps)",
    "abbr": "Vps ",
    "lat": "46.7704",
    "lng": "14.3672",
    "arrival": null,
    "departure": "2023-08-23T20:39:00Z"
  },
  {
    "train_number": "48286 ",
    "unit_number": "1293.0200",
    "name": "Klagenfurt Hbf (in Kt)",
    "abbr": "Kt  ",
    "lat": "46.6156",
    "lng": "14.3137",
    "arrival": null,
    "departure": "2023-08-23T20:09:00Z"
  },
  {
    "train_number": "48286 ",
    "unit_number": "1293.0200",
    "name": "Villach Hbf",
    "abbr": "Vb  ",
    "lat": "46.6186",
    "lng": "13.8484",
    "arrival": null,
    "departure": "2023-08-23T19:31:00Z"
  },
  {
    "train_number": "48286 ",
    "unit_number": "1293.0200",
    "name": "Villach Westbf",
    "abbr": "Vf  ",
    "lat": "46.6186",
    "lng": "13.8484",
    "arrival": "2023-08-23T19:19:00Z",
    "departure": "2023-08-23T19:29:00Z"
  },
  {
    "train_number": "18270 ",
    "unit_number": "1293.0200",
    "name": "Tarvisio Boscoverde",
    "abbr": "Tbv ",
    "lat": "46.5059",
    "lng": "13.6081",
    "arrival": "2023-08-23T18:14:00Z",
    "departure": "2023-08-23T18:44:00Z"
  },
  {
    "train_number": null,
    "unit_number": "1293.0200",
    "name": "Villach Süd Gvbf Ausfgr",
    "abbr": "Va  ",
    "lat": "46.5674",
    "lng": "13.8238",
    "arrival": null,
    "departure": "2023-08-23T17:55:00Z"
  },
  {
    "train_number": "76520 ",
    "unit_number": "1293.0200",
    "name": "Villach Süd Gvbf Ausfgr",
    "abbr": "Va  ",
    "lat": "46.5674",
    "lng": "13.8238",
    "arrival": null,
    "departure": "2023-08-23T15:41:00Z"
  },
  {
    "train_number": null,
    "unit_number": "1293.0200",
    "name": "Fürnitz (in Vsv)",
    "abbr": "Fn  ",
    "lat": "46.5674",
    "lng": "13.8238",
    "arrival": null,
    "departure": "2023-08-23T15:35:00Z"
  },
  {
    "train_number": "54535 ",
    "unit_number": "1293.0200",
    "name": "Schwarzach-St.Veit",
    "abbr": "Swa ",
    "lat": "47.3186",
    "lng": "13.1561",
    "arrival": "2023-08-23T12:15:00Z",
    "departure": "2023-08-23T12:26:00Z"
  },
  {
    "train_number": "54535 ",
    "unit_number": "1293.0200",
    "name": "Bischofshofen (in Bo)",
    "abbr": "Bo  ",
    "lat": "47.42",
    "lng": "13.2199",
    "arrival": null,
    "departure": "2023-08-23T11:59:00Z"
  },
  {
    "train_number": "54535 ",
    "unit_number": "1293.0200",
    "name": "Salzburg Gnigl-Einfgr. (in Sb)",
    "abbr": "Sre ",
    "lat": "47.8075",
    "lng": "13.0687",
    "arrival": null,
    "departure": "2023-08-23T11:19:00Z"
  },
  {
    "train_number": null,
    "unit_number": "1293.0200",
    "name": "Salzburg Gnigl-Vbf (in Sb)",
    "abbr": "Sr  ",
    "lat": "47.8075",
    "lng": "13.0021",
    "arrival": null,
    "departure": "2023-08-23T11:14:00Z"
  }
]
