[
  {
    "train_number": "49416 ",
    "unit_number": "1293.0200",
    "name": "Payerbach-Reichenau",
    "abbr": "Pr  ",
    "lat": "47.696",
    "lng": "15.8632",
    "arrival": null,
    "departure": "2023-09-20T16:04:00Z"
  },
  {
    "train_number": "49416 ",
    "unit_number": "1293.0200",
    "name": "Mürzzuschlag (in Mz)",
    "abbr": "Mz  ",
    "lat": "47.6079",
    "lng": "15.677",
    "arrival": null,
    "departure": "2023-09-20T15:26:00Z"
  },
  {
    "train_number": "49416 ",
    "unit_number": "1293.0200",
    "name": "Bruck a.d.Mur (in Bm)",
    "abbr": "Bm  ",
    "lat": "47.4134",
    "lng": "15.2797",
    "arrival": null,
    "departure": "2023-09-20T14:31:00Z"
  },
  {
    "train_number": "49416 ",
    "unit_number": "1293.0200",
    "name": "Graz Vbf (in G)",
    "abbr": "Gi  ",
    "lat": "47.0885",
    "lng": "15.4077",
    "arrival": null,
    "departure": "2023-09-20T13:41:00Z"
  },
  {
    "train_number": "49416 ",
    "unit_number": "1293.0200",
    "name": "Graz Hbf (in G)",
    "abbr": "G   ",
    "lat": "47.0733",
    "lng": "15.4163",
    "arrival": null,
    "departure": "2023-09-20T13:37:00Z"
  },
  {
    "train_number": "49416 ",
    "unit_number": "1293.0200",
    "name": "Werndorf",
    "abbr": "Wr  ",
    "lat": "46.9171",
    "lng": "15.477",
    "arrival": null,
    "departure": "2023-09-20T13:16:00Z"
  },
  {
    "train_number": "43633 ",
    "unit_number": "1293.0200",
    "name": "Spielfeld-Straß",
    "abbr": "Sd  ",
    "lat": "46.71",
    "lng": "15.6282",
    "arrival": "2023-09-20T08:14:00Z",
    "departure": "2023-09-20T12:39:00Z"
  },
  {
    "train_number": "43633 ",
    "unit_number": "1293.0200",
    "name": "Werndorf",
    "abbr": "Wr  ",
    "lat": "46.9171",
    "lng": "15.477",
    "arrival": null,
    "departure": "2023-09-20T07:48:00Z"
  },
  {
    "train_number": "43633 ",
    "unit_number": "1293.0200",
    "name": "Graz Hbf (in G)",
    "abbr": "G   ",
    "lat": "47.0733",
    "lng": "15.4163",
    "arrival": "2023-09-20T07:30:00Z",
    "departure": "2023-09-20T07:34:00Z"
  },
  {
    "train_number": "43633 ",
    "unit_number": "1293.0200",
    "name": "Graz Vbf (in G)",
    "abbr": "Gi  ",
    "lat": "47.0885",
    "lng": "15.4077",
    "arrival": null,
    "departure": "2023-09-20T07:25:00Z"
  },
  {
    "train_number": "43633 ",
    "unit_number": "1293.0200",
    "name": "Bruck a.d.Mur (in Bm)",
    "abbr": "Bm  ",
    "lat": "47.4134",
    "lng": "15.2797",
    "arrival": null,
    "departure": "2023-09-20T06:46:00Z"
  },
  {
    "train_number": "43633 ",
    "unit_number": "1293.0200",
    "name": "Mürzzuschlag (in Mz)",
    "abbr": "Mz  ",
    "lat": "47.6079",
    "lng": "15.677",
    "arrival": null,
    "departure": "2023-09-20T05:40:00Z"
  },
  {
    "train_number": "43633 ",
    "unit_number": "1293.0200",
    "name": "Payerbach-Reichenau",
    "abbr": "Pr  ",
    "lat": "47.696",
    "lng": "15.8632",
    "arrival": null,
    "departure": "2023-09-20T04:15:00Z"
  },
  {
    "train_number": "43633 ",
    "unit_number": "1293.0200",
    "name": "Neunkirchen N.Ö.",
    "abbr": "Nek ",
    "lat": "47.731",
    "lng": "16.0826",
    "arrival": null,
    "departure": "2023-09-20T03:24:00Z"
  },
  {
    "train_number": "43633 ",
    "unit_number": "1293.0200",
    "name": "Wr. Neustadt Hbf (in Nb)",
    "abbr": "Nb  ",
    "lat": "47.8113",
    "lng": "16.2337",
    "arrival": null,
    "departure": "2023-09-20T03:12:00Z"
  },
  {
    "train_number": "43633 ",
    "unit_number": "1293.0200",
    "name": "Leobersdorf",
    "abbr": "Lb  ",
    "lat": "47.9375",
    "lng": "16.2313",
    "arrival": null,
    "departure": "2023-09-20T03:00:00Z"
  },
  {
    "train_number": "43633 ",
    "unit_number": "1293.0200",
    "name": "Mödling",
    "abbr": "Md  ",
    "lat": "48.0858",
    "lng": "16.2958",
    "arrival": null,
    "departure": "2023-09-20T02:45:00Z"
  },
  {
    "train_number": "43633 ",
    "unit_number": "1293.0200",
    "name": "Wien Meidling (in Wbf)",
    "abbr": "Mi  ",
    "lat": "48.1747",
    "lng": "16.3348",
    "arrival": null,
    "departure": "2023-09-20T02:34:00Z"
  },
  {
    "train_number": "43633 ",
    "unit_number": "1293.0200",
    "name": "Wien Zvbf (in Zur)",
    "abbr": "Zur ",
    "lat": "48.1453",
    "lng": "16.43",
    "arrival": null,
    "departure": "2023-09-20T02:21:00Z"
  },
  {
    "train_number": "43633 ",
    "unit_number": "1293.0200",
    "name": "Kledering (in Zur)",
    "abbr": "Za  ",
    "lat": "48.1453",
    "lng": "16.43",
    "arrival": "2023-09-20T02:09:00Z",
    "departure": "2023-09-20T02:17:00Z"
  }
]
