[
  {
    "train_number": "42834 ",
    "unit_number": "1293.0200",
    "name": "Enns",
    "abbr": "Ens ",
    "lat": "48.2212",
    "lng": "14.4668",
    "arrival": null,
    "departure": "2023-09-21T20:31:00Z"
  },
  {
    "train_number": "42834 ",
    "unit_number": "1293.0200",
    "name": "St.Valentin (in Sv)",
    "abbr": "Sv  ",
    "lat": "48.1784",
    "lng": "14.5219",
    "arrival": null,
    "departure": "2023-09-21T20:26:00Z"
  },
  {
    "train_number": "42834 ",
    "unit_number": "1293.0200",
    "name": "Amstetten (in Ams)",
    "abbr": "Ams ",
    "lat": "48.1215",
    "lng": "14.8792",
    "arrival": null,
    "departure": "2023-09-21T19:59:00Z"
  },
  {
    "train_number": "42834 ",
    "unit_number": "1293.0200",
    "name": "Ybbs a.d.Donau",
    "abbr": "Y   ",
    "lat": "48.158",
    "lng": "15.0981",
    "arrival": null,
    "departure": "2023-09-21T19:47:00Z"
  },
  {
    "train_number": "42834 ",
    "unit_number": "1293.0200",
    "name": "Pöchlarn",
    "abbr": "Poe ",
    "lat": "48.208",
    "lng": "15.2148",
    "arrival": null,
    "departure": "2023-09-21T19:38:00Z"
  },
  {
    "train_number": null,
    "unit_number": "1293.0200",
    "name": "Wien Westbf (in Ws)",
    "abbr": "Ws  ",
    "lat": "48.1964",
    "lng": "16.3374",
    "arrival": null,
    "departure": "2023-09-21T16:56:00Z"
  },
  {
    "train_number": "45043 ",
    "unit_number": "1293.0200",
    "name": "Wien Zvbf-Einfgr. (in Zur)",
    "abbr": "Ze  ",
    "lat": "48.1453",
    "lng": "16.43",
    "arrival": "2023-09-21T13:10:00Z",
    "departure": "2023-09-21T13:45:00Z"
  },
  {
    "train_number": "45043 ",
    "unit_number": "1293.0200",
    "name": "Gänserndorf",
    "abbr": "Gae ",
    "lat": "48.3401",
    "lng": "16.7324",
    "arrival": null,
    "departure": "2023-09-21T12:35:00Z"
  },
  {
    "train_number": "45043 ",
    "unit_number": "1293.0200",
    "name": "Hohenau",
    "abbr": "Nh  ",
    "lat": "48.5981",
    "lng": "16.9008",
    "arrival": "2023-09-21T11:50:00Z",
    "departure": "2023-09-21T12:10:00Z"
  },
  {
    "train_number": "57090 ",
    "unit_number": "1293.0200",
    "name": "Hohenau",
    "abbr": "Nh  ",
    "lat": "48.5981",
    "lng": "16.9008",
    "arrival": "2023-09-21T08:33:00Z",
    "departure": "2023-09-21T10:26:00Z"
  },
  {
    "train_number": "57090 ",
    "unit_number": "1293.0200",
    "name": "Gänserndorf",
    "abbr": "Gae ",
    "lat": "48.3401",
    "lng": "16.7324",
    "arrival": null,
    "departure": "2023-09-21T08:06:00Z"
  },
  {
    "train_number": "57090 ",
    "unit_number": "1293.0200",
    "name": "Wien Zvbf (in Zur)",
    "abbr": "Zur ",
    "lat": "48.1453",
    "lng": "16.43",
    "arrival": null,
    "departure": "2023-09-21T07:08:00Z"
  },
  {
    "train_number": "57090 ",
    "unit_number": "1293.0200",
    "name": "Kledering (in Zur)",
    "abbr": "Za  ",
    "lat": "48.1453",
    "lng": "16.43",
    "arrival": "2023-09-21T06:37:00Z",
    "departure": "2023-09-21T06:58:00Z"
  },
  {
    "train_number": "57090 ",
    "unit_number": "1293.0200",
    "name": "Pöchlarn",
    "abbr": "Poe ",
    "lat": "48.208",
    "lng": "15.2148",
    "arrival": null,
    "departure": "2023-09-21T05:01:00Z"
  },
  {
    "train_number": "57090 ",
    "unit_number": "1293.0200",
    "name": "Ybbs a.d.Donau",
    "abbr": "Y   ",
    "lat": "48.158",
    "lng": "15.0981",
    "arrival": null,
    "departure": "2023-09-21T04:52:00Z"
  },
  {
    "train_number": "57090 ",
    "unit_number": "1293.0200",
    "name": "Amstetten (in Ams)",
    "abbr": "Ams ",
    "lat": "48.1215",
    "lng": "14.8792",
    "arrival": null,
    "departure": "2023-09-21T04:39:00Z"
  },
  {
    "train_number": "57090 ",
    "unit_number": "1293.0200",
    "name": "St.Valentin (in Sv)",
    "abbr": "Sv  ",
    "lat": "48.1784",
    "lng": "14.5219",
    "arrival": null,
    "departure": "2023-09-21T04:09:00Z"
  },
  {
    "train_number": "57090 ",
    "unit_number": "1293.0200",
    "name": "Enns",
    "abbr": "Ens ",
    "lat": "48.2212",
    "lng": "14.4668",
    "arrival": null,
    "departure": "2023-09-21T04:04:00Z"
  },
  {
    "train_number": "88101 ",
    "unit_number": "1293.0200",
    "name": "Voest Alpine Linz",
    "abbr": "Ms  ",
    "lat": "48.2607",
    "lng": "14.2927",
    "arrival": "2023-09-21T03:03:00Z",
    "departure": "2023-09-21T03:34:00Z"
  },
  {
    "train_number": null,
    "unit_number": "1293.0200",
    "name": "Linz Hbf",
    "abbr": "Lz  ",
    "lat": "48.2908",
    "lng": "14.2927",
    "arrival": null,
    "departure": "2023-09-21T02:52:00Z"
  }
]
