[
  {
    "train_number": "48489 ",
    "unit_number": "1293.0200",
    "name": "Villach Hbf",
    "abbr": "Vb  ",
    "lat": "46.6186",
    "lng": "13.8484",
    "arrival": null,
    "departure": "2023-09-05T16:49:00Z"
  },
  {
    "train_number": "48489 ",
    "unit_number": "1293.0200",
    "name": "Klagenfurt Hbf (in Kt)",
    "abbr": "Kt  ",
    "lat": "46.6156",
    "lng": "14.3137",
    "arrival": null,
    "departure": "2023-09-05T16:12:00Z"
  },
  {
    "train_number": "48489 ",
    "unit_number": "1293.0200",
    "name": "St.Veit a.d.Glan (in Vps)",
    "abbr": "Vps ",
    "lat": "46.7704",
    "lng": "14.3672",
    "arrival": null,
    "departure": "2023-09-05T15:55:00Z"
  },
  {
    "train_number": "48489 ",
    "unit_number": "1293.0200",
    "name": "Zeltweg",
    "abbr": "Zg  ",
    "lat": "47.1887",
    "lng": "14.7425",
    "arrival": null,
    "departure": "2023-09-05T14:35:00Z"
  },
  {
    "train_number": "48489 ",
    "unit_number": "1293.0200",
    "name": "Leoben Hbf (in Leb)",
    "abbr": "Leb ",
    "lat": "47.3867",
    "lng": "15.0898",
    "arrival": null,
    "departure": "2023-09-05T14:00:00Z"
  },
  {
    "train_number": "48489 ",
    "unit_number": "1293.0200",
    "name": "Bruck a.d.Mur (in Bm)",
    "abbr": "Bm  ",
    "lat": "47.4134",
    "lng": "15.2797",
    "arrival": null,
    "departure": "2023-09-05T13:44:00Z"
  },
  {
    "train_number": "48489 ",
    "unit_number": "1293.0200",
    "name": "Mürzzuschlag (in Mz)",
    "abbr": "Mz  ",
    "lat": "47.6079",
    "lng": "15.677",
    "arrival": null,
    "departure": "2023-09-05T12:56:00Z"
  },
  {
    "train_number": "48489 ",
    "unit_number": "1293.0200",
    "name": "Payerbach-Reichenau",
    "abbr": "Pr  ",
    "lat": "47.696",
    "lng": "15.8632",
    "arrival": null,
    "departure": "2023-09-05T12:22:00Z"
  },
  {
    "train_number": "48489 ",
    "unit_number": "1293.0200",
    "name": "Neunkirchen N.Ö.",
    "abbr": "Nek ",
    "lat": "47.731",
    "lng": "16.0826",
    "arrival": null,
    "departure": "2023-09-05T11:51:00Z"
  },
  {
    "train_number": "48489 ",
    "unit_number": "1293.0200",
    "name": "Wr. Neustadt Hbf (in Nb)",
    "abbr": "Nb  ",
    "lat": "47.8113",
    "lng": "16.2337",
    "arrival": null,
    "departure": "2023-09-05T11:40:00Z"
  },
  {
    "train_number": "48489 ",
    "unit_number": "1293.0200",
    "name": "Ebenfurth (in Ef)",
    "abbr": "Ef  ",
    "lat": "47.8777",
    "lng": "16.3621",
    "arrival": null,
    "departure": "2023-09-05T11:29:00Z"
  },
  {
    "train_number": "48489 ",
    "unit_number": "1293.0200",
    "name": "Wien Zvbf (in Zur)",
    "abbr": "Zur ",
    "lat": "48.1453",
    "lng": "16.43",
    "arrival": "2023-09-05T10:41:00Z",
    "departure": "2023-09-05T10:56:00Z"
  },
  {
    "train_number": "48489 ",
    "unit_number": "1293.0200",
    "name": "Tulln a. d. Donau (in Tu)",
    "abbr": "Tu  ",
    "lat": "48.3275",
    "lng": "16.0644",
    "arrival": null,
    "departure": "2023-09-05T09:40:00Z"
  },
  {
    "train_number": "48489 ",
    "unit_number": "1293.0200",
    "name": "Absdorf-Hippersdorf (in Ah)",
    "abbr": "Ah  ",
    "lat": "48.4018",
    "lng": "15.9862",
    "arrival": null,
    "departure": "2023-09-05T09:21:00Z"
  },
  {
    "train_number": "48489 ",
    "unit_number": "1293.0200",
    "name": "Hadersdorf am Kamp",
    "abbr": "Hfa ",
    "lat": "48.4465",
    "lng": "15.7147",
    "arrival": null,
    "departure": "2023-09-05T08:44:00Z"
  },
  {
    "train_number": "18472 ",
    "unit_number": "1293.0200",
    "name": "Krems a.d.D.-Vorbf  (in Kr)",
    "abbr": "Krv ",
    "lat": "48.4088",
    "lng": "15.6053",
    "arrival": "2023-09-05T06:41:00Z",
    "departure": "2023-09-05T08:30:00Z"
  },
  {
    "train_number": "18472 ",
    "unit_number": "1293.0200",
    "name": "Hadersdorf am Kamp",
    "abbr": "Hfa ",
    "lat": "48.4465",
    "lng": "15.7147",
    "arrival": null,
    "departure": "2023-09-05T06:31:00Z"
  },
  {
    "train_number": "18472 ",
    "unit_number": "1293.0200",
    "name": "Absdorf-Hippersdorf (in Ah)",
    "abbr": "Ah  ",
    "lat": "48.4018",
    "lng": "15.9862",
    "arrival": null,
    "departure": "2023-09-05T06:07:00Z"
  },
  {
    "train_number": "18472 ",
    "unit_number": "1293.0200",
    "name": "Tulln a. d. Donau (in Tu)",
    "abbr": "Tu  ",
    "lat": "48.3275",
    "lng": "16.0644",
    "arrival": null,
    "departure": "2023-09-05T05:55:00Z"
  },
  {
    "train_number": null,
    "unit_number": "1293.0200",
    "name": "Wien Zvbf (in Zur)",
    "abbr": "Zur ",
    "lat": "48.1453",
    "lng": "16.43",
    "arrival": null,
    "departure": "2023-09-05T05:00:00Z"
  }
]
