[
  {
    "train_number": "41680 ",
    "unit_number": "1293.0200",
    "name": "Staatsgrenze n. Kittsee",
    "abbr": "Kttg",
    "lat": "48.1028",
    "lng": "17.0842",
    "arrival": null,
    "departure": "2023-10-21T20:48:00Z"
  },
  {
    "train_number": "41680 ",
    "unit_number": "1293.0200",
    "name": "Parndorf",
    "abbr": "Par ",
    "lat": "47.987",
    "lng": "16.8702",
    "arrival": null,
    "departure": "2023-10-21T20:30:00Z"
  },
  {
    "train_number": null,
    "unit_number": "1293.0200",
    "name": "Kledering (in Zur)",
    "abbr": "Za  ",
    "lat": "48.1331",
    "lng": "16.4396",
    "arrival": null,
    "departure": "2023-10-21T19:51:00Z"
  },
  {
    "train_number": "44610 ",
    "unit_number": "1293.0200",
    "name": "Wien Zvbf (in Zur)",
    "abbr": "Zur ",
    "lat": "48.1453",
    "lng": "16.43",
    "arrival": null,
    "departure": "2023-10-21T18:27:00Z"
  },
  {
    "train_number": "44610 ",
    "unit_number": "1293.0200",
    "name": "Parndorf",
    "abbr": "Par ",
    "lat": "47.987",
    "lng": "16.8702",
    "arrival": null,
    "departure": "2023-10-21T17:53:00Z"
  },
  {
    "train_number": "44610 ",
    "unit_number": "1293.0200",
    "name": "Staatsgrenze n. Kittsee",
    "abbr": "Kttg",
    "lat": "48.1028",
    "lng": "17.0842",
    "arrival": null,
    "departure": "2023-10-21T17:35:00Z"
  },
  {
    "train_number": "44609 ",
    "unit_number": "1293.0200",
    "name": "Staatsgrenze n. Kittsee",
    "abbr": "Kttg",
    "lat": "48.1028",
    "lng": "17.0842",
    "arrival": null,
    "departure": "2023-10-21T12:58:00Z"
  },
  {
    "train_number": "44609 ",
    "unit_number": "1293.0200",
    "name": "Parndorf",
    "abbr": "Par ",
    "lat": "47.987",
    "lng": "16.8702",
    "arrival": "2023-10-21T12:29:00Z",
    "departure": "2023-10-21T12:40:00Z"
  },
  {
    "train_number": null,
    "unit_number": "1293.0200",
    "name": "Wien Zvbf (in Zur)",
    "abbr": "Zur ",
    "lat": "48.1453",
    "lng": "16.43",
    "arrival": null,
    "departure": "2023-10-21T11:50:00Z"
  },
  {
    "train_number": "56058 ",
    "unit_number": "1293.0200",
    "name": "Wien Meidling (in Wbf)",
    "abbr": "Mi  ",
    "lat": "48.1747",
    "lng": "16.3348",
    "arrival": null,
    "departure": "2023-10-21T03:09:00Z"
  },
  {
    "train_number": "56058 ",
    "unit_number": "1293.0200",
    "name": "Mödling",
    "abbr": "Md  ",
    "lat": "48.0858",
    "lng": "16.2958",
    "arrival": null,
    "departure": "2023-10-21T02:56:00Z"
  },
  {
    "train_number": "56058 ",
    "unit_number": "1293.0200",
    "name": "Leobersdorf",
    "abbr": "Lb  ",
    "lat": "47.9375",
    "lng": "16.2313",
    "arrival": null,
    "departure": "2023-10-21T02:38:00Z"
  },
  {
    "train_number": "56058 ",
    "unit_number": "1293.0200",
    "name": "Wr. Neustadt Hbf (in Nb)",
    "abbr": "Nb  ",
    "lat": "47.8113",
    "lng": "16.2337",
    "arrival": null,
    "departure": "2023-10-21T02:27:00Z"
  },
  {
    "train_number": "56058 ",
    "unit_number": "1293.0200",
    "name": "Neunkirchen N.Ö.",
    "abbr": "Nek ",
    "lat": "47.731",
    "lng": "16.0826",
    "arrival": null,
    "departure": "2023-10-21T02:18:00Z"
  }
]
