[
  {
    "train_number": "45309 ",
    "unit_number": "1293.0200",
    "name": "Sopron Rendezö pu",
    "abbr": "SOR ",
    "lat": "47.6665",
    "lng": "16.6031",
    "arrival": "2023-09-29T21:34:00Z",
    "departure": "2023-09-30T09:56:00Z"
  },
  {
    "train_number": "45309 ",
    "unit_number": "1293.0200",
    "name": "Sopron",
    "abbr": "SOP ",
    "lat": "47.6779",
    "lng": "16.5865",
    "arrival": null,
    "departure": "2023-09-29T21:13:00Z"
  },
  {
    "train_number": "45309 ",
    "unit_number": "1293.0200",
    "name": "Ebenfurth (in Ef)",
    "abbr": "Ef  ",
    "lat": "47.8777",
    "lng": "16.3621",
    "arrival": "2023-09-29T19:34:00Z",
    "departure": "2023-09-29T20:16:00Z"
  },
  {
    "train_number": null,
    "unit_number": "1293.0200",
    "name": "Wien Zvbf (in Zur)",
    "abbr": "Zur ",
    "lat": "48.1453",
    "lng": "16.43",
    "arrival": null,
    "departure": "2023-09-29T18:54:00Z"
  },
  {
    "train_number": "68274 ",
    "unit_number": "1293.0200",
    "name": "Wien Zvbf (in Zur)",
    "abbr": "Zur ",
    "lat": "48.1453",
    "lng": "16.43",
    "arrival": null,
    "departure": "2023-09-29T16:11:00Z"
  },
  {
    "train_number": null,
    "unit_number": "1293.0200",
    "name": "Kledering (in Zur)",
    "abbr": "Za  ",
    "lat": "48.1331",
    "lng": "16.4396",
    "arrival": null,
    "departure": "2023-09-29T15:20:00Z"
  },
  {
    "train_number": "68272 ",
    "unit_number": "1293.0200",
    "name": "Wien Zvbf (in Zur)",
    "abbr": "Zur ",
    "lat": "48.1453",
    "lng": "16.43",
    "arrival": null,
    "departure": "2023-09-29T14:55:00Z"
  },
  {
    "train_number": null,
    "unit_number": "1293.0200",
    "name": "Wien Zvbf (in Zur)",
    "abbr": "Zur ",
    "lat": "48.1453",
    "lng": "16.43",
    "arrival": null,
    "departure": "2023-09-29T13:41:00Z"
  },
  {
    "train_number": "45027 ",
    "unit_number": "1293.0200",
    "name": "Gänserndorf",
    "abbr": "Gae ",
    "lat": "48.3401",
    "lng": "16.7324",
    "arrival": null,
    "departure": "2023-09-29T12:51:00Z"
  },
  {
    "train_number": "45027 ",
    "unit_number": "1293.0200",
    "name": "Hohenau",
    "abbr": "Nh  ",
    "lat": "48.5981",
    "lng": "16.9008",
    "arrival": "2023-09-29T12:17:00Z",
    "departure": "2023-09-29T12:26:00Z"
  },
  {
    "train_number": "V-Tfz ",
    "unit_number": "1293.0200",
    "name": "Hohenau",
    "abbr": "Nh  ",
    "lat": "48.5981",
    "lng": "16.9008",
    "arrival": "2023-09-29T10:01:00Z",
    "departure": "2023-09-29T10:33:00Z"
  },
  {
    "train_number": "45004 ",
    "unit_number": "1293.0200",
    "name": "Gänserndorf",
    "abbr": "Gae ",
    "lat": "48.3401",
    "lng": "16.7324",
    "arrival": null,
    "departure": "2023-09-29T09:21:00Z"
  },
  {
    "train_number": null,
    "unit_number": "1293.0200",
    "name": "Wien Zvbf (in Zur)",
    "abbr": "Zur ",
    "lat": "48.1453",
    "lng": "16.43",
    "arrival": null,
    "departure": "2023-09-29T08:35:00Z"
  },
  {
    "train_number": "42326 ",
    "unit_number": "1293.0200",
    "name": "Parndorf",
    "abbr": "Par ",
    "lat": "47.987",
    "lng": "16.8702",
    "arrival": null,
    "departure": "2023-09-29T06:57:00Z"
  },
  {
    "train_number": "42326 ",
    "unit_number": "1293.0200",
    "name": "Hegyeshalom",
    "abbr": "He  ",
    "lat": "47.9139",
    "lng": "17.1455",
    "arrival": "2023-09-29T05:38:00Z",
    "departure": "2023-09-29T06:38:00Z"
  }
]
