[
  {
    "train_number": "44198 ",
    "unit_number": "1293.0200",
    "name": "München Ost Rbf",
    "abbr": "MOR ",
    "lat": "48.1342",
    "lng": "11.6404",
    "arrival": "2023-10-17T23:22:00Z",
    "departure": "2023-10-18T01:40:00Z"
  },
  {
    "train_number": "44198 ",
    "unit_number": "1293.0200",
    "name": "Kufstein",
    "abbr": "K   ",
    "lat": "47.5833",
    "lng": "12.1657",
    "arrival": "2023-10-17T21:55:00Z",
    "departure": "2023-10-17T22:19:00Z"
  },
  {
    "train_number": "44198 ",
    "unit_number": "1293.0200",
    "name": "Wörgl Hbf (in W)",
    "abbr": "W   ",
    "lat": "47.4912",
    "lng": "12.0603",
    "arrival": null,
    "departure": "2023-10-17T21:45:00Z"
  },
  {
    "train_number": "44198 ",
    "unit_number": "1293.0200",
    "name": "Wörgl Hbf-T. N. (in W)",
    "abbr": "Wtn ",
    "lat": "47.4824",
    "lng": "12.033",
    "arrival": null,
    "departure": "2023-10-17T21:43:00Z"
  },
  {
    "train_number": "64436 ",
    "unit_number": "1293.0200",
    "name": "Hall in Tirol",
    "abbr": "H   ",
    "lat": "47.2769",
    "lng": "11.5013",
    "arrival": "2023-10-17T19:07:00Z",
    "departure": "2023-10-17T21:09:00Z"
  },
  {
    "train_number": "64436 ",
    "unit_number": "1293.0200",
    "name": "Wörgl Hbf-T. N. (in W)",
    "abbr": "Wtn ",
    "lat": "47.4824",
    "lng": "12.033",
    "arrival": null,
    "departure": "2023-10-17T18:34:00Z"
  },
  {
    "train_number": "54402 ",
    "unit_number": "1293.0200",
    "name": "Wörgl Hbf (in W)",
    "abbr": "W   ",
    "lat": "47.4912",
    "lng": "12.0603",
    "arrival": "2023-10-17T16:28:00Z",
    "departure": "2023-10-17T18:31:00Z"
  },
  {
    "train_number": "54402 ",
    "unit_number": "1293.0200",
    "name": "Kitzbühel",
    "abbr": "Kzb ",
    "lat": "47.4542",
    "lng": "12.391",
    "arrival": null,
    "departure": "2023-10-17T15:50:00Z"
  },
  {
    "train_number": "88399 ",
    "unit_number": "1293.0200",
    "name": "Schwarzach-St.Veit",
    "abbr": "Swa ",
    "lat": "47.3186",
    "lng": "13.1561",
    "arrival": "2023-10-17T13:59:00Z",
    "departure": "2023-10-17T14:29:00Z"
  },
  {
    "train_number": "88399 ",
    "unit_number": "1293.0200",
    "name": "Kitzbühel",
    "abbr": "Kzb ",
    "lat": "47.4542",
    "lng": "12.391",
    "arrival": null,
    "departure": "2023-10-17T12:46:00Z"
  },
  {
    "train_number": "45808 ",
    "unit_number": "1293.0200",
    "name": "Wörgl Hbf (in W)",
    "abbr": "W   ",
    "lat": "47.4912",
    "lng": "12.0603",
    "arrival": "2023-10-17T09:52:00Z",
    "departure": "2023-10-17T12:15:00Z"
  },
  {
    "train_number": "45808 ",
    "unit_number": "1293.0200",
    "name": "Kitzbühel",
    "abbr": "Kzb ",
    "lat": "47.4542",
    "lng": "12.391",
    "arrival": null,
    "departure": "2023-10-17T09:20:00Z"
  },
  {
    "train_number": "45808 ",
    "unit_number": "1293.0200",
    "name": "Schwarzach-St.Veit",
    "abbr": "Swa ",
    "lat": "47.3186",
    "lng": "13.1561",
    "arrival": "2023-10-17T07:39:00Z",
    "departure": "2023-10-17T07:59:00Z"
  },
  {
    "train_number": null,
    "unit_number": "1293.0200",
    "name": "Villach Süd Gvbf Ausfgr",
    "abbr": "Va  ",
    "lat": "46.5674",
    "lng": "13.8238",
    "arrival": null,
    "departure": "2023-10-17T05:37:00Z"
  }
]
