[
  {
    "train_number": "54549 ",
    "unit_number": "1293.0200",
    "name": "Schwarzach-St.Veit",
    "abbr": "Swa ",
    "lat": "47.3186",
    "lng": "13.1561",
    "arrival": "2023-10-20T00:14:00Z",
    "departure": "2023-10-20T00:31:00Z"
  },
  {
    "train_number": "54549 ",
    "unit_number": "1293.0200",
    "name": "Kitzbühel",
    "abbr": "Kzb ",
    "lat": "47.4542",
    "lng": "12.391",
    "arrival": null,
    "departure": "2023-10-19T22:51:00Z"
  },
  {
    "train_number": "88332 ",
    "unit_number": "1293.0200",
    "name": "Wörgl Hbf (in W)",
    "abbr": "W   ",
    "lat": "47.4912",
    "lng": "12.0603",
    "arrival": "2023-10-19T21:34:00Z",
    "departure": "2023-10-19T22:20:00Z"
  },
  {
    "train_number": "49114 ",
    "unit_number": "1293.0200",
    "name": "Rohrdorf (Oberbay)",
    "abbr": "MRDO",
    "lat": "47.7982",
    "lng": "12.1736",
    "arrival": "2023-10-19T16:45:00Z",
    "departure": "2023-10-19T19:30:00Z"
  },
  {
    "train_number": "49110 ",
    "unit_number": "1293.0200",
    "name": "Rohrdorf (Oberbay)",
    "abbr": "MRDO",
    "lat": "47.7982",
    "lng": "12.1736",
    "arrival": "2023-10-19T07:27:00Z",
    "departure": "2023-10-19T09:32:00Z"
  },
  {
    "train_number": "49110 ",
    "unit_number": "1293.0200",
    "name": "Kufstein",
    "abbr": "K   ",
    "lat": "47.5833",
    "lng": "12.1657",
    "arrival": "2023-10-19T06:21:00Z",
    "departure": "2023-10-19T06:26:00Z"
  },
  {
    "train_number": "88327 ",
    "unit_number": "1293.0200",
    "name": "Wörgl Hbf (in W)",
    "abbr": "W   ",
    "lat": "47.4912",
    "lng": "12.0603",
    "arrival": "2023-10-19T04:26:00Z",
    "departure": "2023-10-19T05:04:00Z"
  },
  {
    "train_number": "88327 ",
    "unit_number": "1293.0200",
    "name": "Wörgl Hbf-T. N. (in W)",
    "abbr": "Wtn ",
    "lat": "47.4824",
    "lng": "12.033",
    "arrival": null,
    "departure": "2023-10-19T04:23:00Z"
  },
  {
    "train_number": "64403 ",
    "unit_number": "1293.0200",
    "name": "Jenbach",
    "abbr": "Jb  ",
    "lat": "47.3884",
    "lng": "11.7783",
    "arrival": "2023-10-19T03:59:00Z",
    "departure": "2023-10-19T04:05:00Z"
  },
  {
    "train_number": "88409 ",
    "unit_number": "1293.0200",
    "name": "Hall in Tirol",
    "abbr": "H   ",
    "lat": "47.2769",
    "lng": "11.5013",
    "arrival": "2023-10-19T03:00:00Z",
    "departure": "2023-10-19T03:36:00Z"
  }
]
