[
  {
    "train_number": "57903 ",
    "unit_number": "1293.0200",
    "name": "Voest Alpine Linz",
    "abbr": "Ms  ",
    "lat": "48.2607",
    "lng": "14.2927",
    "arrival": "2023-08-20T18:35:00Z",
    "departure": "2023-08-20T19:08:00Z"
  },
  {
    "train_number": "57903 ",
    "unit_number": "1293.0200",
    "name": "Linz Vbf-Ost-Einf. (in Lzv)",
    "abbr": "Lm  ",
    "lat": "48.2607",
    "lng": "14.3257",
    "arrival": null,
    "departure": "2023-08-20T18:22:00Z"
  },
  {
    "train_number": "57903 ",
    "unit_number": "1293.0200",
    "name": "Enns",
    "abbr": "Ens ",
    "lat": "48.2212",
    "lng": "14.4668",
    "arrival": null,
    "departure": "2023-08-20T18:11:00Z"
  },
  {
    "train_number": "57903 ",
    "unit_number": "1293.0200",
    "name": "St.Valentin (in Sv)",
    "abbr": "Sv  ",
    "lat": "48.1784",
    "lng": "14.5219",
    "arrival": null,
    "departure": "2023-08-20T18:06:00Z"
  },
  {
    "train_number": "57903 ",
    "unit_number": "1293.0200",
    "name": "Amstetten (in Ams)",
    "abbr": "Ams ",
    "lat": "48.1215",
    "lng": "14.8792",
    "arrival": null,
    "departure": "2023-08-20T17:40:00Z"
  },
  {
    "train_number": "57903 ",
    "unit_number": "1293.0200",
    "name": "Ybbs a.d.Donau",
    "abbr": "Y   ",
    "lat": "48.158",
    "lng": "15.0981",
    "arrival": null,
    "departure": "2023-08-20T17:28:00Z"
  },
  {
    "train_number": "57903 ",
    "unit_number": "1293.0200",
    "name": "Pöchlarn",
    "abbr": "Poe ",
    "lat": "48.208",
    "lng": "15.2148",
    "arrival": null,
    "departure": "2023-08-20T17:18:00Z"
  },
  {
    "train_number": "57903 ",
    "unit_number": "1293.0200",
    "name": "Stockerau (in Su)",
    "abbr": "Su  ",
    "lat": "48.3824",
    "lng": "16.2126",
    "arrival": null,
    "departure": "2023-08-20T15:51:00Z"
  },
  {
    "train_number": "57903 ",
    "unit_number": "1293.0200",
    "name": "Korneuburg",
    "abbr": "Ko  ",
    "lat": "48.3429",
    "lng": "16.3289",
    "arrival": null,
    "departure": "2023-08-20T15:40:00Z"
  },
  {
    "train_number": "57903 ",
    "unit_number": "1293.0200",
    "name": "Gänserndorf",
    "abbr": "Gae ",
    "lat": "48.3401",
    "lng": "16.7324",
    "arrival": null,
    "departure": "2023-08-20T14:03:00Z"
  },
  {
    "train_number": "57096 ",
    "unit_number": "1293.0200",
    "name": "Hohenau",
    "abbr": "Nh  ",
    "lat": "48.5981",
    "lng": "16.9008",
    "arrival": "2023-08-20T05:52:00Z",
    "departure": "2023-08-20T13:32:00Z"
  },
  {
    "train_number": "57096 ",
    "unit_number": "1293.0200",
    "name": "Gänserndorf",
    "abbr": "Gae ",
    "lat": "48.3401",
    "lng": "16.7324",
    "arrival": null,
    "departure": "2023-08-20T05:10:00Z"
  },
  {
    "train_number": "57096 ",
    "unit_number": "1293.0200",
    "name": "Wien Zvbf (in Zur)",
    "abbr": "Zur ",
    "lat": "48.1453",
    "lng": "16.43",
    "arrival": null,
    "departure": "2023-08-20T04:22:00Z"
  },
  {
    "train_number": null,
    "unit_number": "1293.0200",
    "name": "Kledering (in Zur)",
    "abbr": "Za  ",
    "lat": "48.1453",
    "lng": "16.43",
    "arrival": null,
    "departure": "2023-08-20T04:17:00Z"
  },
  {
    "train_number": "48105 ",
    "unit_number": "1293.0200",
    "name": "Gänserndorf",
    "abbr": "Gae ",
    "lat": "48.3401",
    "lng": "16.7324",
    "arrival": null,
    "departure": "2023-08-20T02:41:00Z"
  }
]
