[
  {
    "train_number": "43634 ",
    "unit_number": "1293.0200",
    "name": "Wr. Neustadt Hbf (in Nb)",
    "abbr": "Nb  ",
    "lat": "47.8113",
    "lng": "16.2337",
    "arrival": null,
    "departure": "2023-09-12T20:01:00Z"
  },
  {
    "train_number": "43634 ",
    "unit_number": "1293.0200",
    "name": "Neunkirchen N.Ö.",
    "abbr": "Nek ",
    "lat": "47.731",
    "lng": "16.0826",
    "arrival": null,
    "departure": "2023-09-12T19:48:00Z"
  },
  {
    "train_number": "43634 ",
    "unit_number": "1293.0200",
    "name": "Payerbach-Reichenau",
    "abbr": "Pr  ",
    "lat": "47.696",
    "lng": "15.8632",
    "arrival": null,
    "departure": "2023-09-12T18:59:00Z"
  },
  {
    "train_number": "43634 ",
    "unit_number": "1293.0200",
    "name": "Mürzzuschlag (in Mz)",
    "abbr": "Mz  ",
    "lat": "47.6079",
    "lng": "15.677",
    "arrival": null,
    "departure": "2023-09-12T18:26:00Z"
  },
  {
    "train_number": "43634 ",
    "unit_number": "1293.0200",
    "name": "Bruck a.d.Mur (in Bm)",
    "abbr": "Bm  ",
    "lat": "47.4134",
    "lng": "15.2797",
    "arrival": null,
    "departure": "2023-09-12T17:19:00Z"
  },
  {
    "train_number": "43634 ",
    "unit_number": "1293.0200",
    "name": "Graz Vbf (in G)",
    "abbr": "Gi  ",
    "lat": "47.0885",
    "lng": "15.4077",
    "arrival": null,
    "departure": "2023-09-12T16:31:00Z"
  },
  {
    "train_number": "43634 ",
    "unit_number": "1293.0200",
    "name": "Graz Hbf (in G)",
    "abbr": "G   ",
    "lat": "47.0733",
    "lng": "15.4163",
    "arrival": null,
    "departure": "2023-09-12T16:29:00Z"
  },
  {
    "train_number": "43634 ",
    "unit_number": "1293.0200",
    "name": "Werndorf",
    "abbr": "Wr  ",
    "lat": "46.9171",
    "lng": "15.477",
    "arrival": "2023-09-12T16:11:00Z",
    "departure": "2023-09-12T16:13:00Z"
  },
  {
    "train_number": "47451 ",
    "unit_number": "1293.0200",
    "name": "Spielfeld-Straß",
    "abbr": "Sd  ",
    "lat": "46.71",
    "lng": "15.6282",
    "arrival": "2023-09-12T10:14:00Z",
    "departure": "2023-09-12T15:44:00Z"
  },
  {
    "train_number": "47451 ",
    "unit_number": "1293.0200",
    "name": "Werndorf",
    "abbr": "Wr  ",
    "lat": "46.9171",
    "lng": "15.477",
    "arrival": null,
    "departure": "2023-09-12T08:40:00Z"
  },
  {
    "train_number": "47451 ",
    "unit_number": "1293.0200",
    "name": "Graz Hbf (in G)",
    "abbr": "G   ",
    "lat": "47.0733",
    "lng": "15.4163",
    "arrival": null,
    "departure": "2023-09-12T08:27:00Z"
  },
  {
    "train_number": "47451 ",
    "unit_number": "1293.0200",
    "name": "Graz Vbf (in G)",
    "abbr": "Gi  ",
    "lat": "47.0885",
    "lng": "15.4077",
    "arrival": null,
    "departure": "2023-09-12T08:23:00Z"
  },
  {
    "train_number": "47451 ",
    "unit_number": "1293.0200",
    "name": "Bruck a.d.Mur (in Bm)",
    "abbr": "Bm  ",
    "lat": "47.4134",
    "lng": "15.2797",
    "arrival": null,
    "departure": "2023-09-12T07:44:00Z"
  },
  {
    "train_number": "47451 ",
    "unit_number": "1293.0200",
    "name": "Mürzzuschlag (in Mz)",
    "abbr": "Mz  ",
    "lat": "47.6079",
    "lng": "15.677",
    "arrival": null,
    "departure": "2023-09-12T06:53:00Z"
  },
  {
    "train_number": "47451 ",
    "unit_number": "1293.0200",
    "name": "Payerbach-Reichenau",
    "abbr": "Pr  ",
    "lat": "47.696",
    "lng": "15.8632",
    "arrival": null,
    "departure": "2023-09-12T05:58:00Z"
  },
  {
    "train_number": "47451 ",
    "unit_number": "1293.0200",
    "name": "Neunkirchen N.Ö.",
    "abbr": "Nek ",
    "lat": "47.731",
    "lng": "16.0826",
    "arrival": null,
    "departure": "2023-09-12T05:20:00Z"
  },
  {
    "train_number": "47451 ",
    "unit_number": "1293.0200",
    "name": "Wr. Neustadt Hbf (in Nb)",
    "abbr": "Nb  ",
    "lat": "47.8113",
    "lng": "16.2337",
    "arrival": null,
    "departure": "2023-09-12T05:09:00Z"
  },
  {
    "train_number": "47451 ",
    "unit_number": "1293.0200",
    "name": "Ebenfurth (in Ef)",
    "abbr": "Ef  ",
    "lat": "47.8777",
    "lng": "16.3621",
    "arrival": null,
    "departure": "2023-09-12T05:00:00Z"
  },
  {
    "train_number": "47451 ",
    "unit_number": "1293.0200",
    "name": "Wien Zvbf (in Zur)",
    "abbr": "Zur ",
    "lat": "48.1453",
    "lng": "16.43",
    "arrival": "2023-09-12T04:15:00Z",
    "departure": "2023-09-12T04:18:00Z"
  },
  {
    "train_number": "56054 ",
    "unit_number": "1293.0200",
    "name": "Wien Zvbf-Einfgr. (in Zur)",
    "abbr": "Ze  ",
    "lat": "48.1453",
    "lng": "16.43",
    "arrival": "2023-09-12T01:51:00Z",
    "departure": "2023-09-12T02:44:00Z"
  }
]
