[
  {
    "train_number": "91235 ",
    "unit_number": "1293.0200",
    "name": "Stockerau (in Su)",
    "abbr": "Su  ",
    "lat": "48.3824",
    "lng": "16.2126",
    "arrival": null,
    "departure": "2023-09-15T14:00:00Z"
  },
  {
    "train_number": "91235 ",
    "unit_number": "1293.0200",
    "name": "Absdorf-Hippersdorf (in Ah)",
    "abbr": "Ah  ",
    "lat": "48.4018",
    "lng": "15.9862",
    "arrival": null,
    "departure": "2023-09-15T13:34:00Z"
  },
  {
    "train_number": "18455 ",
    "unit_number": "1293.0200",
    "name": "Absdorf-Hippersdorf (in Ah)",
    "abbr": "Ah  ",
    "lat": "48.4018",
    "lng": "15.9862",
    "arrival": null,
    "departure": "2023-09-15T12:15:00Z"
  },
  {
    "train_number": "18455 ",
    "unit_number": "1293.0200",
    "name": "Stockerau (in Su)",
    "abbr": "Su  ",
    "lat": "48.3824",
    "lng": "16.2126",
    "arrival": null,
    "departure": "2023-09-15T11:59:00Z"
  },
  {
    "train_number": "18455 ",
    "unit_number": "1293.0200",
    "name": "Korneuburg",
    "abbr": "Ko  ",
    "lat": "48.3429",
    "lng": "16.3289",
    "arrival": null,
    "departure": "2023-09-15T11:50:00Z"
  },
  {
    "train_number": "54085 ",
    "unit_number": "1293.0200",
    "name": "Wien Zvbf-Einfgr. (in Zur)",
    "abbr": "Ze  ",
    "lat": "48.1453",
    "lng": "16.43",
    "arrival": "2023-09-15T09:22:00Z",
    "departure": "2023-09-15T11:22:00Z"
  },
  {
    "train_number": "54085 ",
    "unit_number": "1293.0200",
    "name": "Wien Meidling (in Wbf)",
    "abbr": "Mi  ",
    "lat": "48.1747",
    "lng": "16.3348",
    "arrival": null,
    "departure": "2023-09-15T09:14:00Z"
  },
  {
    "train_number": "54085 ",
    "unit_number": "1293.0200",
    "name": "Pöchlarn",
    "abbr": "Poe ",
    "lat": "48.208",
    "lng": "15.2148",
    "arrival": null,
    "departure": "2023-09-15T08:05:00Z"
  },
  {
    "train_number": "54085 ",
    "unit_number": "1293.0200",
    "name": "Ybbs a.d.Donau",
    "abbr": "Y   ",
    "lat": "48.158",
    "lng": "15.0981",
    "arrival": null,
    "departure": "2023-09-15T07:54:00Z"
  },
  {
    "train_number": "54085 ",
    "unit_number": "1293.0200",
    "name": "Amstetten (in Ams)",
    "abbr": "Ams ",
    "lat": "48.1215",
    "lng": "14.8792",
    "arrival": null,
    "departure": "2023-09-15T07:39:00Z"
  },
  {
    "train_number": "54085 ",
    "unit_number": "1293.0200",
    "name": "St.Valentin (in Sv)",
    "abbr": "Sv  ",
    "lat": "48.1784",
    "lng": "14.5219",
    "arrival": null,
    "departure": "2023-09-15T07:08:00Z"
  },
  {
    "train_number": "54085 ",
    "unit_number": "1293.0200",
    "name": "Enns",
    "abbr": "Ens ",
    "lat": "48.2212",
    "lng": "14.4668",
    "arrival": null,
    "departure": "2023-09-15T07:02:00Z"
  },
  {
    "train_number": "54085 ",
    "unit_number": "1293.0200",
    "name": "Linz Hbf",
    "abbr": "Lz  ",
    "lat": "48.2908",
    "lng": "14.2927",
    "arrival": null,
    "departure": "2023-09-15T06:18:00Z"
  },
  {
    "train_number": null,
    "unit_number": "1293.0200",
    "name": "Wels Vbf (in Wev)",
    "abbr": "Wev ",
    "lat": "48.1662",
    "lng": "14.0273",
    "arrival": null,
    "departure": "2023-09-15T05:59:00Z"
  },
  {
    "train_number": "54800 ",
    "unit_number": "1293.0200",
    "name": "Linz Hbf",
    "abbr": "Lz  ",
    "lat": "48.2908",
    "lng": "14.2927",
    "arrival": null,
    "departure": "2023-09-15T04:16:00Z"
  },
  {
    "train_number": "54800 ",
    "unit_number": "1293.0200",
    "name": "Linz Vbf-West (in Lzv)",
    "abbr": "Lr  ",
    "lat": "48.2607",
    "lng": "14.2927",
    "arrival": "2023-09-15T04:05:00Z",
    "departure": "2023-09-15T04:08:00Z"
  },
  {
    "train_number": "54800 ",
    "unit_number": "1293.0200",
    "name": "St.Valentin (in Sv)",
    "abbr": "Sv  ",
    "lat": "48.1784",
    "lng": "14.5219",
    "arrival": null,
    "departure": "2023-09-15T03:45:00Z"
  },
  {
    "train_number": "54800 ",
    "unit_number": "1293.0200",
    "name": "Amstetten (in Ams)",
    "abbr": "Ams ",
    "lat": "48.1215",
    "lng": "14.8792",
    "arrival": null,
    "departure": "2023-09-15T03:20:00Z"
  },
  {
    "train_number": "54800 ",
    "unit_number": "1293.0200",
    "name": "Ybbs a.d.Donau",
    "abbr": "Y   ",
    "lat": "48.158",
    "lng": "15.0981",
    "arrival": null,
    "departure": "2023-09-15T03:08:00Z"
  },
  {
    "train_number": "54800 ",
    "unit_number": "1293.0200",
    "name": "Pöchlarn",
    "abbr": "Poe ",
    "lat": "48.208",
    "lng": "15.2148",
    "arrival": null,
    "departure": "2023-09-15T03:00:00Z"
  }
]
