[
  {
    "train_number": "47803 ",
    "unit_number": "1293.0200",
    "name": "Voest Alpine Linz",
    "abbr": "Ms  ",
    "lat": "48.263",
    "lng": "14.3367",
    "arrival": "2023-10-05T01:47:00Z",
    "departure": "2023-10-05T01:58:00Z"
  },
  {
    "train_number": "47803 ",
    "unit_number": "1293.0200",
    "name": "Linz Hbf",
    "abbr": "Lz  ",
    "lat": "48.2908",
    "lng": "14.2927",
    "arrival": null,
    "departure": "2023-10-05T01:36:00Z"
  },
  {
    "train_number": "47803 ",
    "unit_number": "1293.0200",
    "name": "Wels Hbf",
    "abbr": "We  ",
    "lat": "48.1662",
    "lng": "14.0273",
    "arrival": null,
    "departure": "2023-10-05T01:18:00Z"
  },
  {
    "train_number": "47803 ",
    "unit_number": "1293.0200",
    "name": "Attnang-Puchheim",
    "abbr": "At  ",
    "lat": "48.0112",
    "lng": "13.7193",
    "arrival": null,
    "departure": "2023-10-05T00:57:00Z"
  },
  {
    "train_number": "47803 ",
    "unit_number": "1293.0200",
    "name": "Steindorf b.Straßw. (in Nst)",
    "abbr": "Nst ",
    "lat": "47.9676",
    "lng": "13.2406",
    "arrival": null,
    "departure": "2023-10-05T00:24:00Z"
  },
  {
    "train_number": null,
    "unit_number": "1293.0200",
    "name": "Salzburg Gnigl-Vbf (in Sb)",
    "abbr": "Sr  ",
    "lat": "47.8167",
    "lng": "13.0639",
    "arrival": null,
    "departure": "2023-10-05T00:00:00Z"
  },
  {
    "train_number": "59803 ",
    "unit_number": "1293.0200",
    "name": "Rohrdorf (Oberbay)",
    "abbr": "MRDO",
    "lat": "47.7982",
    "lng": "12.1736",
    "arrival": "2023-10-04T16:45:00Z",
    "departure": "2023-10-04T19:30:00Z"
  },
  {
    "train_number": "79217 ",
    "unit_number": "1293.0200",
    "name": "Kufstein",
    "abbr": "K   ",
    "lat": "47.5833",
    "lng": "12.1657",
    "arrival": "2023-10-04T11:00:00Z",
    "departure": "2023-10-04T14:09:00Z"
  },
  {
    "train_number": "47802 ",
    "unit_number": "1293.0200",
    "name": "Rohrdorf (Oberbay)",
    "abbr": "MRDO",
    "lat": "47.7982",
    "lng": "12.1736",
    "arrival": "2023-10-04T05:51:00Z",
    "departure": "2023-10-04T07:56:00Z"
  },
  {
    "train_number": "47802 ",
    "unit_number": "1293.0200",
    "name": "Salzburg Hbf (in Sb)",
    "abbr": "Sb  ",
    "lat": "47.8135",
    "lng": "13.0466",
    "arrival": "2023-10-04T03:08:00Z",
    "departure": "2023-10-04T03:22:00Z"
  },
  {
    "train_number": "47802 ",
    "unit_number": "1293.0200",
    "name": "Steindorf b.Straßw. (in Nst)",
    "abbr": "Nst ",
    "lat": "47.9676",
    "lng": "13.2406",
    "arrival": null,
    "departure": "2023-10-04T02:46:00Z"
  }
]
