[
  {
    "train_number": "5034  ",
    "unit_number": "4024.0088",
    "name": "Wörgl Hbf (in W)",
    "abbr": "W   ",
    "lat": "47.4912",
    "lng": "12.0603",
    "arrival": "2023-10-27T15:40:00Z",
    "departure": "2023-10-27T15:54:00Z"
  },
  {
    "train_number": "5034  ",
    "unit_number": "4024.0088",
    "name": "Kitzbühel",
    "abbr": "Kzb ",
    "lat": "47.4542",
    "lng": "12.391",
    "arrival": "2023-10-27T15:00:00Z",
    "departure": "2023-10-27T15:01:00Z"
  },
  {
    "train_number": "5033  ",
    "unit_number": "4024.0088",
    "name": "Kitzbühel",
    "abbr": "Kzb ",
    "lat": "47.4542",
    "lng": "12.391",
    "arrival": "2023-10-27T14:01:00Z",
    "departure": "2023-10-27T14:02:00Z"
  },
  {
    "train_number": "5317  ",
    "unit_number": "4024.0088",
    "name": "Wörgl Hbf (in W)",
    "abbr": "W   ",
    "lat": "47.4912",
    "lng": "12.0603",
    "arrival": "2023-10-27T13:07:00Z",
    "departure": "2023-10-27T13:22:00Z"
  },
  {
    "train_number": "5317  ",
    "unit_number": "4024.0088",
    "name": "Wörgl Hbf-T. N. (in W)",
    "abbr": "Wtn ",
    "lat": "47.4824",
    "lng": "12.033",
    "arrival": null,
    "departure": "2023-10-27T13:04:00Z"
  },
  {
    "train_number": "5317  ",
    "unit_number": "4024.0088",
    "name": "Jenbach",
    "abbr": "Jb  ",
    "lat": "47.3884",
    "lng": "11.7783",
    "arrival": "2023-10-27T12:47:00Z",
    "departure": "2023-10-27T12:48:00Z"
  },
  {
    "train_number": "5317  ",
    "unit_number": "4024.0088",
    "name": "Schwaz",
    "abbr": "Sw  ",
    "lat": "47.3497",
    "lng": "11.7016",
    "arrival": "2023-10-27T12:41:00Z",
    "departure": "2023-10-27T12:42:00Z"
  },
  {
    "train_number": "5317  ",
    "unit_number": "4024.0088",
    "name": "Hall in Tirol",
    "abbr": "H   ",
    "lat": "47.2769",
    "lng": "11.5013",
    "arrival": "2023-10-27T12:30:00Z",
    "departure": "2023-10-27T12:31:00Z"
  },
  {
    "train_number": "5317  ",
    "unit_number": "4024.0088",
    "name": "Innsbruck Hbf  (in I)",
    "abbr": "I   ",
    "lat": "47.2634",
    "lng": "11.4017",
    "arrival": "2023-10-27T12:13:00Z",
    "departure": "2023-10-27T12:21:00Z"
  },
  {
    "train_number": "5216  ",
    "unit_number": "4024.0088",
    "name": "Brennero/Brenner",
    "abbr": "Be  ",
    "lat": "47.0022",
    "lng": "11.5053",
    "arrival": "2023-10-27T11:28:00Z",
    "departure": "2023-10-27T11:33:00Z"
  },
  {
    "train_number": "5216  ",
    "unit_number": "4024.0088",
    "name": "Innsbruck Hbf  (in I)",
    "abbr": "I   ",
    "lat": "47.2634",
    "lng": "11.4017",
    "arrival": "2023-10-27T10:40:00Z",
    "departure": "2023-10-27T10:49:00Z"
  },
  {
    "train_number": "5216  ",
    "unit_number": "4024.0088",
    "name": "Hall in Tirol",
    "abbr": "H   ",
    "lat": "47.2769",
    "lng": "11.5013",
    "arrival": "2023-10-27T10:29:00Z",
    "departure": "2023-10-27T10:30:00Z"
  },
  {
    "train_number": "5216  ",
    "unit_number": "4024.0088",
    "name": "Schwaz",
    "abbr": "Sw  ",
    "lat": "47.3497",
    "lng": "11.7016",
    "arrival": "2023-10-27T10:18:00Z",
    "departure": "2023-10-27T10:19:00Z"
  },
  {
    "train_number": "5216  ",
    "unit_number": "4024.0088",
    "name": "Jenbach",
    "abbr": "Jb  ",
    "lat": "47.3884",
    "lng": "11.7783",
    "arrival": "2023-10-27T10:13:00Z",
    "departure": "2023-10-27T10:14:00Z"
  },
  {
    "train_number": "5216  ",
    "unit_number": "4024.0088",
    "name": "Wörgl Hbf-T. N. (in W)",
    "abbr": "Wtn ",
    "lat": "47.4824",
    "lng": "12.033",
    "arrival": null,
    "departure": "2023-10-27T09:56:00Z"
  },
  {
    "train_number": "5022  ",
    "unit_number": "4024.0088",
    "name": "Wörgl Hbf (in W)",
    "abbr": "W   ",
    "lat": "47.4912",
    "lng": "12.0603",
    "arrival": "2023-10-27T09:40:00Z",
    "departure": "2023-10-27T09:54:00Z"
  },
  {
    "train_number": "5022  ",
    "unit_number": "4024.0088",
    "name": "Kitzbühel",
    "abbr": "Kzb ",
    "lat": "47.4542",
    "lng": "12.391",
    "arrival": "2023-10-27T09:00:00Z",
    "departure": "2023-10-27T09:01:00Z"
  },
  {
    "train_number": "5021  ",
    "unit_number": "4024.0088",
    "name": "Kitzbühel",
    "abbr": "Kzb ",
    "lat": "47.4542",
    "lng": "12.391",
    "arrival": "2023-10-27T08:01:00Z",
    "departure": "2023-10-27T08:02:00Z"
  },
  {
    "train_number": "5010  ",
    "unit_number": "4024.0088",
    "name": "Wörgl Hbf (in W)",
    "abbr": "W   ",
    "lat": "47.4912",
    "lng": "12.0603",
    "arrival": "2023-10-27T06:08:00Z",
    "departure": "2023-10-27T07:22:00Z"
  },
  {
    "train_number": "5010  ",
    "unit_number": "4024.0088",
    "name": "Kitzbühel",
    "abbr": "Kzb ",
    "lat": "47.4542",
    "lng": "12.391",
    "arrival": "2023-10-27T05:28:00Z",
    "departure": "2023-10-27T05:29:00Z"
  }
]
