[
  {
    "train_number": "5263  ",
    "unit_number": "4024.0088",
    "name": "Innsbruck Hbf  (in I)",
    "abbr": "I   ",
    "lat": "47.2634",
    "lng": "11.4017",
    "arrival": "2023-10-23T14:41:00Z",
    "departure": "2023-10-23T14:50:00Z"
  },
  {
    "train_number": "5260  ",
    "unit_number": "4024.0088",
    "name": "Innsbruck Hbf  (in I)",
    "abbr": "I   ",
    "lat": "47.2634",
    "lng": "11.4017",
    "arrival": "2023-10-23T13:13:00Z",
    "departure": "2023-10-23T13:19:00Z"
  },
  {
    "train_number": "5259  ",
    "unit_number": "4024.0088",
    "name": "Hall in Tirol",
    "abbr": "H   ",
    "lat": "47.2769",
    "lng": "11.5013",
    "arrival": "2023-10-23T12:59:00Z",
    "departure": "2023-10-23T13:04:00Z"
  },
  {
    "train_number": "5259  ",
    "unit_number": "4024.0088",
    "name": "Innsbruck Hbf  (in I)",
    "abbr": "I   ",
    "lat": "47.2634",
    "lng": "11.4017",
    "arrival": "2023-10-23T12:41:00Z",
    "departure": "2023-10-23T12:50:00Z"
  },
  {
    "train_number": "5256  ",
    "unit_number": "4024.0088",
    "name": "Innsbruck Hbf  (in I)",
    "abbr": "I   ",
    "lat": "47.2634",
    "lng": "11.4017",
    "arrival": "2023-10-23T11:13:00Z",
    "departure": "2023-10-23T11:19:00Z"
  },
  {
    "train_number": "5255  ",
    "unit_number": "4024.0088",
    "name": "Hall in Tirol",
    "abbr": "H   ",
    "lat": "47.2769",
    "lng": "11.5013",
    "arrival": "2023-10-23T10:59:00Z",
    "departure": "2023-10-23T11:04:00Z"
  },
  {
    "train_number": "5255  ",
    "unit_number": "4024.0088",
    "name": "Innsbruck Hbf  (in I)",
    "abbr": "I   ",
    "lat": "47.2634",
    "lng": "11.4017",
    "arrival": "2023-10-23T10:41:00Z",
    "departure": "2023-10-23T10:50:00Z"
  },
  {
    "train_number": "5252  ",
    "unit_number": "4024.0088",
    "name": "Innsbruck Hbf  (in I)",
    "abbr": "I   ",
    "lat": "47.2634",
    "lng": "11.4017",
    "arrival": "2023-10-23T09:13:00Z",
    "departure": "2023-10-23T09:19:00Z"
  },
  {
    "train_number": "5251  ",
    "unit_number": "4024.0088",
    "name": "Hall in Tirol",
    "abbr": "H   ",
    "lat": "47.2769",
    "lng": "11.5013",
    "arrival": "2023-10-23T08:59:00Z",
    "departure": "2023-10-23T09:04:00Z"
  },
  {
    "train_number": "5251  ",
    "unit_number": "4024.0088",
    "name": "Innsbruck Hbf  (in I)",
    "abbr": "I   ",
    "lat": "47.2634",
    "lng": "11.4017",
    "arrival": "2023-10-23T08:41:00Z",
    "departure": "2023-10-23T08:50:00Z"
  },
  {
    "train_number": "5248  ",
    "unit_number": "4024.0088",
    "name": "Innsbruck Hbf  (in I)",
    "abbr": "I   ",
    "lat": "47.2634",
    "lng": "11.4017",
    "arrival": "2023-10-23T07:09:00Z",
    "departure": "2023-10-23T07:19:00Z"
  },
  {
    "train_number": "5247  ",
    "unit_number": "4024.0088",
    "name": "Hall in Tirol",
    "abbr": "H   ",
    "lat": "47.2769",
    "lng": "11.5013",
    "arrival": "2023-10-23T06:55:00Z",
    "departure": "2023-10-23T07:00:00Z"
  },
  {
    "train_number": "5247  ",
    "unit_number": "4024.0088",
    "name": "Innsbruck Hbf  (in I)",
    "abbr": "I   ",
    "lat": "47.2634",
    "lng": "11.4017",
    "arrival": "2023-10-23T06:41:00Z",
    "departure": "2023-10-23T06:46:00Z"
  },
  {
    "train_number": "5244  ",
    "unit_number": "4024.0088",
    "name": "Innsbruck Hbf  (in I)",
    "abbr": "I   ",
    "lat": "47.2634",
    "lng": "11.4017",
    "arrival": "2023-10-23T05:13:00Z",
    "departure": "2023-10-23T05:19:00Z"
  },
  {
    "train_number": "5244  ",
    "unit_number": "4024.0088",
    "name": "Hall in Tirol",
    "abbr": "H   ",
    "lat": "47.2769",
    "lng": "11.5013",
    "arrival": "2023-10-23T05:02:00Z",
    "departure": "2023-10-23T05:02:00Z"
  },
  {
    "train_number": "5244  ",
    "unit_number": "4024.0088",
    "name": "Schwaz",
    "abbr": "Sw  ",
    "lat": "47.3497",
    "lng": "11.7016",
    "arrival": "2023-10-23T04:46:00Z",
    "departure": "2023-10-23T04:46:00Z"
  },
  {
    "train_number": "5244  ",
    "unit_number": "4024.0088",
    "name": "Jenbach",
    "abbr": "Jb  ",
    "lat": "47.3884",
    "lng": "11.7783",
    "arrival": "2023-10-23T04:38:00Z",
    "departure": "2023-10-23T04:39:00Z"
  },
  {
    "train_number": "5244  ",
    "unit_number": "4024.0088",
    "name": "Wörgl Hbf-T. N. (in W)",
    "abbr": "Wtn ",
    "lat": "47.4824",
    "lng": "12.033",
    "arrival": null,
    "departure": "2023-10-23T04:18:00Z"
  },
  {
    "train_number": "5244  ",
    "unit_number": "4024.0088",
    "name": "Wörgl Hbf (in W)",
    "abbr": "W   ",
    "lat": "47.4912",
    "lng": "12.0603",
    "arrival": "2023-10-23T04:15:00Z",
    "departure": "2023-10-23T04:17:00Z"
  },
  {
    "train_number": "5244  ",
    "unit_number": "4024.0088",
    "name": "Kitzbühel",
    "abbr": "Kzb ",
    "lat": "47.4542",
    "lng": "12.391",
    "arrival": "2023-10-23T03:35:00Z",
    "departure": "2023-10-23T03:36:00Z"
  }
]
