[
  {
    "train_number": "3034  ",
    "unit_number": "4024.0014",
    "name": "Attnang-Puchheim",
    "abbr": "At  ",
    "lat": "48.0112",
    "lng": "13.7193",
    "arrival": "2023-10-04T20:50:00Z",
    "departure": "2023-10-05T04:10:00Z"
  },
  {
    "train_number": "3034  ",
    "unit_number": "4024.0014",
    "name": "Wels Hbf",
    "abbr": "We  ",
    "lat": "48.1662",
    "lng": "14.0273",
    "arrival": "2023-10-04T20:22:00Z",
    "departure": "2023-10-04T20:23:00Z"
  },
  {
    "train_number": "3982  ",
    "unit_number": "4024.0014",
    "name": "Linz Hbf",
    "abbr": "Lz  ",
    "lat": "48.2908",
    "lng": "14.2927",
    "arrival": "2023-10-04T19:24:00Z",
    "departure": "2023-10-04T20:00:00Z"
  },
  {
    "train_number": "3973  ",
    "unit_number": "4024.0014",
    "name": "Kirchdorf a.d.Krems",
    "abbr": "Kik ",
    "lat": "47.9051",
    "lng": "14.1167",
    "arrival": "2023-10-04T17:33:00Z",
    "departure": "2023-10-04T18:25:00Z"
  },
  {
    "train_number": "3672  ",
    "unit_number": "4024.0014",
    "name": "Linz Hbf",
    "abbr": "Lz  ",
    "lat": "48.2908",
    "lng": "14.2927",
    "arrival": "2023-10-04T16:04:00Z",
    "departure": "2023-10-04T16:36:00Z"
  },
  {
    "train_number": "3672  ",
    "unit_number": "4024.0014",
    "name": "Enns",
    "abbr": "Ens ",
    "lat": "48.2212",
    "lng": "14.4668",
    "arrival": "2023-10-04T15:47:00Z",
    "departure": "2023-10-04T15:48:00Z"
  },
  {
    "train_number": "3672  ",
    "unit_number": "4024.0014",
    "name": "St.Valentin (in Sv)",
    "abbr": "Sv  ",
    "lat": "48.1784",
    "lng": "14.5219",
    "arrival": "2023-10-04T15:37:00Z",
    "departure": "2023-10-04T15:41:00Z"
  },
  {
    "train_number": "3663  ",
    "unit_number": "4024.0014",
    "name": "St.Valentin (in Sv)",
    "abbr": "Sv  ",
    "lat": "48.1784",
    "lng": "14.5219",
    "arrival": "2023-10-04T14:17:00Z",
    "departure": "2023-10-04T14:21:00Z"
  },
  {
    "train_number": "3663  ",
    "unit_number": "4024.0014",
    "name": "Enns",
    "abbr": "Ens ",
    "lat": "48.2212",
    "lng": "14.4668",
    "arrival": "2023-10-04T14:10:00Z",
    "departure": "2023-10-04T14:11:00Z"
  },
  {
    "train_number": "3938  ",
    "unit_number": "4024.0014",
    "name": "Linz Hbf",
    "abbr": "Lz  ",
    "lat": "48.2908",
    "lng": "14.2927",
    "arrival": "2023-10-04T07:24:00Z",
    "departure": "2023-10-04T13:53:00Z"
  },
  {
    "train_number": "3929  ",
    "unit_number": "4024.0014",
    "name": "Kirchdorf a.d.Krems",
    "abbr": "Kik ",
    "lat": "47.9051",
    "lng": "14.1167",
    "arrival": "2023-10-04T05:33:00Z",
    "departure": "2023-10-04T06:25:00Z"
  },
  {
    "train_number": "3600  ",
    "unit_number": "4024.0014",
    "name": "Linz Hbf",
    "abbr": "Lz  ",
    "lat": "48.2908",
    "lng": "14.2927",
    "arrival": "2023-10-04T04:17:00Z",
    "departure": "2023-10-04T04:36:00Z"
  },
  {
    "train_number": "3600  ",
    "unit_number": "4024.0014",
    "name": "Enns",
    "abbr": "Ens ",
    "lat": "48.2212",
    "lng": "14.4668",
    "arrival": "2023-10-04T04:01:00Z",
    "departure": "2023-10-04T04:02:00Z"
  },
  {
    "train_number": "3600  ",
    "unit_number": "4024.0014",
    "name": "St.Valentin (in Sv)",
    "abbr": "Sv  ",
    "lat": "48.1784",
    "lng": "14.5219",
    "arrival": "2023-10-04T03:55:00Z",
    "departure": "2023-10-04T03:56:00Z"
  }
]
