[
  {
    "train_number": "25715 ",
    "unit_number": "4024.0120",
    "name": "Salzburg Liefering (in Sb)",
    "abbr": "Lfg ",
    "lat": "47.8229",
    "lng": "13.0021",
    "arrival": "2023-10-31T11:09:00Z",
    "departure": "2023-10-31T11:10:00Z"
  },
  {
    "train_number": "79426 ",
    "unit_number": "4024.0120",
    "name": "Freilassing",
    "abbr": "MFL ",
    "lat": "47.8368",
    "lng": "12.9764",
    "arrival": "2023-10-31T10:56:00Z",
    "departure": "2023-10-31T11:07:00Z"
  },
  {
    "train_number": "79423 ",
    "unit_number": "4024.0120",
    "name": "Bad Reichenhall",
    "abbr": "MBRL",
    "lat": "47.7316",
    "lng": "12.881",
    "arrival": "2023-10-31T10:19:00Z",
    "departure": "2023-10-31T10:37:00Z"
  },
  {
    "train_number": "25712 ",
    "unit_number": "4024.0120",
    "name": "Freilassing",
    "abbr": "MFL ",
    "lat": "47.8368",
    "lng": "12.9764",
    "arrival": "2023-10-31T09:54:00Z",
    "departure": "2023-10-31T09:58:00Z"
  },
  {
    "train_number": "25712 ",
    "unit_number": "4024.0120",
    "name": "Salzburg Liefering (in Sb)",
    "abbr": "Lfg ",
    "lat": "47.8229",
    "lng": "13.0021",
    "arrival": "2023-10-31T09:50:00Z",
    "departure": "2023-10-31T09:50:00Z"
  },
  {
    "train_number": "25712 ",
    "unit_number": "4024.0120",
    "name": "Salzburg Hbf (in Sb)",
    "abbr": "Sb  ",
    "lat": "47.8135",
    "lng": "13.0466",
    "arrival": "2023-10-31T09:40:00Z",
    "departure": "2023-10-31T09:42:00Z"
  },
  {
    "train_number": "25712 ",
    "unit_number": "4024.0120",
    "name": "Salzburg Gnigl-Einfgr. (in Sb)",
    "abbr": "Sre ",
    "lat": "47.8075",
    "lng": "13.0687",
    "arrival": null,
    "departure": "2023-10-31T09:33:00Z"
  },
  {
    "train_number": "25712 ",
    "unit_number": "4024.0120",
    "name": "Bischofshofen (in Bo)",
    "abbr": "Bo  ",
    "lat": "47.42",
    "lng": "13.2199",
    "arrival": "2023-10-31T08:38:00Z",
    "departure": "2023-10-31T08:40:00Z"
  },
  {
    "train_number": "25712 ",
    "unit_number": "4024.0120",
    "name": "Schwarzach-St.Veit",
    "abbr": "Swa ",
    "lat": "47.3186",
    "lng": "13.1561",
    "arrival": "2023-10-31T08:22:00Z",
    "departure": "2023-10-31T08:24:00Z"
  },
  {
    "train_number": "25703 ",
    "unit_number": "4024.0120",
    "name": "Schwarzach-St.Veit",
    "abbr": "Swa ",
    "lat": "47.3186",
    "lng": "13.1561",
    "arrival": "2023-10-31T06:39:00Z",
    "departure": "2023-10-31T06:41:00Z"
  },
  {
    "train_number": "25703 ",
    "unit_number": "4024.0120",
    "name": "Bischofshofen (in Bo)",
    "abbr": "Bo  ",
    "lat": "47.42",
    "lng": "13.2199",
    "arrival": "2023-10-31T06:22:00Z",
    "departure": "2023-10-31T06:24:00Z"
  },
  {
    "train_number": "25703 ",
    "unit_number": "4024.0120",
    "name": "Salzburg Gnigl-Einfgr. (in Sb)",
    "abbr": "Sre ",
    "lat": "47.8075",
    "lng": "13.0687",
    "arrival": null,
    "departure": "2023-10-31T05:27:00Z"
  },
  {
    "train_number": "25703 ",
    "unit_number": "4024.0120",
    "name": "Salzburg Hbf (in Sb)",
    "abbr": "Sb  ",
    "lat": "47.8135",
    "lng": "13.0466",
    "arrival": "2023-10-31T05:17:00Z",
    "departure": "2023-10-31T05:21:00Z"
  },
  {
    "train_number": "25703 ",
    "unit_number": "4024.0120",
    "name": "Salzburg Liefering (in Sb)",
    "abbr": "Lfg ",
    "lat": "47.8229",
    "lng": "13.0021",
    "arrival": "2023-10-31T05:09:00Z",
    "departure": "2023-10-31T05:10:00Z"
  },
  {
    "train_number": "25702 ",
    "unit_number": "4024.0120",
    "name": "Freilassing",
    "abbr": "MFL ",
    "lat": "47.8368",
    "lng": "12.9764",
    "arrival": "2023-10-31T04:53:00Z",
    "departure": "2023-10-31T05:07:00Z"
  },
  {
    "train_number": "25702 ",
    "unit_number": "4024.0120",
    "name": "Salzburg Liefering (in Sb)",
    "abbr": "Lfg ",
    "lat": "47.8229",
    "lng": "13.0021",
    "arrival": "2023-10-31T04:50:00Z",
    "departure": "2023-10-31T04:50:00Z"
  },
  {
    "train_number": "25702 ",
    "unit_number": "4024.0120",
    "name": "Salzburg Hbf (in Sb)",
    "abbr": "Sb  ",
    "lat": "47.8135",
    "lng": "13.0466",
    "arrival": "2023-10-31T04:40:00Z",
    "departure": "2023-10-31T04:42:00Z"
  },
  {
    "train_number": "25702 ",
    "unit_number": "4024.0120",
    "name": "Salzburg Gnigl-Einfgr. (in Sb)",
    "abbr": "Sre ",
    "lat": "47.8075",
    "lng": "13.0687",
    "arrival": null,
    "departure": "2023-10-31T04:33:00Z"
  },
  {
    "train_number": "25702 ",
    "unit_number": "4024.0120",
    "name": "Bischofshofen (in Bo)",
    "abbr": "Bo  ",
    "lat": "47.42",
    "lng": "13.2199",
    "arrival": "2023-10-31T03:38:00Z",
    "departure": "2023-10-31T03:40:00Z"
  },
  {
    "train_number": "25737 ",
    "unit_number": "4024.0120",
    "name": "Schwarzach-St.Veit",
    "abbr": "Swa ",
    "lat": "47.3186",
    "lng": "13.1561",
    "arrival": "2023-10-30T23:39:00Z",
    "departure": "2023-10-31T03:24:00Z"
  }
]
