[
  {
    "train_number": "5026  ",
    "unit_number": "4024.0088",
    "name": "Kitzbühel",
    "abbr": "Kzb ",
    "lat": "47.4542",
    "lng": "12.391",
    "arrival": "2023-10-12T11:00:00Z",
    "departure": "2023-10-12T11:01:00Z"
  },
  {
    "train_number": "5025  ",
    "unit_number": "4024.0088",
    "name": "Kitzbühel",
    "abbr": "Kzb ",
    "lat": "47.4542",
    "lng": "12.391",
    "arrival": "2023-10-12T10:01:00Z",
    "departure": "2023-10-12T10:02:00Z"
  },
  {
    "train_number": "5309  ",
    "unit_number": "4024.0088",
    "name": "Wörgl Hbf (in W)",
    "abbr": "W   ",
    "lat": "47.4912",
    "lng": "12.0603",
    "arrival": "2023-10-12T09:07:00Z",
    "departure": "2023-10-12T09:22:00Z"
  },
  {
    "train_number": "5309  ",
    "unit_number": "4024.0088",
    "name": "Wörgl Hbf-T. N. (in W)",
    "abbr": "Wtn ",
    "lat": "47.4824",
    "lng": "12.033",
    "arrival": null,
    "departure": "2023-10-12T09:04:00Z"
  },
  {
    "train_number": "5309  ",
    "unit_number": "4024.0088",
    "name": "Jenbach",
    "abbr": "Jb  ",
    "lat": "47.3884",
    "lng": "11.7783",
    "arrival": "2023-10-12T08:47:00Z",
    "departure": "2023-10-12T08:48:00Z"
  },
  {
    "train_number": "5309  ",
    "unit_number": "4024.0088",
    "name": "Schwaz",
    "abbr": "Sw  ",
    "lat": "47.3497",
    "lng": "11.7016",
    "arrival": "2023-10-12T08:41:00Z",
    "departure": "2023-10-12T08:42:00Z"
  },
  {
    "train_number": "5309  ",
    "unit_number": "4024.0088",
    "name": "Hall in Tirol",
    "abbr": "H   ",
    "lat": "47.2769",
    "lng": "11.5013",
    "arrival": "2023-10-12T08:30:00Z",
    "departure": "2023-10-12T08:31:00Z"
  },
  {
    "train_number": "5309  ",
    "unit_number": "4024.0088",
    "name": "Innsbruck Hbf  (in I)",
    "abbr": "I   ",
    "lat": "47.2634",
    "lng": "11.4017",
    "arrival": "2023-10-12T08:13:00Z",
    "departure": "2023-10-12T08:21:00Z"
  },
  {
    "train_number": "5246  ",
    "unit_number": "4024.0088",
    "name": "Brennero/Brenner",
    "abbr": "Be  ",
    "lat": "47.0022",
    "lng": "11.5053",
    "arrival": "2023-10-12T06:58:00Z",
    "departure": "2023-10-12T07:33:00Z"
  },
  {
    "train_number": "5246  ",
    "unit_number": "4024.0088",
    "name": "Innsbruck Hbf  (in I)",
    "abbr": "I   ",
    "lat": "47.2634",
    "lng": "11.4017",
    "arrival": "2023-10-12T06:15:00Z",
    "departure": "2023-10-12T06:19:00Z"
  },
  {
    "train_number": "5245  ",
    "unit_number": "4024.0088",
    "name": "Hall in Tirol",
    "abbr": "H   ",
    "lat": "47.2769",
    "lng": "11.5013",
    "arrival": "2023-10-12T05:59:00Z",
    "departure": "2023-10-12T06:06:00Z"
  },
  {
    "train_number": "5245  ",
    "unit_number": "4024.0088",
    "name": "Innsbruck Hbf  (in I)",
    "abbr": "I   ",
    "lat": "47.2634",
    "lng": "11.4017",
    "arrival": "2023-10-12T05:42:00Z",
    "departure": "2023-10-12T05:50:00Z"
  },
  {
    "train_number": "5202  ",
    "unit_number": "4024.0088",
    "name": "Brennero/Brenner",
    "abbr": "Be  ",
    "lat": "47.0022",
    "lng": "11.5053",
    "arrival": "2023-10-12T04:58:00Z",
    "departure": "2023-10-12T05:03:00Z"
  },
  {
    "train_number": "5340  ",
    "unit_number": "4024.0088",
    "name": "Innsbruck Hbf  (in I)",
    "abbr": "I   ",
    "lat": "47.2634",
    "lng": "11.4017",
    "arrival": "2023-10-12T04:07:00Z",
    "departure": "2023-10-12T04:19:00Z"
  },
  {
    "train_number": "5340  ",
    "unit_number": "4024.0088",
    "name": "Hall in Tirol",
    "abbr": "H   ",
    "lat": "47.2769",
    "lng": "11.5013",
    "arrival": "2023-10-12T03:56:00Z",
    "departure": "2023-10-12T03:57:00Z"
  },
  {
    "train_number": "5340  ",
    "unit_number": "4024.0088",
    "name": "Schwaz",
    "abbr": "Sw  ",
    "lat": "47.3497",
    "lng": "11.7016",
    "arrival": "2023-10-12T03:43:00Z",
    "departure": "2023-10-12T03:44:00Z"
  },
  {
    "train_number": "5340  ",
    "unit_number": "4024.0088",
    "name": "Jenbach",
    "abbr": "Jb  ",
    "lat": "47.3884",
    "lng": "11.7783",
    "arrival": "2023-10-12T03:38:00Z",
    "departure": "2023-10-12T03:39:00Z"
  },
  {
    "train_number": "5340  ",
    "unit_number": "4024.0088",
    "name": "Wörgl Hbf-T. N. (in W)",
    "abbr": "Wtn ",
    "lat": "47.4824",
    "lng": "12.033",
    "arrival": null,
    "departure": "2023-10-12T03:21:00Z"
  },
  {
    "train_number": "5340  ",
    "unit_number": "4024.0088",
    "name": "Wörgl Hbf (in W)",
    "abbr": "W   ",
    "lat": "47.4912",
    "lng": "12.0603",
    "arrival": "2023-10-12T03:18:00Z",
    "departure": "2023-10-12T03:19:00Z"
  },
  {
    "train_number": "5340  ",
    "unit_number": "4024.0088",
    "name": "Kitzbühel",
    "abbr": "Kzb ",
    "lat": "47.4542",
    "lng": "12.391",
    "arrival": "2023-10-12T02:41:00Z",
    "departure": "2023-10-12T02:42:00Z"
  }
]
