[
  {
    "train_number": "95897 ",
    "unit_number": "4024.0088",
    "name": "Schwaz",
    "abbr": "Sw  ",
    "lat": "47.3497",
    "lng": "11.7016",
    "arrival": null,
    "departure": "2023-08-25T23:03:00Z"
  },
  {
    "train_number": "95897 ",
    "unit_number": "4024.0088",
    "name": "Jenbach",
    "abbr": "Jb  ",
    "lat": "47.3884",
    "lng": "11.7783",
    "arrival": null,
    "departure": "2023-08-25T22:57:00Z"
  },
  {
    "train_number": "95897 ",
    "unit_number": "4024.0088",
    "name": "Wörgl Hbf-T. N. (in W)",
    "abbr": "Wtn ",
    "lat": "47.4824",
    "lng": "12.033",
    "arrival": null,
    "departure": "2023-08-25T22:39:00Z"
  },
  {
    "train_number": "95897 ",
    "unit_number": "4024.0088",
    "name": "Wörgl Hbf (in W)",
    "abbr": "W   ",
    "lat": "47.4912",
    "lng": "12.0603",
    "arrival": null,
    "departure": "2023-08-25T22:37:00Z"
  },
  {
    "train_number": "95897 ",
    "unit_number": "4024.0088",
    "name": "Kitzbühel",
    "abbr": "Kzb ",
    "lat": "47.4542",
    "lng": "12.391",
    "arrival": null,
    "departure": "2023-08-25T22:07:00Z"
  },
  {
    "train_number": "95897 ",
    "unit_number": "4024.0088",
    "name": "Schwarzach-St.Veit",
    "abbr": "Swa ",
    "lat": "47.3186",
    "lng": "13.1561",
    "arrival": null,
    "departure": "2023-08-25T20:52:00Z"
  },
  {
    "train_number": "95897 ",
    "unit_number": "4024.0088",
    "name": "Bischofshofen (in Bo)",
    "abbr": "Bo  ",
    "lat": "47.42",
    "lng": "13.2199",
    "arrival": null,
    "departure": "2023-08-25T20:41:00Z"
  },
  {
    "train_number": "95896 ",
    "unit_number": "4024.0088",
    "name": "Salzburg Gnigl-Vbf (in Sb)",
    "abbr": "Sr  ",
    "lat": "47.8075",
    "lng": "13.0021",
    "arrival": "2023-08-25T08:19:00Z",
    "departure": "2023-08-25T20:00:00Z"
  },
  {
    "train_number": "95897 ",
    "unit_number": "4024.0088",
    "name": "Salzburg Gnigl-Einfgr. (in Sb)",
    "abbr": "Sre ",
    "lat": "47.8075",
    "lng": "13.0687",
    "arrival": null,
    "departure": "2023-08-25T20:00:00Z"
  },
  {
    "train_number": "95896 ",
    "unit_number": "4024.0088",
    "name": "Salzburg Gnigl-Einfgr. (in Sb)",
    "abbr": "Sre ",
    "lat": "47.8075",
    "lng": "13.0687",
    "arrival": null,
    "departure": "2023-08-25T08:18:00Z"
  },
  {
    "train_number": "95896 ",
    "unit_number": "4024.0088",
    "name": "Bischofshofen (in Bo)",
    "abbr": "Bo  ",
    "lat": "47.42",
    "lng": "13.2199",
    "arrival": null,
    "departure": "2023-08-25T07:39:00Z"
  },
  {
    "train_number": "95896 ",
    "unit_number": "4024.0088",
    "name": "Schwarzach-St.Veit",
    "abbr": "Swa ",
    "lat": "47.3186",
    "lng": "13.1561",
    "arrival": null,
    "departure": "2023-08-25T07:27:00Z"
  },
  {
    "train_number": "95896 ",
    "unit_number": "4024.0088",
    "name": "Kitzbühel",
    "abbr": "Kzb ",
    "lat": "47.4542",
    "lng": "12.391",
    "arrival": null,
    "departure": "2023-08-25T06:15:00Z"
  },
  {
    "train_number": "95896 ",
    "unit_number": "4024.0088",
    "name": "Wörgl Hbf (in W)",
    "abbr": "W   ",
    "lat": "47.4912",
    "lng": "12.0603",
    "arrival": null,
    "departure": "2023-08-25T05:47:00Z"
  },
  {
    "train_number": "95896 ",
    "unit_number": "4024.0088",
    "name": "Wörgl Hbf-T. N. (in W)",
    "abbr": "Wtn ",
    "lat": "47.4824",
    "lng": "12.033",
    "arrival": null,
    "departure": "2023-08-25T05:45:00Z"
  },
  {
    "train_number": "95896 ",
    "unit_number": "4024.0088",
    "name": "Jenbach",
    "abbr": "Jb  ",
    "lat": "47.3884",
    "lng": "11.7783",
    "arrival": null,
    "departure": "2023-08-25T05:27:00Z"
  },
  {
    "train_number": "95896 ",
    "unit_number": "4024.0088",
    "name": "Schwaz",
    "abbr": "Sw  ",
    "lat": "47.3497",
    "lng": "11.7016",
    "arrival": null,
    "departure": "2023-08-25T05:21:00Z"
  },
  {
    "train_number": "95896 ",
    "unit_number": "4024.0088",
    "name": "Hall in Tirol",
    "abbr": "H   ",
    "lat": "47.2769",
    "lng": "11.5013",
    "arrival": null,
    "departure": "2023-08-25T05:06:00Z"
  },
  {
    "train_number": "5401  ",
    "unit_number": "4024.0088",
    "name": "Innsbruck Hbf  (in I)",
    "abbr": "I   ",
    "lat": "47.2634",
    "lng": "11.4017",
    "arrival": "2023-08-25T05:23:00Z",
    "departure": "2023-08-25T05:00:00Z"
  },
  {
    "train_number": "5469  ",
    "unit_number": "4024.0088",
    "name": "Innsbruck Hbf  (in I)",
    "abbr": "I   ",
    "lat": "47.2634",
    "lng": "11.4017",
    "arrival": "2023-08-24T20:23:00Z",
    "departure": "2023-08-25T03:42:00Z"
  }
]
