[
  {
    "train_number": "5920  ",
    "unit_number": "4024.0014",
    "name": "Passau Hbf",
    "abbr": "Pa  ",
    "lat": "48.5729",
    "lng": "13.4342",
    "arrival": "2023-08-20T20:22:00Z",
    "departure": "2023-08-21T03:39:00Z"
  },
  {
    "train_number": "5920  ",
    "unit_number": "4024.0014",
    "name": "Sch채rding (in Sch)",
    "abbr": "Sch ",
    "lat": "48.4638",
    "lng": "13.4424",
    "arrival": "2023-08-20T20:08:00Z",
    "departure": "2023-08-20T20:09:00Z"
  },
  {
    "train_number": "5920  ",
    "unit_number": "4024.0014",
    "name": "Neumarkt-Kallham (in Neu)",
    "abbr": "Neu ",
    "lat": "48.2714",
    "lng": "13.7245",
    "arrival": "2023-08-20T19:35:00Z",
    "departure": "2023-08-20T19:36:00Z"
  },
  {
    "train_number": "5920  ",
    "unit_number": "4024.0014",
    "name": "Wels Hbf",
    "abbr": "We  ",
    "lat": "48.1662",
    "lng": "14.0273",
    "arrival": "2023-08-20T19:07:00Z",
    "departure": "2023-08-20T19:09:00Z"
  },
  {
    "train_number": "5927  ",
    "unit_number": "4024.0014",
    "name": "Linz Hbf",
    "abbr": "Lz  ",
    "lat": "48.2908",
    "lng": "14.2927",
    "arrival": "2023-08-20T18:10:00Z",
    "departure": "2023-08-20T18:50:00Z"
  },
  {
    "train_number": "5927  ",
    "unit_number": "4024.0014",
    "name": "Wels Hbf",
    "abbr": "We  ",
    "lat": "48.1662",
    "lng": "14.0273",
    "arrival": "2023-08-20T17:51:00Z",
    "departure": "2023-08-20T17:53:00Z"
  },
  {
    "train_number": "5927  ",
    "unit_number": "4024.0014",
    "name": "Neumarkt-Kallham (in Neu)",
    "abbr": "Neu ",
    "lat": "48.2714",
    "lng": "13.7245",
    "arrival": "2023-08-20T17:23:00Z",
    "departure": "2023-08-20T17:24:00Z"
  },
  {
    "train_number": "5927  ",
    "unit_number": "4024.0014",
    "name": "Sch채rding (in Sch)",
    "abbr": "Sch ",
    "lat": "48.4638",
    "lng": "13.4424",
    "arrival": "2023-08-20T16:51:00Z",
    "departure": "2023-08-20T16:52:00Z"
  },
  {
    "train_number": "5912  ",
    "unit_number": "4024.0014",
    "name": "Passau Hbf",
    "abbr": "Pa  ",
    "lat": "48.5729",
    "lng": "13.4342",
    "arrival": "2023-08-20T16:22:00Z",
    "departure": "2023-08-20T16:40:00Z"
  },
  {
    "train_number": "5912  ",
    "unit_number": "4024.0014",
    "name": "Sch채rding (in Sch)",
    "abbr": "Sch ",
    "lat": "48.4638",
    "lng": "13.4424",
    "arrival": "2023-08-20T16:08:00Z",
    "departure": "2023-08-20T16:09:00Z"
  },
  {
    "train_number": "5912  ",
    "unit_number": "4024.0014",
    "name": "Neumarkt-Kallham (in Neu)",
    "abbr": "Neu ",
    "lat": "48.2714",
    "lng": "13.7245",
    "arrival": "2023-08-20T15:35:00Z",
    "departure": "2023-08-20T15:36:00Z"
  },
  {
    "train_number": "5912  ",
    "unit_number": "4024.0014",
    "name": "Wels Hbf",
    "abbr": "We  ",
    "lat": "48.1662",
    "lng": "14.0273",
    "arrival": "2023-08-20T15:07:00Z",
    "departure": "2023-08-20T15:09:00Z"
  },
  {
    "train_number": "5909  ",
    "unit_number": "4024.0014",
    "name": "Linz Hbf",
    "abbr": "Lz  ",
    "lat": "48.2908",
    "lng": "14.2927",
    "arrival": "2023-08-20T06:24:00Z",
    "departure": "2023-08-20T14:50:00Z"
  },
  {
    "train_number": "5909  ",
    "unit_number": "4024.0014",
    "name": "Wels Hbf",
    "abbr": "We  ",
    "lat": "48.1662",
    "lng": "14.0273",
    "arrival": "2023-08-20T06:04:00Z",
    "departure": "2023-08-20T06:06:00Z"
  },
  {
    "train_number": "5909  ",
    "unit_number": "4024.0014",
    "name": "Neumarkt-Kallham (in Neu)",
    "abbr": "Neu ",
    "lat": "48.2714",
    "lng": "13.7245",
    "arrival": "2023-08-20T05:34:00Z",
    "departure": "2023-08-20T05:36:00Z"
  },
  {
    "train_number": "5909  ",
    "unit_number": "4024.0014",
    "name": "Sch채rding (in Sch)",
    "abbr": "Sch ",
    "lat": "48.4638",
    "lng": "13.4424",
    "arrival": "2023-08-20T05:02:00Z",
    "departure": "2023-08-20T05:03:00Z"
  },
  {
    "train_number": "5918  ",
    "unit_number": "4024.0014",
    "name": "Passau Hbf",
    "abbr": "Pa  ",
    "lat": "48.5729",
    "lng": "13.4342",
    "arrival": "2023-08-19T19:22:00Z",
    "departure": "2023-08-20T04:50:00Z"
  }
]
