[
  {
    "train_number": "3977  ",
    "unit_number": "4024.0014",
    "name": "Kirchdorf a.d.Krems",
    "abbr": "Kik ",
    "lat": "47.9051",
    "lng": "14.1167",
    "arrival": "2023-09-17T19:33:00Z",
    "departure": "2023-09-18T02:55:00Z"
  },
  {
    "train_number": "4415  ",
    "unit_number": "4024.0014",
    "name": "Linz Hbf",
    "abbr": "Lz  ",
    "lat": "48.2908",
    "lng": "14.2927",
    "arrival": "2023-09-17T15:41:00Z",
    "departure": "2023-09-17T18:36:00Z"
  },
  {
    "train_number": "4415  ",
    "unit_number": "4024.0014",
    "name": "Wels Hbf",
    "abbr": "We  ",
    "lat": "48.1662",
    "lng": "14.0273",
    "arrival": "2023-09-17T15:24:00Z",
    "departure": "2023-09-17T15:25:00Z"
  },
  {
    "train_number": "4415  ",
    "unit_number": "4024.0014",
    "name": "Attnang-Puchheim",
    "abbr": "At  ",
    "lat": "48.0112",
    "lng": "13.7193",
    "arrival": "2023-09-17T14:52:00Z",
    "departure": "2023-09-17T14:53:00Z"
  },
  {
    "train_number": "4415  ",
    "unit_number": "4024.0014",
    "name": "Gmunden",
    "abbr": "Gz  ",
    "lat": "47.9254",
    "lng": "13.783",
    "arrival": "2023-09-17T14:35:00Z",
    "departure": "2023-09-17T14:36:00Z"
  },
  {
    "train_number": "3418  ",
    "unit_number": "4024.0014",
    "name": "Gmunden",
    "abbr": "Gz  ",
    "lat": "47.9254",
    "lng": "13.783",
    "arrival": "2023-09-17T11:23:00Z",
    "departure": "2023-09-17T11:24:00Z"
  },
  {
    "train_number": "3409  ",
    "unit_number": "4024.0014",
    "name": "Attnang-Puchheim",
    "abbr": "At  ",
    "lat": "48.0112",
    "lng": "13.7193",
    "arrival": "2023-09-17T06:52:00Z",
    "departure": "2023-09-17T11:08:00Z"
  },
  {
    "train_number": "3409  ",
    "unit_number": "4024.0014",
    "name": "Gmunden",
    "abbr": "Gz  ",
    "lat": "47.9254",
    "lng": "13.783",
    "arrival": "2023-09-17T06:22:00Z",
    "departure": "2023-09-17T06:36:00Z"
  }
]
