[
  {
    "train_number": "25796 ",
    "unit_number": "4024.0014",
    "name": "Freilassing",
    "abbr": "MFL ",
    "lat": "47.8368",
    "lng": "12.9764",
    "arrival": "2023-10-20T19:43:00Z",
    "departure": "2023-10-21T03:24:00Z"
  },
  {
    "train_number": "25796 ",
    "unit_number": "4024.0014",
    "name": "Salzburg Liefering (in Sb)",
    "abbr": "Lfg ",
    "lat": "47.8229",
    "lng": "13.0021",
    "arrival": "2023-10-20T19:40:00Z",
    "departure": "2023-10-20T19:40:00Z"
  },
  {
    "train_number": "5080  ",
    "unit_number": "4024.0014",
    "name": "Salzburg Hbf (in Sb)",
    "abbr": "Sb  ",
    "lat": "47.8135",
    "lng": "13.0466",
    "arrival": "2023-10-20T18:26:00Z",
    "departure": "2023-10-20T19:32:00Z"
  },
  {
    "train_number": "5080  ",
    "unit_number": "4024.0014",
    "name": "Steindorf b.Straßw. (in Nst)",
    "abbr": "Nst ",
    "lat": "47.9676",
    "lng": "13.2406",
    "arrival": null,
    "departure": "2023-10-20T17:59:00Z"
  },
  {
    "train_number": "5080  ",
    "unit_number": "4024.0014",
    "name": "Attnang-Puchheim",
    "abbr": "At  ",
    "lat": "48.0112",
    "lng": "13.7193",
    "arrival": "2023-10-20T16:50:00Z",
    "departure": "2023-10-20T16:51:00Z"
  },
  {
    "train_number": "5080  ",
    "unit_number": "4024.0014",
    "name": "Wels Hbf",
    "abbr": "We  ",
    "lat": "48.1662",
    "lng": "14.0273",
    "arrival": "2023-10-20T16:22:00Z",
    "departure": "2023-10-20T16:23:00Z"
  },
  {
    "train_number": "3964  ",
    "unit_number": "4024.0014",
    "name": "Linz Hbf",
    "abbr": "Lz  ",
    "lat": "48.2908",
    "lng": "14.2927",
    "arrival": "2023-10-20T15:24:00Z",
    "departure": "2023-10-20T16:00:00Z"
  },
  {
    "train_number": "3959  ",
    "unit_number": "4024.0014",
    "name": "Kirchdorf a.d.Krems",
    "abbr": "Kik ",
    "lat": "47.9051",
    "lng": "14.1167",
    "arrival": "2023-10-20T14:03:00Z",
    "departure": "2023-10-20T14:25:00Z"
  },
  {
    "train_number": "3958  ",
    "unit_number": "4024.0014",
    "name": "Linz Hbf",
    "abbr": "Lz  ",
    "lat": "48.2908",
    "lng": "14.2927",
    "arrival": "2023-10-20T12:54:00Z",
    "departure": "2023-10-20T13:06:00Z"
  },
  {
    "train_number": "3949  ",
    "unit_number": "4024.0014",
    "name": "Kirchdorf a.d.Krems",
    "abbr": "Kik ",
    "lat": "47.9051",
    "lng": "14.1167",
    "arrival": "2023-10-20T11:33:00Z",
    "departure": "2023-10-20T11:55:00Z"
  },
  {
    "train_number": "3938  ",
    "unit_number": "4024.0014",
    "name": "Linz Hbf",
    "abbr": "Lz  ",
    "lat": "48.2908",
    "lng": "14.2927",
    "arrival": "2023-10-20T07:24:00Z",
    "departure": "2023-10-20T10:36:00Z"
  },
  {
    "train_number": "3929  ",
    "unit_number": "4024.0014",
    "name": "Kirchdorf a.d.Krems",
    "abbr": "Kik ",
    "lat": "47.9051",
    "lng": "14.1167",
    "arrival": "2023-10-20T05:33:00Z",
    "departure": "2023-10-20T06:25:00Z"
  },
  {
    "train_number": "5903  ",
    "unit_number": "4024.0014",
    "name": "Linz Hbf",
    "abbr": "Lz  ",
    "lat": "48.2908",
    "lng": "14.2927",
    "arrival": "2023-10-20T03:54:00Z",
    "departure": "2023-10-20T04:36:00Z"
  },
  {
    "train_number": "5903  ",
    "unit_number": "4024.0014",
    "name": "Wels Hbf",
    "abbr": "We  ",
    "lat": "48.1662",
    "lng": "14.0273",
    "arrival": "2023-10-20T03:29:00Z",
    "departure": "2023-10-20T03:31:00Z"
  },
  {
    "train_number": "5903  ",
    "unit_number": "4024.0014",
    "name": "Neumarkt-Kallham (in Neu)",
    "abbr": "Neu ",
    "lat": "48.2714",
    "lng": "13.7245",
    "arrival": "2023-10-20T03:03:00Z",
    "departure": "2023-10-20T03:04:00Z"
  },
  {
    "train_number": "5936  ",
    "unit_number": "4024.0014",
    "name": "Schärding (in Sch)",
    "abbr": "Sch ",
    "lat": "48.4638",
    "lng": "13.4424",
    "arrival": "2023-10-19T17:10:00Z",
    "departure": "2023-10-20T02:32:00Z"
  }
]
