[
  {
    "train_number": "5196  ",
    "unit_number": "4024.0088",
    "name": "Wörgl Hbf (in W)",
    "abbr": "W   ",
    "lat": "47.4912",
    "lng": "12.0603",
    "arrival": "2023-09-02T00:58:00Z",
    "departure": "2023-09-02T00:59:00Z"
  },
  {
    "train_number": "5191  ",
    "unit_number": "4024.0088",
    "name": "Kufstein",
    "abbr": "K   ",
    "lat": "47.5833",
    "lng": "12.1657",
    "arrival": "2023-09-02T00:18:00Z",
    "departure": "2023-09-02T00:45:00Z"
  },
  {
    "train_number": "5191  ",
    "unit_number": "4024.0088",
    "name": "Wörgl Hbf (in W)",
    "abbr": "W   ",
    "lat": "47.4912",
    "lng": "12.0603",
    "arrival": "2023-09-02T00:04:00Z",
    "departure": "2023-09-02T00:05:00Z"
  },
  {
    "train_number": "5191  ",
    "unit_number": "4024.0088",
    "name": "Wörgl Hbf-T. N. (in W)",
    "abbr": "Wtn ",
    "lat": "47.4824",
    "lng": "12.033",
    "arrival": null,
    "departure": "2023-09-02T00:01:00Z"
  },
  {
    "train_number": "5191  ",
    "unit_number": "4024.0088",
    "name": "Jenbach",
    "abbr": "Jb  ",
    "lat": "47.3884",
    "lng": "11.7783",
    "arrival": "2023-09-01T23:38:00Z",
    "departure": "2023-09-01T23:39:00Z"
  },
  {
    "train_number": "5191  ",
    "unit_number": "4024.0088",
    "name": "Schwaz",
    "abbr": "Sw  ",
    "lat": "47.3497",
    "lng": "11.7016",
    "arrival": "2023-09-01T23:31:00Z",
    "departure": "2023-09-01T23:32:00Z"
  },
  {
    "train_number": "5191  ",
    "unit_number": "4024.0088",
    "name": "Hall in Tirol",
    "abbr": "H   ",
    "lat": "47.2769",
    "lng": "11.5013",
    "arrival": "2023-09-01T23:15:00Z",
    "departure": "2023-09-01T23:16:00Z"
  },
  {
    "train_number": "5439  ",
    "unit_number": "4024.0088",
    "name": "Innsbruck Hbf  (in I)",
    "abbr": "I   ",
    "lat": "47.2634",
    "lng": "11.4017",
    "arrival": "2023-09-01T22:53:00Z",
    "departure": "2023-09-01T23:05:00Z"
  },
  {
    "train_number": "5425  ",
    "unit_number": "4024.0088",
    "name": "Innsbruck Hbf  (in I)",
    "abbr": "I   ",
    "lat": "47.2634",
    "lng": "11.4017",
    "arrival": "2023-09-01T20:53:00Z",
    "departure": "2023-09-01T21:08:00Z"
  },
  {
    "train_number": "5467  ",
    "unit_number": "4024.0088",
    "name": "Innsbruck Hbf  (in I)",
    "abbr": "I   ",
    "lat": "47.2634",
    "lng": "11.4017",
    "arrival": "2023-09-01T18:53:00Z",
    "departure": "2023-09-01T19:08:00Z"
  },
  {
    "train_number": "5463  ",
    "unit_number": "4024.0088",
    "name": "Innsbruck Hbf  (in I)",
    "abbr": "I   ",
    "lat": "47.2634",
    "lng": "11.4017",
    "arrival": "2023-09-01T16:53:00Z",
    "departure": "2023-09-01T17:08:00Z"
  },
  {
    "train_number": "5459  ",
    "unit_number": "4024.0088",
    "name": "Innsbruck Hbf  (in I)",
    "abbr": "I   ",
    "lat": "47.2634",
    "lng": "11.4017",
    "arrival": "2023-09-01T14:53:00Z",
    "departure": "2023-09-01T15:08:00Z"
  },
  {
    "train_number": "5455  ",
    "unit_number": "4024.0088",
    "name": "Innsbruck Hbf  (in I)",
    "abbr": "I   ",
    "lat": "47.2634",
    "lng": "11.4017",
    "arrival": "2023-09-01T12:53:00Z",
    "departure": "2023-09-01T13:08:00Z"
  },
  {
    "train_number": "5451  ",
    "unit_number": "4024.0088",
    "name": "Innsbruck Hbf  (in I)",
    "abbr": "I   ",
    "lat": "47.2634",
    "lng": "11.4017",
    "arrival": "2023-09-01T10:53:00Z",
    "departure": "2023-09-01T11:08:00Z"
  },
  {
    "train_number": "5447  ",
    "unit_number": "4024.0088",
    "name": "Innsbruck Hbf  (in I)",
    "abbr": "I   ",
    "lat": "47.2634",
    "lng": "11.4017",
    "arrival": "2023-09-01T08:53:00Z",
    "departure": "2023-09-01T09:08:00Z"
  },
  {
    "train_number": "5443  ",
    "unit_number": "4024.0088",
    "name": "Innsbruck Hbf  (in I)",
    "abbr": "I   ",
    "lat": "47.2634",
    "lng": "11.4017",
    "arrival": "2023-09-01T06:53:00Z",
    "departure": "2023-09-01T07:08:00Z"
  },
  {
    "train_number": "5182  ",
    "unit_number": "4024.0088",
    "name": "Innsbruck Hbf  (in I)",
    "abbr": "I   ",
    "lat": "47.2634",
    "lng": "11.4017",
    "arrival": "2023-09-01T05:01:00Z",
    "departure": "2023-09-01T05:08:00Z"
  },
  {
    "train_number": "5182  ",
    "unit_number": "4024.0088",
    "name": "Hall in Tirol",
    "abbr": "H   ",
    "lat": "47.2769",
    "lng": "11.5013",
    "arrival": "2023-09-01T04:50:00Z",
    "departure": "2023-09-01T04:50:00Z"
  },
  {
    "train_number": "5182  ",
    "unit_number": "4024.0088",
    "name": "Schwaz",
    "abbr": "Sw  ",
    "lat": "47.3497",
    "lng": "11.7016",
    "arrival": "2023-09-01T04:34:00Z",
    "departure": "2023-09-01T04:34:00Z"
  },
  {
    "train_number": "5173  ",
    "unit_number": "4024.0088",
    "name": "Jenbach",
    "abbr": "Jb  ",
    "lat": "47.3884",
    "lng": "11.7783",
    "arrival": "2023-08-31T19:38:00Z",
    "departure": "2023-09-01T04:27:00Z"
  }
]
