[
  {
    "train_number": "5256  ",
    "unit_number": "4024.0120",
    "name": "Hall in Tirol",
    "abbr": "H   ",
    "lat": "47.2769",
    "lng": "11.5013",
    "arrival": "2023-09-25T10:59:00Z",
    "departure": "2023-09-25T10:59:00Z"
  },
  {
    "train_number": "5256  ",
    "unit_number": "4024.0120",
    "name": "Schwaz",
    "abbr": "Sw  ",
    "lat": "47.3497",
    "lng": "11.7016",
    "arrival": "2023-09-25T10:43:00Z",
    "departure": "2023-09-25T10:43:00Z"
  },
  {
    "train_number": "5253  ",
    "unit_number": "4024.0120",
    "name": "Jenbach",
    "abbr": "Jb  ",
    "lat": "47.3884",
    "lng": "11.7783",
    "arrival": "2023-09-25T10:23:00Z",
    "departure": "2023-09-25T10:36:00Z"
  },
  {
    "train_number": "5253  ",
    "unit_number": "4024.0120",
    "name": "Schwaz",
    "abbr": "Sw  ",
    "lat": "47.3497",
    "lng": "11.7016",
    "arrival": "2023-09-25T10:16:00Z",
    "departure": "2023-09-25T10:17:00Z"
  },
  {
    "train_number": "5253  ",
    "unit_number": "4024.0120",
    "name": "Hall in Tirol",
    "abbr": "H   ",
    "lat": "47.2769",
    "lng": "11.5013",
    "arrival": "2023-09-25T10:00:00Z",
    "departure": "2023-09-25T10:01:00Z"
  },
  {
    "train_number": "5253  ",
    "unit_number": "4024.0120",
    "name": "Innsbruck Hbf  (in I)",
    "abbr": "I   ",
    "lat": "47.2634",
    "lng": "11.4017",
    "arrival": "2023-09-25T09:41:00Z",
    "departure": "2023-09-25T09:51:00Z"
  },
  {
    "train_number": "5250  ",
    "unit_number": "4024.0120",
    "name": "Innsbruck Hbf  (in I)",
    "abbr": "I   ",
    "lat": "47.2634",
    "lng": "11.4017",
    "arrival": "2023-09-25T08:09:00Z",
    "departure": "2023-09-25T08:19:00Z"
  },
  {
    "train_number": "5250  ",
    "unit_number": "4024.0120",
    "name": "Hall in Tirol",
    "abbr": "H   ",
    "lat": "47.2769",
    "lng": "11.5013",
    "arrival": "2023-09-25T07:59:00Z",
    "departure": "2023-09-25T07:59:00Z"
  },
  {
    "train_number": "5250  ",
    "unit_number": "4024.0120",
    "name": "Schwaz",
    "abbr": "Sw  ",
    "lat": "47.3497",
    "lng": "11.7016",
    "arrival": "2023-09-25T07:43:00Z",
    "departure": "2023-09-25T07:43:00Z"
  },
  {
    "train_number": "5247  ",
    "unit_number": "4024.0120",
    "name": "Jenbach",
    "abbr": "Jb  ",
    "lat": "47.3884",
    "lng": "11.7783",
    "arrival": "2023-09-25T07:23:00Z",
    "departure": "2023-09-25T07:36:00Z"
  },
  {
    "train_number": "5247  ",
    "unit_number": "4024.0120",
    "name": "Schwaz",
    "abbr": "Sw  ",
    "lat": "47.3497",
    "lng": "11.7016",
    "arrival": "2023-09-25T07:16:00Z",
    "departure": "2023-09-25T07:17:00Z"
  },
  {
    "train_number": "5247  ",
    "unit_number": "4024.0120",
    "name": "Hall in Tirol",
    "abbr": "H   ",
    "lat": "47.2769",
    "lng": "11.5013",
    "arrival": "2023-09-25T07:00:00Z",
    "departure": "2023-09-25T07:01:00Z"
  },
  {
    "train_number": "5247  ",
    "unit_number": "4024.0120",
    "name": "Innsbruck Hbf  (in I)",
    "abbr": "I   ",
    "lat": "47.2634",
    "lng": "11.4017",
    "arrival": "2023-09-25T06:41:00Z",
    "departure": "2023-09-25T06:51:00Z"
  },
  {
    "train_number": "5244  ",
    "unit_number": "4024.0120",
    "name": "Innsbruck Hbf  (in I)",
    "abbr": "I   ",
    "lat": "47.2634",
    "lng": "11.4017",
    "arrival": "2023-09-25T05:07:00Z",
    "departure": "2023-09-25T05:19:00Z"
  },
  {
    "train_number": "5244  ",
    "unit_number": "4024.0120",
    "name": "Hall in Tirol",
    "abbr": "H   ",
    "lat": "47.2769",
    "lng": "11.5013",
    "arrival": "2023-09-25T04:57:00Z",
    "departure": "2023-09-25T04:57:00Z"
  },
  {
    "train_number": "5244  ",
    "unit_number": "4024.0120",
    "name": "Schwaz",
    "abbr": "Sw  ",
    "lat": "47.3497",
    "lng": "11.7016",
    "arrival": "2023-09-25T04:41:00Z",
    "departure": "2023-09-25T04:41:00Z"
  },
  {
    "train_number": "5244  ",
    "unit_number": "4024.0120",
    "name": "Jenbach",
    "abbr": "Jb  ",
    "lat": "47.3884",
    "lng": "11.7783",
    "arrival": "2023-09-25T04:33:00Z",
    "departure": "2023-09-25T04:34:00Z"
  },
  {
    "train_number": "5244  ",
    "unit_number": "4024.0120",
    "name": "Wörgl Hbf-T. N. (in W)",
    "abbr": "Wtn ",
    "lat": "47.4824",
    "lng": "12.033",
    "arrival": null,
    "departure": "2023-09-25T04:13:00Z"
  },
  {
    "train_number": "5244  ",
    "unit_number": "4024.0120",
    "name": "Wörgl Hbf (in W)",
    "abbr": "W   ",
    "lat": "47.4912",
    "lng": "12.0603",
    "arrival": "2023-09-25T04:10:00Z",
    "departure": "2023-09-25T04:12:00Z"
  },
  {
    "train_number": "5244  ",
    "unit_number": "4024.0120",
    "name": "Kitzbühel",
    "abbr": "Kzb ",
    "lat": "47.4542",
    "lng": "12.391",
    "arrival": "2023-09-25T03:30:00Z",
    "departure": "2023-09-25T03:31:00Z"
  }
]
