[
  {
    "train_number": "5932  ",
    "unit_number": "4024.0014",
    "name": "Passau Hbf",
    "abbr": "Pa  ",
    "lat": "48.5729",
    "lng": "13.4342",
    "arrival": "2023-08-30T14:24:00Z",
    "departure": "2023-08-30T14:48:00Z"
  },
  {
    "train_number": "5932  ",
    "unit_number": "4024.0014",
    "name": "Schärding (in Sch)",
    "abbr": "Sch ",
    "lat": "48.4638",
    "lng": "13.4424",
    "arrival": "2023-08-30T14:10:00Z",
    "departure": "2023-08-30T14:11:00Z"
  },
  {
    "train_number": "5935  ",
    "unit_number": "4024.0014",
    "name": "Neumarkt-Kallham (in Neu)",
    "abbr": "Neu ",
    "lat": "48.2714",
    "lng": "13.7245",
    "arrival": "2023-08-30T12:20:00Z",
    "departure": "2023-08-30T13:40:00Z"
  },
  {
    "train_number": "5935  ",
    "unit_number": "4024.0014",
    "name": "Schärding (in Sch)",
    "abbr": "Sch ",
    "lat": "48.4638",
    "lng": "13.4424",
    "arrival": "2023-08-30T11:48:00Z",
    "departure": "2023-08-30T11:49:00Z"
  },
  {
    "train_number": "1778  ",
    "unit_number": "4024.0014",
    "name": "Passau Hbf",
    "abbr": "Pa  ",
    "lat": "48.5729",
    "lng": "13.4342",
    "arrival": "2023-08-30T11:12:00Z",
    "departure": "2023-08-30T11:36:00Z"
  },
  {
    "train_number": "1778  ",
    "unit_number": "4024.0014",
    "name": "Schärding (in Sch)",
    "abbr": "Sch ",
    "lat": "48.4638",
    "lng": "13.4424",
    "arrival": "2023-08-30T10:56:00Z",
    "departure": "2023-08-30T10:57:00Z"
  },
  {
    "train_number": "1778  ",
    "unit_number": "4024.0014",
    "name": "Neumarkt-Kallham (in Neu)",
    "abbr": "Neu ",
    "lat": "48.2714",
    "lng": "13.7245",
    "arrival": "2023-08-30T10:31:00Z",
    "departure": "2023-08-30T10:32:00Z"
  },
  {
    "train_number": "1778  ",
    "unit_number": "4024.0014",
    "name": "Wels Hbf",
    "abbr": "We  ",
    "lat": "48.1662",
    "lng": "14.0273",
    "arrival": "2023-08-30T10:07:00Z",
    "departure": "2023-08-30T10:09:00Z"
  },
  {
    "train_number": "3646  ",
    "unit_number": "4024.0014",
    "name": "Linz Hbf",
    "abbr": "Lz  ",
    "lat": "48.2908",
    "lng": "14.2927",
    "arrival": "2023-08-30T08:04:00Z",
    "departure": "2023-08-30T09:50:00Z"
  },
  {
    "train_number": "3646  ",
    "unit_number": "4024.0014",
    "name": "Enns",
    "abbr": "Ens ",
    "lat": "48.2212",
    "lng": "14.4668",
    "arrival": "2023-08-30T07:47:00Z",
    "departure": "2023-08-30T07:48:00Z"
  },
  {
    "train_number": "3646  ",
    "unit_number": "4024.0014",
    "name": "St.Valentin (in Sv)",
    "abbr": "Sv  ",
    "lat": "48.1784",
    "lng": "14.5219",
    "arrival": "2023-08-30T07:37:00Z",
    "departure": "2023-08-30T07:41:00Z"
  },
  {
    "train_number": "3645  ",
    "unit_number": "4024.0014",
    "name": "St.Valentin (in Sv)",
    "abbr": "Sv  ",
    "lat": "48.1784",
    "lng": "14.5219",
    "arrival": "2023-08-30T06:17:00Z",
    "departure": "2023-08-30T06:21:00Z"
  },
  {
    "train_number": "3645  ",
    "unit_number": "4024.0014",
    "name": "Enns",
    "abbr": "Ens ",
    "lat": "48.2212",
    "lng": "14.4668",
    "arrival": "2023-08-30T06:10:00Z",
    "departure": "2023-08-30T06:11:00Z"
  },
  {
    "train_number": "5051  ",
    "unit_number": "4024.0014",
    "name": "Linz Hbf",
    "abbr": "Lz  ",
    "lat": "48.2908",
    "lng": "14.2927",
    "arrival": "2023-08-30T05:29:00Z",
    "departure": "2023-08-30T05:53:00Z"
  },
  {
    "train_number": "5051  ",
    "unit_number": "4024.0014",
    "name": "Wels Hbf",
    "abbr": "We  ",
    "lat": "48.1662",
    "lng": "14.0273",
    "arrival": "2023-08-30T05:04:00Z",
    "departure": "2023-08-30T05:06:00Z"
  },
  {
    "train_number": "5051  ",
    "unit_number": "4024.0014",
    "name": "Attnang-Puchheim",
    "abbr": "At  ",
    "lat": "48.0112",
    "lng": "13.7193",
    "arrival": "2023-08-30T04:29:00Z",
    "departure": "2023-08-30T04:31:00Z"
  },
  {
    "train_number": "5051  ",
    "unit_number": "4024.0014",
    "name": "Steindorf b.Straßw. (in Nst)",
    "abbr": "Nst ",
    "lat": "47.9676",
    "lng": "13.2406",
    "arrival": null,
    "departure": "2023-08-30T03:50:00Z"
  },
  {
    "train_number": "5051  ",
    "unit_number": "4024.0014",
    "name": "Salzburg Hbf (in Sb)",
    "abbr": "Sb  ",
    "lat": "47.8135",
    "lng": "13.0466",
    "arrival": "2023-08-30T03:27:00Z",
    "departure": "2023-08-30T03:30:00Z"
  },
  {
    "train_number": "5051  ",
    "unit_number": "4024.0014",
    "name": "Salzburg Liefering (in Sb)",
    "abbr": "Lfg ",
    "lat": "47.8229",
    "lng": "13.0021",
    "arrival": "2023-08-30T03:19:00Z",
    "departure": "2023-08-30T03:19:00Z"
  },
  {
    "train_number": "25796 ",
    "unit_number": "4024.0014",
    "name": "Freilassing",
    "abbr": "MFL ",
    "lat": "47.8368",
    "lng": "12.9764",
    "arrival": "2023-08-29T19:43:00Z",
    "departure": "2023-08-30T03:17:00Z"
  }
]
