[
  {
    "train_number": "5315  ",
    "unit_number": "4024.0120",
    "name": "Schwaz",
    "abbr": "Sw  ",
    "lat": "47.3497",
    "lng": "11.7016",
    "arrival": "2023-09-27T11:39:00Z",
    "departure": "2023-09-27T11:41:00Z"
  },
  {
    "train_number": "5315  ",
    "unit_number": "4024.0120",
    "name": "Hall in Tirol",
    "abbr": "H   ",
    "lat": "47.2769",
    "lng": "11.5013",
    "arrival": "2023-09-27T11:28:00Z",
    "departure": "2023-09-27T11:29:00Z"
  },
  {
    "train_number": "5315  ",
    "unit_number": "4024.0120",
    "name": "Innsbruck Hbf  (in I)",
    "abbr": "I   ",
    "lat": "47.2634",
    "lng": "11.4017",
    "arrival": "2023-09-27T11:11:00Z",
    "departure": "2023-09-27T11:20:00Z"
  },
  {
    "train_number": "5214  ",
    "unit_number": "4024.0120",
    "name": "Brennero/Brenner",
    "abbr": "Be  ",
    "lat": "47.0022",
    "lng": "11.5053",
    "arrival": "2023-09-27T10:28:00Z",
    "departure": "2023-09-27T10:33:00Z"
  },
  {
    "train_number": "5214  ",
    "unit_number": "4024.0120",
    "name": "Innsbruck Hbf  (in I)",
    "abbr": "I   ",
    "lat": "47.2634",
    "lng": "11.4017",
    "arrival": "2023-09-27T09:39:00Z",
    "departure": "2023-09-27T09:49:00Z"
  },
  {
    "train_number": "5214  ",
    "unit_number": "4024.0120",
    "name": "Hall in Tirol",
    "abbr": "H   ",
    "lat": "47.2769",
    "lng": "11.5013",
    "arrival": "2023-09-27T09:29:00Z",
    "departure": "2023-09-27T09:30:00Z"
  },
  {
    "train_number": "5214  ",
    "unit_number": "4024.0120",
    "name": "Schwaz",
    "abbr": "Sw  ",
    "lat": "47.3497",
    "lng": "11.7016",
    "arrival": "2023-09-27T09:18:00Z",
    "departure": "2023-09-27T09:19:00Z"
  },
  {
    "train_number": "5214  ",
    "unit_number": "4024.0120",
    "name": "Jenbach",
    "abbr": "Jb  ",
    "lat": "47.3884",
    "lng": "11.7783",
    "arrival": "2023-09-27T09:13:00Z",
    "departure": "2023-09-27T09:14:00Z"
  },
  {
    "train_number": "5214  ",
    "unit_number": "4024.0120",
    "name": "Wörgl Hbf-T. N. (in W)",
    "abbr": "Wtn ",
    "lat": "47.4824",
    "lng": "12.033",
    "arrival": null,
    "departure": "2023-09-27T08:56:00Z"
  },
  {
    "train_number": "5020  ",
    "unit_number": "4024.0120",
    "name": "Wörgl Hbf (in W)",
    "abbr": "W   ",
    "lat": "47.4912",
    "lng": "12.0603",
    "arrival": "2023-09-27T08:40:00Z",
    "departure": "2023-09-27T08:54:00Z"
  },
  {
    "train_number": "5020  ",
    "unit_number": "4024.0120",
    "name": "Kitzbühel",
    "abbr": "Kzb ",
    "lat": "47.4542",
    "lng": "12.391",
    "arrival": "2023-09-27T08:00:00Z",
    "departure": "2023-09-27T08:01:00Z"
  },
  {
    "train_number": "5019  ",
    "unit_number": "4024.0120",
    "name": "Kitzbühel",
    "abbr": "Kzb ",
    "lat": "47.4542",
    "lng": "12.391",
    "arrival": "2023-09-27T07:01:00Z",
    "departure": "2023-09-27T07:02:00Z"
  },
  {
    "train_number": "5303  ",
    "unit_number": "4024.0120",
    "name": "Wörgl Hbf (in W)",
    "abbr": "W   ",
    "lat": "47.4912",
    "lng": "12.0603",
    "arrival": "2023-09-27T06:09:00Z",
    "departure": "2023-09-27T06:22:00Z"
  },
  {
    "train_number": "5303  ",
    "unit_number": "4024.0120",
    "name": "Wörgl Hbf-T. N. (in W)",
    "abbr": "Wtn ",
    "lat": "47.4824",
    "lng": "12.033",
    "arrival": null,
    "departure": "2023-09-27T06:06:00Z"
  },
  {
    "train_number": "5303  ",
    "unit_number": "4024.0120",
    "name": "Jenbach",
    "abbr": "Jb  ",
    "lat": "47.3884",
    "lng": "11.7783",
    "arrival": "2023-09-27T05:49:00Z",
    "departure": "2023-09-27T05:50:00Z"
  },
  {
    "train_number": "5303  ",
    "unit_number": "4024.0120",
    "name": "Schwaz",
    "abbr": "Sw  ",
    "lat": "47.3497",
    "lng": "11.7016",
    "arrival": "2023-09-27T05:43:00Z",
    "departure": "2023-09-27T05:44:00Z"
  },
  {
    "train_number": "5303  ",
    "unit_number": "4024.0120",
    "name": "Hall in Tirol",
    "abbr": "H   ",
    "lat": "47.2769",
    "lng": "11.5013",
    "arrival": "2023-09-27T05:29:00Z",
    "departure": "2023-09-27T05:31:00Z"
  },
  {
    "train_number": "5145  ",
    "unit_number": "4024.0120",
    "name": "Innsbruck Hbf  (in I)",
    "abbr": "I   ",
    "lat": "47.2634",
    "lng": "11.4017",
    "arrival": "2023-09-27T04:53:00Z",
    "departure": "2023-09-27T05:21:00Z"
  },
  {
    "train_number": "5145  ",
    "unit_number": "4024.0120",
    "name": "Imst-Pitztal",
    "abbr": "Im  ",
    "lat": "47.219",
    "lng": "10.7619",
    "arrival": "2023-09-27T03:49:00Z",
    "departure": "2023-09-27T03:50:00Z"
  },
  {
    "train_number": "5384  ",
    "unit_number": "4024.0120",
    "name": "Landeck-Zams",
    "abbr": "Le  ",
    "lat": "47.148",
    "lng": "10.5782",
    "arrival": "2023-09-26T15:54:00Z",
    "departure": "2023-09-27T03:35:00Z"
  }
]
