[
  {
    "train_number": "5026  ",
    "unit_number": "4024.0088",
    "name": "Kitzbühel",
    "abbr": "Kzb ",
    "lat": "47.4542",
    "lng": "12.391",
    "arrival": "2023-10-31T12:00:00Z",
    "departure": "2023-10-31T12:01:00Z"
  },
  {
    "train_number": "5025  ",
    "unit_number": "4024.0088",
    "name": "Kitzbühel",
    "abbr": "Kzb ",
    "lat": "47.4542",
    "lng": "12.391",
    "arrival": "2023-10-31T11:01:00Z",
    "departure": "2023-10-31T11:02:00Z"
  },
  {
    "train_number": "5309  ",
    "unit_number": "4024.0088",
    "name": "Wörgl Hbf (in W)",
    "abbr": "W   ",
    "lat": "47.4912",
    "lng": "12.0603",
    "arrival": "2023-10-31T10:07:00Z",
    "departure": "2023-10-31T10:22:00Z"
  },
  {
    "train_number": "5309  ",
    "unit_number": "4024.0088",
    "name": "Wörgl Hbf-T. N. (in W)",
    "abbr": "Wtn ",
    "lat": "47.4824",
    "lng": "12.033",
    "arrival": null,
    "departure": "2023-10-31T10:04:00Z"
  },
  {
    "train_number": "5309  ",
    "unit_number": "4024.0088",
    "name": "Jenbach",
    "abbr": "Jb  ",
    "lat": "47.3884",
    "lng": "11.7783",
    "arrival": "2023-10-31T09:47:00Z",
    "departure": "2023-10-31T09:48:00Z"
  },
  {
    "train_number": "5309  ",
    "unit_number": "4024.0088",
    "name": "Schwaz",
    "abbr": "Sw  ",
    "lat": "47.3497",
    "lng": "11.7016",
    "arrival": "2023-10-31T09:41:00Z",
    "departure": "2023-10-31T09:42:00Z"
  },
  {
    "train_number": "5309  ",
    "unit_number": "4024.0088",
    "name": "Hall in Tirol",
    "abbr": "H   ",
    "lat": "47.2769",
    "lng": "11.5013",
    "arrival": "2023-10-31T09:30:00Z",
    "departure": "2023-10-31T09:31:00Z"
  },
  {
    "train_number": "5309  ",
    "unit_number": "4024.0088",
    "name": "Innsbruck Hbf  (in I)",
    "abbr": "I   ",
    "lat": "47.2634",
    "lng": "11.4017",
    "arrival": "2023-10-31T09:13:00Z",
    "departure": "2023-10-31T09:21:00Z"
  },
  {
    "train_number": "5246  ",
    "unit_number": "4024.0088",
    "name": "Brennero/Brenner",
    "abbr": "Be  ",
    "lat": "47.0022",
    "lng": "11.5053",
    "arrival": "2023-10-31T07:58:00Z",
    "departure": "2023-10-31T08:33:00Z"
  },
  {
    "train_number": "5246  ",
    "unit_number": "4024.0088",
    "name": "Innsbruck Hbf  (in I)",
    "abbr": "I   ",
    "lat": "47.2634",
    "lng": "11.4017",
    "arrival": "2023-10-31T07:15:00Z",
    "departure": "2023-10-31T07:19:00Z"
  },
  {
    "train_number": "5245  ",
    "unit_number": "4024.0088",
    "name": "Hall in Tirol",
    "abbr": "H   ",
    "lat": "47.2769",
    "lng": "11.5013",
    "arrival": "2023-10-31T06:59:00Z",
    "departure": "2023-10-31T07:06:00Z"
  },
  {
    "train_number": "5245  ",
    "unit_number": "4024.0088",
    "name": "Innsbruck Hbf  (in I)",
    "abbr": "I   ",
    "lat": "47.2634",
    "lng": "11.4017",
    "arrival": "2023-10-31T06:42:00Z",
    "departure": "2023-10-31T06:50:00Z"
  },
  {
    "train_number": "5202  ",
    "unit_number": "4024.0088",
    "name": "Brennero/Brenner",
    "abbr": "Be  ",
    "lat": "47.0022",
    "lng": "11.5053",
    "arrival": "2023-10-31T05:58:00Z",
    "departure": "2023-10-31T06:03:00Z"
  },
  {
    "train_number": "5340  ",
    "unit_number": "4024.0088",
    "name": "Innsbruck Hbf  (in I)",
    "abbr": "I   ",
    "lat": "47.2634",
    "lng": "11.4017",
    "arrival": "2023-10-31T05:07:00Z",
    "departure": "2023-10-31T05:19:00Z"
  },
  {
    "train_number": "5340  ",
    "unit_number": "4024.0088",
    "name": "Hall in Tirol",
    "abbr": "H   ",
    "lat": "47.2769",
    "lng": "11.5013",
    "arrival": "2023-10-31T04:56:00Z",
    "departure": "2023-10-31T04:57:00Z"
  },
  {
    "train_number": "5340  ",
    "unit_number": "4024.0088",
    "name": "Schwaz",
    "abbr": "Sw  ",
    "lat": "47.3497",
    "lng": "11.7016",
    "arrival": "2023-10-31T04:43:00Z",
    "departure": "2023-10-31T04:44:00Z"
  },
  {
    "train_number": "5340  ",
    "unit_number": "4024.0088",
    "name": "Jenbach",
    "abbr": "Jb  ",
    "lat": "47.3884",
    "lng": "11.7783",
    "arrival": "2023-10-31T04:38:00Z",
    "departure": "2023-10-31T04:39:00Z"
  },
  {
    "train_number": "5340  ",
    "unit_number": "4024.0088",
    "name": "Wörgl Hbf-T. N. (in W)",
    "abbr": "Wtn ",
    "lat": "47.4824",
    "lng": "12.033",
    "arrival": null,
    "departure": "2023-10-31T04:21:00Z"
  },
  {
    "train_number": "5340  ",
    "unit_number": "4024.0088",
    "name": "Wörgl Hbf (in W)",
    "abbr": "W   ",
    "lat": "47.4912",
    "lng": "12.0603",
    "arrival": "2023-10-31T04:18:00Z",
    "departure": "2023-10-31T04:19:00Z"
  },
  {
    "train_number": "5340  ",
    "unit_number": "4024.0088",
    "name": "Kitzbühel",
    "abbr": "Kzb ",
    "lat": "47.4542",
    "lng": "12.391",
    "arrival": "2023-10-31T03:41:00Z",
    "departure": "2023-10-31T03:42:00Z"
  }
]
