[
  {
    "train_number": "5319  ",
    "unit_number": "4024.0120",
    "name": "Jenbach",
    "abbr": "Jb  ",
    "lat": "47.3884",
    "lng": "11.7783",
    "arrival": "2023-09-18T13:46:00Z",
    "departure": "2023-09-18T13:47:00Z"
  },
  {
    "train_number": "5319  ",
    "unit_number": "4024.0120",
    "name": "Schwaz",
    "abbr": "Sw  ",
    "lat": "47.3497",
    "lng": "11.7016",
    "arrival": "2023-09-18T13:39:00Z",
    "departure": "2023-09-18T13:41:00Z"
  },
  {
    "train_number": "5319  ",
    "unit_number": "4024.0120",
    "name": "Hall in Tirol",
    "abbr": "H   ",
    "lat": "47.2769",
    "lng": "11.5013",
    "arrival": "2023-09-18T13:28:00Z",
    "departure": "2023-09-18T13:29:00Z"
  },
  {
    "train_number": "5319  ",
    "unit_number": "4024.0120",
    "name": "Innsbruck Hbf  (in I)",
    "abbr": "I   ",
    "lat": "47.2634",
    "lng": "11.4017",
    "arrival": "2023-09-18T13:11:00Z",
    "departure": "2023-09-18T13:20:00Z"
  },
  {
    "train_number": "5218  ",
    "unit_number": "4024.0120",
    "name": "Brennero/Brenner",
    "abbr": "Be  ",
    "lat": "47.0022",
    "lng": "11.5053",
    "arrival": "2023-09-18T12:28:00Z",
    "departure": "2023-09-18T12:33:00Z"
  },
  {
    "train_number": "5218  ",
    "unit_number": "4024.0120",
    "name": "Innsbruck Hbf  (in I)",
    "abbr": "I   ",
    "lat": "47.2634",
    "lng": "11.4017",
    "arrival": "2023-09-18T11:39:00Z",
    "departure": "2023-09-18T11:49:00Z"
  },
  {
    "train_number": "5218  ",
    "unit_number": "4024.0120",
    "name": "Hall in Tirol",
    "abbr": "H   ",
    "lat": "47.2769",
    "lng": "11.5013",
    "arrival": "2023-09-18T11:29:00Z",
    "departure": "2023-09-18T11:30:00Z"
  },
  {
    "train_number": "5218  ",
    "unit_number": "4024.0120",
    "name": "Schwaz",
    "abbr": "Sw  ",
    "lat": "47.3497",
    "lng": "11.7016",
    "arrival": "2023-09-18T11:18:00Z",
    "departure": "2023-09-18T11:19:00Z"
  },
  {
    "train_number": "5218  ",
    "unit_number": "4024.0120",
    "name": "Jenbach",
    "abbr": "Jb  ",
    "lat": "47.3884",
    "lng": "11.7783",
    "arrival": "2023-09-18T11:13:00Z",
    "departure": "2023-09-18T11:14:00Z"
  },
  {
    "train_number": "5218  ",
    "unit_number": "4024.0120",
    "name": "Wörgl Hbf-T. N. (in W)",
    "abbr": "Wtn ",
    "lat": "47.4824",
    "lng": "12.033",
    "arrival": null,
    "departure": "2023-09-18T10:56:00Z"
  },
  {
    "train_number": "82100 ",
    "unit_number": "4024.0120",
    "name": "Wörgl Hbf (in W)",
    "abbr": "W   ",
    "lat": "47.4912",
    "lng": "12.0603",
    "arrival": "2023-09-18T05:38:00Z",
    "departure": "2023-09-18T10:54:00Z"
  },
  {
    "train_number": "5301  ",
    "unit_number": "4024.0120",
    "name": "Kufstein",
    "abbr": "K   ",
    "lat": "47.5833",
    "lng": "12.1657",
    "arrival": "2023-09-18T05:22:00Z",
    "departure": "2023-09-18T05:30:00Z"
  },
  {
    "train_number": "5301  ",
    "unit_number": "4024.0120",
    "name": "Wörgl Hbf (in W)",
    "abbr": "W   ",
    "lat": "47.4912",
    "lng": "12.0603",
    "arrival": "2023-09-18T05:08:00Z",
    "departure": "2023-09-18T05:09:00Z"
  },
  {
    "train_number": "5301  ",
    "unit_number": "4024.0120",
    "name": "Wörgl Hbf-T. N. (in W)",
    "abbr": "Wtn ",
    "lat": "47.4824",
    "lng": "12.033",
    "arrival": null,
    "departure": "2023-09-18T05:05:00Z"
  },
  {
    "train_number": "5301  ",
    "unit_number": "4024.0120",
    "name": "Jenbach",
    "abbr": "Jb  ",
    "lat": "47.3884",
    "lng": "11.7783",
    "arrival": "2023-09-18T04:48:00Z",
    "departure": "2023-09-18T04:49:00Z"
  },
  {
    "train_number": "5301  ",
    "unit_number": "4024.0120",
    "name": "Schwaz",
    "abbr": "Sw  ",
    "lat": "47.3497",
    "lng": "11.7016",
    "arrival": "2023-09-18T04:42:00Z",
    "departure": "2023-09-18T04:43:00Z"
  },
  {
    "train_number": "5301  ",
    "unit_number": "4024.0120",
    "name": "Hall in Tirol",
    "abbr": "H   ",
    "lat": "47.2769",
    "lng": "11.5013",
    "arrival": "2023-09-18T04:28:00Z",
    "departure": "2023-09-18T04:30:00Z"
  },
  {
    "train_number": "5301  ",
    "unit_number": "4024.0120",
    "name": "Innsbruck Hbf  (in I)",
    "abbr": "I   ",
    "lat": "47.2634",
    "lng": "11.4017",
    "arrival": "2023-09-18T04:10:00Z",
    "departure": "2023-09-18T04:20:00Z"
  },
  {
    "train_number": "5301  ",
    "unit_number": "4024.0120",
    "name": "Imst-Pitztal",
    "abbr": "Im  ",
    "lat": "47.219",
    "lng": "10.7619",
    "arrival": "2023-09-18T03:18:00Z",
    "departure": "2023-09-18T03:19:00Z"
  },
  {
    "train_number": "5178  ",
    "unit_number": "4024.0120",
    "name": "Landeck-Zams",
    "abbr": "Le  ",
    "lat": "47.148",
    "lng": "10.5782",
    "arrival": "2023-09-17T23:22:00Z",
    "departure": "2023-09-18T03:03:00Z"
  }
]
