[
  {
    "train_number": "5218  ",
    "unit_number": "4024.0088",
    "name": "Hall in Tirol",
    "abbr": "H   ",
    "lat": "47.2769",
    "lng": "11.5013",
    "arrival": "2023-08-29T11:29:00Z",
    "departure": "2023-08-29T11:30:00Z"
  },
  {
    "train_number": "5218  ",
    "unit_number": "4024.0088",
    "name": "Schwaz",
    "abbr": "Sw  ",
    "lat": "47.3497",
    "lng": "11.7016",
    "arrival": "2023-08-29T11:18:00Z",
    "departure": "2023-08-29T11:19:00Z"
  },
  {
    "train_number": "5218  ",
    "unit_number": "4024.0088",
    "name": "Jenbach",
    "abbr": "Jb  ",
    "lat": "47.3884",
    "lng": "11.7783",
    "arrival": "2023-08-29T11:13:00Z",
    "departure": "2023-08-29T11:14:00Z"
  },
  {
    "train_number": "5218  ",
    "unit_number": "4024.0088",
    "name": "Wörgl Hbf-T. N. (in W)",
    "abbr": "Wtn ",
    "lat": "47.4824",
    "lng": "12.033",
    "arrival": null,
    "departure": "2023-08-29T10:56:00Z"
  },
  {
    "train_number": "5024  ",
    "unit_number": "4024.0088",
    "name": "Wörgl Hbf (in W)",
    "abbr": "W   ",
    "lat": "47.4912",
    "lng": "12.0603",
    "arrival": "2023-08-29T10:40:00Z",
    "departure": "2023-08-29T10:54:00Z"
  },
  {
    "train_number": "5024  ",
    "unit_number": "4024.0088",
    "name": "Kitzbühel",
    "abbr": "Kzb ",
    "lat": "47.4542",
    "lng": "12.391",
    "arrival": "2023-08-29T10:00:00Z",
    "departure": "2023-08-29T10:01:00Z"
  },
  {
    "train_number": "5023  ",
    "unit_number": "4024.0088",
    "name": "Kitzbühel",
    "abbr": "Kzb ",
    "lat": "47.4542",
    "lng": "12.391",
    "arrival": "2023-08-29T09:01:00Z",
    "departure": "2023-08-29T09:02:00Z"
  },
  {
    "train_number": "5307  ",
    "unit_number": "4024.0088",
    "name": "Wörgl Hbf (in W)",
    "abbr": "W   ",
    "lat": "47.4912",
    "lng": "12.0603",
    "arrival": "2023-08-29T08:06:00Z",
    "departure": "2023-08-29T08:22:00Z"
  },
  {
    "train_number": "5307  ",
    "unit_number": "4024.0088",
    "name": "Wörgl Hbf-T. N. (in W)",
    "abbr": "Wtn ",
    "lat": "47.4824",
    "lng": "12.033",
    "arrival": null,
    "departure": "2023-08-29T08:03:00Z"
  },
  {
    "train_number": "5307  ",
    "unit_number": "4024.0088",
    "name": "Jenbach",
    "abbr": "Jb  ",
    "lat": "47.3884",
    "lng": "11.7783",
    "arrival": "2023-08-29T07:46:00Z",
    "departure": "2023-08-29T07:47:00Z"
  },
  {
    "train_number": "5307  ",
    "unit_number": "4024.0088",
    "name": "Schwaz",
    "abbr": "Sw  ",
    "lat": "47.3497",
    "lng": "11.7016",
    "arrival": "2023-08-29T07:40:00Z",
    "departure": "2023-08-29T07:41:00Z"
  },
  {
    "train_number": "5307  ",
    "unit_number": "4024.0088",
    "name": "Hall in Tirol",
    "abbr": "H   ",
    "lat": "47.2769",
    "lng": "11.5013",
    "arrival": "2023-08-29T07:29:00Z",
    "departure": "2023-08-29T07:30:00Z"
  },
  {
    "train_number": "5107  ",
    "unit_number": "4024.0088",
    "name": "Innsbruck Hbf  (in I)",
    "abbr": "----",
    "lat": "47.2634",
    "lng": "11.4017",
    "arrival": "2023-08-29T05:42:00Z",
    "departure": "2023-08-29T07:20:00Z"
  },
  {
    "train_number": "5242  ",
    "unit_number": "4024.0088",
    "name": "Innsbruck Hbf  (in I)",
    "abbr": "I   ",
    "lat": "47.2634",
    "lng": "11.4017",
    "arrival": "2023-08-29T04:39:00Z",
    "departure": "2023-08-29T04:47:00Z"
  },
  {
    "train_number": "5242  ",
    "unit_number": "4024.0088",
    "name": "Hall in Tirol",
    "abbr": "H   ",
    "lat": "47.2769",
    "lng": "11.5013",
    "arrival": "2023-08-29T04:28:00Z",
    "departure": "2023-08-29T04:29:00Z"
  },
  {
    "train_number": "5242  ",
    "unit_number": "4024.0088",
    "name": "Schwaz",
    "abbr": "Sw  ",
    "lat": "47.3497",
    "lng": "11.7016",
    "arrival": "2023-08-29T04:17:00Z",
    "departure": "2023-08-29T04:18:00Z"
  },
  {
    "train_number": "5242  ",
    "unit_number": "4024.0088",
    "name": "Jenbach",
    "abbr": "Jb  ",
    "lat": "47.3884",
    "lng": "11.7783",
    "arrival": "2023-08-29T04:12:00Z",
    "departure": "2023-08-29T04:13:00Z"
  },
  {
    "train_number": "5242  ",
    "unit_number": "4024.0088",
    "name": "Wörgl Hbf-T. N. (in W)",
    "abbr": "Wtn ",
    "lat": "47.4824",
    "lng": "12.033",
    "arrival": null,
    "departure": "2023-08-29T03:55:00Z"
  },
  {
    "train_number": "5242  ",
    "unit_number": "4024.0088",
    "name": "Wörgl Hbf (in W)",
    "abbr": "W   ",
    "lat": "47.4912",
    "lng": "12.0603",
    "arrival": "2023-08-29T03:52:00Z",
    "departure": "2023-08-29T03:53:00Z"
  },
  {
    "train_number": "5333  ",
    "unit_number": "4024.0088",
    "name": "Kufstein",
    "abbr": "K   ",
    "lat": "47.5833",
    "lng": "12.1657",
    "arrival": "2023-08-28T21:27:00Z",
    "departure": "2023-08-29T03:39:00Z"
  }
]
