[
  {
    "train_number": "85558 ",
    "unit_number": "4024.0088",
    "name": "Wörgl Hbf (in W)",
    "abbr": "W   ",
    "lat": "47.4912",
    "lng": "12.0603",
    "arrival": "2023-09-20T23:03:00Z",
    "departure": "2023-09-21T04:34:00Z"
  },
  {
    "train_number": "85558 ",
    "unit_number": "4024.0088",
    "name": "Kitzbühel",
    "abbr": "Kzb ",
    "lat": "47.4542",
    "lng": "12.391",
    "arrival": null,
    "departure": "2023-09-20T22:36:00Z"
  },
  {
    "train_number": "5049  ",
    "unit_number": "4024.0088",
    "name": "Kitzbühel",
    "abbr": "Kzb ",
    "lat": "47.4542",
    "lng": "12.391",
    "arrival": "2023-09-20T22:01:00Z",
    "departure": "2023-09-20T22:02:00Z"
  },
  {
    "train_number": "5046  ",
    "unit_number": "4024.0088",
    "name": "Wörgl Hbf (in W)",
    "abbr": "W   ",
    "lat": "47.4912",
    "lng": "12.0603",
    "arrival": "2023-09-20T21:12:00Z",
    "departure": "2023-09-20T21:22:00Z"
  },
  {
    "train_number": "5046  ",
    "unit_number": "4024.0088",
    "name": "Kitzbühel",
    "abbr": "Kzb ",
    "lat": "47.4542",
    "lng": "12.391",
    "arrival": "2023-09-20T20:32:00Z",
    "departure": "2023-09-20T20:33:00Z"
  },
  {
    "train_number": "5029  ",
    "unit_number": "4024.0088",
    "name": "Kitzbühel",
    "abbr": "Kzb ",
    "lat": "47.4542",
    "lng": "12.391",
    "arrival": "2023-09-20T12:01:00Z",
    "departure": "2023-09-20T12:02:00Z"
  },
  {
    "train_number": "5313  ",
    "unit_number": "4024.0088",
    "name": "Wörgl Hbf (in W)",
    "abbr": "W   ",
    "lat": "47.4912",
    "lng": "12.0603",
    "arrival": "2023-09-20T11:11:00Z",
    "departure": "2023-09-20T11:22:00Z"
  },
  {
    "train_number": "5313  ",
    "unit_number": "4024.0088",
    "name": "Wörgl Hbf-T. N. (in W)",
    "abbr": "Wtn ",
    "lat": "47.4824",
    "lng": "12.033",
    "arrival": null,
    "departure": "2023-09-20T11:08:00Z"
  },
  {
    "train_number": "5313  ",
    "unit_number": "4024.0088",
    "name": "Jenbach",
    "abbr": "Jb  ",
    "lat": "47.3884",
    "lng": "11.7783",
    "arrival": "2023-09-20T10:51:00Z",
    "departure": "2023-09-20T10:52:00Z"
  },
  {
    "train_number": "5313  ",
    "unit_number": "4024.0088",
    "name": "Schwaz",
    "abbr": "Sw  ",
    "lat": "47.3497",
    "lng": "11.7016",
    "arrival": "2023-09-20T10:41:00Z",
    "departure": "2023-09-20T10:46:00Z"
  },
  {
    "train_number": "5313  ",
    "unit_number": "4024.0088",
    "name": "Hall in Tirol",
    "abbr": "H   ",
    "lat": "47.2769",
    "lng": "11.5013",
    "arrival": "2023-09-20T10:30:00Z",
    "departure": "2023-09-20T10:31:00Z"
  },
  {
    "train_number": "5375  ",
    "unit_number": "4024.0088",
    "name": "Innsbruck Hbf  (in I)",
    "abbr": "I   ",
    "lat": "47.2634",
    "lng": "11.4017",
    "arrival": "2023-09-20T10:06:00Z",
    "departure": "2023-09-20T10:24:00Z"
  },
  {
    "train_number": "5375  ",
    "unit_number": "4024.0088",
    "name": "Imst-Pitztal",
    "abbr": "Im  ",
    "lat": "47.219",
    "lng": "10.7619",
    "arrival": "2023-09-20T09:16:00Z",
    "departure": "2023-09-20T09:18:00Z"
  },
  {
    "train_number": "5370  ",
    "unit_number": "4024.0088",
    "name": "Landeck-Zams",
    "abbr": "Le  ",
    "lat": "47.148",
    "lng": "10.5782",
    "arrival": "2023-09-20T08:56:00Z",
    "departure": "2023-09-20T09:01:00Z"
  },
  {
    "train_number": "5370  ",
    "unit_number": "4024.0088",
    "name": "Imst-Pitztal",
    "abbr": "Im  ",
    "lat": "47.219",
    "lng": "10.7619",
    "arrival": "2023-09-20T08:40:00Z",
    "departure": "2023-09-20T08:41:00Z"
  },
  {
    "train_number": "5441  ",
    "unit_number": "4024.0088",
    "name": "Innsbruck Hbf  (in I)",
    "abbr": "I   ",
    "lat": "47.2634",
    "lng": "11.4017",
    "arrival": "2023-09-20T06:23:00Z",
    "departure": "2023-09-20T07:52:00Z"
  },
  {
    "train_number": "5185  ",
    "unit_number": "4024.0088",
    "name": "Innsbruck Hbf  (in I)",
    "abbr": "I   ",
    "lat": "47.2634",
    "lng": "11.4017",
    "arrival": "2023-09-19T22:31:00Z",
    "departure": "2023-09-20T03:42:00Z"
  }
]
