[
  {
    "train_number": "5045  ",
    "unit_number": "4024.0088",
    "name": "Kitzbühel",
    "abbr": "Kzb ",
    "lat": "47.4542",
    "lng": "12.391",
    "arrival": "2023-10-09T20:01:00Z",
    "departure": "2023-10-09T20:02:00Z"
  },
  {
    "train_number": "5040  ",
    "unit_number": "4024.0088",
    "name": "Wörgl Hbf (in W)",
    "abbr": "W   ",
    "lat": "47.4912",
    "lng": "12.0603",
    "arrival": "2023-10-09T18:40:00Z",
    "departure": "2023-10-09T19:22:00Z"
  },
  {
    "train_number": "5040  ",
    "unit_number": "4024.0088",
    "name": "Kitzbühel",
    "abbr": "Kzb ",
    "lat": "47.4542",
    "lng": "12.391",
    "arrival": "2023-10-09T18:00:00Z",
    "departure": "2023-10-09T18:01:00Z"
  },
  {
    "train_number": "5039  ",
    "unit_number": "4024.0088",
    "name": "Kitzbühel",
    "abbr": "Kzb ",
    "lat": "47.4542",
    "lng": "12.391",
    "arrival": "2023-10-09T17:01:00Z",
    "departure": "2023-10-09T17:02:00Z"
  },
  {
    "train_number": "5323  ",
    "unit_number": "4024.0088",
    "name": "Wörgl Hbf (in W)",
    "abbr": "W   ",
    "lat": "47.4912",
    "lng": "12.0603",
    "arrival": "2023-10-09T16:08:00Z",
    "departure": "2023-10-09T16:22:00Z"
  },
  {
    "train_number": "5323  ",
    "unit_number": "4024.0088",
    "name": "Wörgl Hbf-T. N. (in W)",
    "abbr": "Wtn ",
    "lat": "47.4824",
    "lng": "12.033",
    "arrival": null,
    "departure": "2023-10-09T16:05:00Z"
  },
  {
    "train_number": "5323  ",
    "unit_number": "4024.0088",
    "name": "Jenbach",
    "abbr": "Jb  ",
    "lat": "47.3884",
    "lng": "11.7783",
    "arrival": "2023-10-09T15:48:00Z",
    "departure": "2023-10-09T15:49:00Z"
  },
  {
    "train_number": "5323  ",
    "unit_number": "4024.0088",
    "name": "Schwaz",
    "abbr": "Sw  ",
    "lat": "47.3497",
    "lng": "11.7016",
    "arrival": "2023-10-09T15:42:00Z",
    "departure": "2023-10-09T15:43:00Z"
  },
  {
    "train_number": "5323  ",
    "unit_number": "4024.0088",
    "name": "Hall in Tirol",
    "abbr": "H   ",
    "lat": "47.2769",
    "lng": "11.5013",
    "arrival": "2023-10-09T15:29:00Z",
    "departure": "2023-10-09T15:30:00Z"
  },
  {
    "train_number": "5107  ",
    "unit_number": "4024.0088",
    "name": "Innsbruck Hbf  (in I)",
    "abbr": "I   ",
    "lat": "47.2634",
    "lng": "11.4017",
    "arrival": "2023-10-09T05:42:00Z",
    "departure": "2023-10-09T15:20:00Z"
  },
  {
    "train_number": "5242  ",
    "unit_number": "4024.0088",
    "name": "Innsbruck Hbf  (in I)",
    "abbr": "I   ",
    "lat": "47.2634",
    "lng": "11.4017",
    "arrival": "2023-10-09T04:39:00Z",
    "departure": "2023-10-09T04:47:00Z"
  },
  {
    "train_number": "5242  ",
    "unit_number": "4024.0088",
    "name": "Hall in Tirol",
    "abbr": "H   ",
    "lat": "47.2769",
    "lng": "11.5013",
    "arrival": "2023-10-09T04:28:00Z",
    "departure": "2023-10-09T04:29:00Z"
  },
  {
    "train_number": "5242  ",
    "unit_number": "4024.0088",
    "name": "Schwaz",
    "abbr": "Sw  ",
    "lat": "47.3497",
    "lng": "11.7016",
    "arrival": "2023-10-09T04:17:00Z",
    "departure": "2023-10-09T04:18:00Z"
  },
  {
    "train_number": "5242  ",
    "unit_number": "4024.0088",
    "name": "Jenbach",
    "abbr": "Jb  ",
    "lat": "47.3884",
    "lng": "11.7783",
    "arrival": "2023-10-09T04:12:00Z",
    "departure": "2023-10-09T04:13:00Z"
  },
  {
    "train_number": "5242  ",
    "unit_number": "4024.0088",
    "name": "Wörgl Hbf-T. N. (in W)",
    "abbr": "Wtn ",
    "lat": "47.4824",
    "lng": "12.033",
    "arrival": null,
    "departure": "2023-10-09T03:55:00Z"
  },
  {
    "train_number": "5242  ",
    "unit_number": "4024.0088",
    "name": "Wörgl Hbf (in W)",
    "abbr": "W   ",
    "lat": "47.4912",
    "lng": "12.0603",
    "arrival": "2023-10-09T03:52:00Z",
    "departure": "2023-10-09T03:53:00Z"
  },
  {
    "train_number": "5333  ",
    "unit_number": "4024.0088",
    "name": "Kufstein",
    "abbr": "K   ",
    "lat": "47.5833",
    "lng": "12.1657",
    "arrival": "2023-10-08T21:27:00Z",
    "departure": "2023-10-09T03:39:00Z"
  }
]
