[
  {
    "train_number": "3034  ",
    "unit_number": "4024.0120",
    "name": "Attnang-Puchheim",
    "abbr": "At  ",
    "lat": "48.0112",
    "lng": "13.7193",
    "arrival": "2023-08-17T20:50:00Z",
    "departure": "2023-08-18T02:42:00Z"
  },
  {
    "train_number": "3034  ",
    "unit_number": "4024.0120",
    "name": "Wels Hbf",
    "abbr": "We  ",
    "lat": "48.1662",
    "lng": "14.0273",
    "arrival": "2023-08-17T20:22:00Z",
    "departure": "2023-08-17T20:23:00Z"
  },
  {
    "train_number": "5073  ",
    "unit_number": "4024.0120",
    "name": "Linz Hbf",
    "abbr": "Lz  ",
    "lat": "48.2908",
    "lng": "14.2927",
    "arrival": "2023-08-17T17:00:00Z",
    "departure": "2023-08-17T20:00:00Z"
  },
  {
    "train_number": "5073  ",
    "unit_number": "4024.0120",
    "name": "Wels Hbf",
    "abbr": "We  ",
    "lat": "48.1662",
    "lng": "14.0273",
    "arrival": "2023-08-17T16:36:00Z",
    "departure": "2023-08-17T16:37:00Z"
  },
  {
    "train_number": "5073  ",
    "unit_number": "4024.0120",
    "name": "Attnang-Puchheim",
    "abbr": "At  ",
    "lat": "48.0112",
    "lng": "13.7193",
    "arrival": "2023-08-17T15:55:00Z",
    "departure": "2023-08-17T16:10:00Z"
  },
  {
    "train_number": "5073  ",
    "unit_number": "4024.0120",
    "name": "Steindorf b.Straßw. (in Nst)",
    "abbr": "Nst ",
    "lat": "47.9676",
    "lng": "13.2406",
    "arrival": null,
    "departure": "2023-08-17T15:00:00Z"
  },
  {
    "train_number": "5073  ",
    "unit_number": "4024.0120",
    "name": "Salzburg Hbf (in Sb)",
    "abbr": "Sb  ",
    "lat": "47.8135",
    "lng": "13.0466",
    "arrival": "2023-08-17T14:32:00Z",
    "departure": "2023-08-17T14:34:00Z"
  },
  {
    "train_number": "5073  ",
    "unit_number": "4024.0120",
    "name": "Salzburg Liefering (in Sb)",
    "abbr": "Lfg ",
    "lat": "47.8229",
    "lng": "13.0021",
    "arrival": "2023-08-17T14:23:00Z",
    "departure": "2023-08-17T14:23:00Z"
  },
  {
    "train_number": "25792 ",
    "unit_number": "4024.0120",
    "name": "Freilassing",
    "abbr": "MFL ",
    "lat": "47.8368",
    "lng": "12.9764",
    "arrival": "2023-08-17T13:34:00Z",
    "departure": "2023-08-17T14:20:00Z"
  },
  {
    "train_number": "25792 ",
    "unit_number": "4024.0120",
    "name": "Salzburg Liefering (in Sb)",
    "abbr": "Lfg ",
    "lat": "47.8229",
    "lng": "13.0021",
    "arrival": "2023-08-17T13:31:00Z",
    "departure": "2023-08-17T13:31:00Z"
  },
  {
    "train_number": "3050  ",
    "unit_number": "4024.0120",
    "name": "Salzburg Hbf (in Sb)",
    "abbr": "Sb  ",
    "lat": "47.8135",
    "lng": "13.0466",
    "arrival": "2023-08-17T06:05:00Z",
    "departure": "2023-08-17T13:23:00Z"
  },
  {
    "train_number": "3050  ",
    "unit_number": "4024.0120",
    "name": "Steindorf b.Straßw. (in Nst)",
    "abbr": "Nst ",
    "lat": "47.9676",
    "lng": "13.2406",
    "arrival": "2023-08-17T05:37:00Z",
    "departure": "2023-08-17T05:38:00Z"
  },
  {
    "train_number": "3051  ",
    "unit_number": "4024.0120",
    "name": "Steindorf b.Straßw. (in Nst)",
    "abbr": "Nst ",
    "lat": "47.9676",
    "lng": "13.2406",
    "arrival": "2023-08-17T05:21:00Z",
    "departure": "2023-08-17T05:22:00Z"
  },
  {
    "train_number": "3044  ",
    "unit_number": "4024.0120",
    "name": "Salzburg Hbf (in Sb)",
    "abbr": "Sb  ",
    "lat": "47.8135",
    "lng": "13.0466",
    "arrival": "2023-08-17T04:33:00Z",
    "departure": "2023-08-17T04:55:00Z"
  },
  {
    "train_number": "3044  ",
    "unit_number": "4024.0120",
    "name": "Steindorf b.Straßw. (in Nst)",
    "abbr": "Nst ",
    "lat": "47.9676",
    "lng": "13.2406",
    "arrival": null,
    "departure": "2023-08-17T04:05:00Z"
  },
  {
    "train_number": "3291  ",
    "unit_number": "4024.0120",
    "name": "Attnang-Puchheim",
    "abbr": "At  ",
    "lat": "48.0112",
    "lng": "13.7193",
    "arrival": "2023-08-16T19:55:00Z",
    "departure": "2023-08-17T03:25:00Z"
  }
]
