[
  {
    "train_number": "5162  ",
    "unit_number": "4024.0088",
    "name": "Innsbruck Hbf  (in I)",
    "abbr": "I   ",
    "lat": "47.2634",
    "lng": "11.4017",
    "arrival": "2023-08-23T13:55:00Z",
    "departure": "2023-08-23T13:59:00Z"
  },
  {
    "train_number": "5162  ",
    "unit_number": "4024.0088",
    "name": "Hall in Tirol",
    "abbr": "H   ",
    "lat": "47.2769",
    "lng": "11.5013",
    "arrival": "2023-08-23T13:44:00Z",
    "departure": "2023-08-23T13:44:00Z"
  },
  {
    "train_number": "5162  ",
    "unit_number": "4024.0088",
    "name": "Schwaz",
    "abbr": "Sw  ",
    "lat": "47.3497",
    "lng": "11.7016",
    "arrival": "2023-08-23T13:28:00Z",
    "departure": "2023-08-23T13:28:00Z"
  },
  {
    "train_number": "5159  ",
    "unit_number": "4024.0088",
    "name": "Jenbach",
    "abbr": "Jb  ",
    "lat": "47.3884",
    "lng": "11.7783",
    "arrival": "2023-08-23T12:38:00Z",
    "departure": "2023-08-23T13:21:00Z"
  },
  {
    "train_number": "5159  ",
    "unit_number": "4024.0088",
    "name": "Schwaz",
    "abbr": "Sw  ",
    "lat": "47.3497",
    "lng": "11.7016",
    "arrival": "2023-08-23T12:31:00Z",
    "departure": "2023-08-23T12:32:00Z"
  },
  {
    "train_number": "5159  ",
    "unit_number": "4024.0088",
    "name": "Hall in Tirol",
    "abbr": "H   ",
    "lat": "47.2769",
    "lng": "11.5013",
    "arrival": "2023-08-23T12:15:00Z",
    "departure": "2023-08-23T12:16:00Z"
  },
  {
    "train_number": "5159  ",
    "unit_number": "4024.0088",
    "name": "Innsbruck Hbf  (in I)",
    "abbr": "I   ",
    "lat": "47.2634",
    "lng": "11.4017",
    "arrival": "2023-08-23T12:01:00Z",
    "departure": "2023-08-23T12:05:00Z"
  },
  {
    "train_number": "5154  ",
    "unit_number": "4024.0088",
    "name": "Innsbruck Hbf  (in I)",
    "abbr": "I   ",
    "lat": "47.2634",
    "lng": "11.4017",
    "arrival": "2023-08-23T09:55:00Z",
    "departure": "2023-08-23T09:59:00Z"
  },
  {
    "train_number": "5154  ",
    "unit_number": "4024.0088",
    "name": "Hall in Tirol",
    "abbr": "H   ",
    "lat": "47.2769",
    "lng": "11.5013",
    "arrival": "2023-08-23T09:44:00Z",
    "departure": "2023-08-23T09:44:00Z"
  },
  {
    "train_number": "5154  ",
    "unit_number": "4024.0088",
    "name": "Schwaz",
    "abbr": "Sw  ",
    "lat": "47.3497",
    "lng": "11.7016",
    "arrival": "2023-08-23T09:28:00Z",
    "departure": "2023-08-23T09:28:00Z"
  },
  {
    "train_number": "5151  ",
    "unit_number": "4024.0088",
    "name": "Jenbach",
    "abbr": "Jb  ",
    "lat": "47.3884",
    "lng": "11.7783",
    "arrival": "2023-08-23T08:38:00Z",
    "departure": "2023-08-23T09:21:00Z"
  },
  {
    "train_number": "5151  ",
    "unit_number": "4024.0088",
    "name": "Schwaz",
    "abbr": "Sw  ",
    "lat": "47.3497",
    "lng": "11.7016",
    "arrival": "2023-08-23T08:31:00Z",
    "departure": "2023-08-23T08:32:00Z"
  },
  {
    "train_number": "5151  ",
    "unit_number": "4024.0088",
    "name": "Hall in Tirol",
    "abbr": "H   ",
    "lat": "47.2769",
    "lng": "11.5013",
    "arrival": "2023-08-23T08:15:00Z",
    "departure": "2023-08-23T08:16:00Z"
  },
  {
    "train_number": "5151  ",
    "unit_number": "4024.0088",
    "name": "Innsbruck Hbf  (in I)",
    "abbr": "I   ",
    "lat": "47.2634",
    "lng": "11.4017",
    "arrival": "2023-08-23T08:01:00Z",
    "departure": "2023-08-23T08:05:00Z"
  },
  {
    "train_number": "5144  ",
    "unit_number": "4024.0088",
    "name": "Innsbruck Hbf  (in I)",
    "abbr": "I   ",
    "lat": "47.2634",
    "lng": "11.4017",
    "arrival": "2023-08-23T04:55:00Z",
    "departure": "2023-08-23T04:59:00Z"
  },
  {
    "train_number": "5144  ",
    "unit_number": "4024.0088",
    "name": "Hall in Tirol",
    "abbr": "H   ",
    "lat": "47.2769",
    "lng": "11.5013",
    "arrival": "2023-08-23T04:44:00Z",
    "departure": "2023-08-23T04:44:00Z"
  },
  {
    "train_number": "5144  ",
    "unit_number": "4024.0088",
    "name": "Schwaz",
    "abbr": "Sw  ",
    "lat": "47.3497",
    "lng": "11.7016",
    "arrival": "2023-08-23T04:28:00Z",
    "departure": "2023-08-23T04:28:00Z"
  },
  {
    "train_number": "5144  ",
    "unit_number": "4024.0088",
    "name": "Jenbach",
    "abbr": "Jb  ",
    "lat": "47.3884",
    "lng": "11.7783",
    "arrival": "2023-08-23T04:20:00Z",
    "departure": "2023-08-23T04:21:00Z"
  },
  {
    "train_number": "5144  ",
    "unit_number": "4024.0088",
    "name": "Wörgl Hbf-T. N. (in W)",
    "abbr": "Wtn ",
    "lat": "47.4824",
    "lng": "12.033",
    "arrival": null,
    "departure": "2023-08-23T04:00:00Z"
  },
  {
    "train_number": "5134  ",
    "unit_number": "4024.0088",
    "name": "Wörgl Hbf (in W)",
    "abbr": "W   ",
    "lat": "47.4912",
    "lng": "12.0603",
    "arrival": "2023-08-22T19:25:00Z",
    "departure": "2023-08-23T03:59:00Z"
  }
]
