[
  {
    "train_number": "3034  ",
    "unit_number": "4024.0014",
    "name": "Attnang-Puchheim",
    "abbr": "At  ",
    "lat": "48.0112",
    "lng": "13.7193",
    "arrival": "2023-10-09T20:50:00Z",
    "departure": "2023-10-10T04:10:00Z"
  },
  {
    "train_number": "3034  ",
    "unit_number": "4024.0014",
    "name": "Wels Hbf",
    "abbr": "We  ",
    "lat": "48.1662",
    "lng": "14.0273",
    "arrival": "2023-10-09T20:22:00Z",
    "departure": "2023-10-09T20:23:00Z"
  },
  {
    "train_number": "3982  ",
    "unit_number": "4024.0014",
    "name": "Linz Hbf",
    "abbr": "Lz  ",
    "lat": "48.2908",
    "lng": "14.2927",
    "arrival": "2023-10-09T19:24:00Z",
    "departure": "2023-10-09T20:00:00Z"
  },
  {
    "train_number": "3973  ",
    "unit_number": "4024.0014",
    "name": "Kirchdorf a.d.Krems",
    "abbr": "Kik ",
    "lat": "47.9051",
    "lng": "14.1167",
    "arrival": "2023-10-09T17:33:00Z",
    "departure": "2023-10-09T18:25:00Z"
  },
  {
    "train_number": "3672  ",
    "unit_number": "4024.0014",
    "name": "Linz Hbf",
    "abbr": "Lz  ",
    "lat": "48.2908",
    "lng": "14.2927",
    "arrival": "2023-10-09T16:04:00Z",
    "departure": "2023-10-09T16:36:00Z"
  },
  {
    "train_number": "3672  ",
    "unit_number": "4024.0014",
    "name": "Enns",
    "abbr": "Ens ",
    "lat": "48.2212",
    "lng": "14.4668",
    "arrival": "2023-10-09T15:47:00Z",
    "departure": "2023-10-09T15:48:00Z"
  },
  {
    "train_number": "3672  ",
    "unit_number": "4024.0014",
    "name": "St.Valentin (in Sv)",
    "abbr": "Sv  ",
    "lat": "48.1784",
    "lng": "14.5219",
    "arrival": "2023-10-09T15:37:00Z",
    "departure": "2023-10-09T15:41:00Z"
  },
  {
    "train_number": "3663  ",
    "unit_number": "4024.0014",
    "name": "St.Valentin (in Sv)",
    "abbr": "Sv  ",
    "lat": "48.1784",
    "lng": "14.5219",
    "arrival": "2023-10-09T14:17:00Z",
    "departure": "2023-10-09T14:21:00Z"
  },
  {
    "train_number": "3663  ",
    "unit_number": "4024.0014",
    "name": "Enns",
    "abbr": "Ens ",
    "lat": "48.2212",
    "lng": "14.4668",
    "arrival": "2023-10-09T14:10:00Z",
    "departure": "2023-10-09T14:11:00Z"
  },
  {
    "train_number": "2054  ",
    "unit_number": "4024.0014",
    "name": "Linz Hbf",
    "abbr": "Lz  ",
    "lat": "48.2908",
    "lng": "14.2927",
    "arrival": "2023-10-09T04:35:00Z",
    "departure": "2023-10-09T13:53:00Z"
  },
  {
    "train_number": "2054  ",
    "unit_number": "4024.0014",
    "name": "Enns",
    "abbr": "Ens ",
    "lat": "48.2212",
    "lng": "14.4668",
    "arrival": "2023-10-09T04:18:00Z",
    "departure": "2023-10-09T04:19:00Z"
  },
  {
    "train_number": "Steht ",
    "unit_number": "4024.0014",
    "name": "St.Valentin (in Sv)",
    "abbr": "Sv  ",
    "lat": "48.1784",
    "lng": "14.5219",
    "arrival": "2023-10-08T22:00:00Z",
    "departure": "2023-10-09T04:12:00Z"
  }
]
