[
  {
    "train_number": "25719 ",
    "unit_number": "4024.0120",
    "name": "Salzburg Hbf (in Sb)",
    "abbr": "Sb  ",
    "lat": "47.8135",
    "lng": "13.0466",
    "arrival": "2023-10-08T12:17:00Z",
    "departure": "2023-10-08T12:21:00Z"
  },
  {
    "train_number": "25719 ",
    "unit_number": "4024.0120",
    "name": "Salzburg Liefering (in Sb)",
    "abbr": "Lfg ",
    "lat": "47.8229",
    "lng": "13.0021",
    "arrival": "2023-10-08T12:09:00Z",
    "departure": "2023-10-08T12:10:00Z"
  },
  {
    "train_number": "79434 ",
    "unit_number": "4024.0120",
    "name": "Freilassing",
    "abbr": "MFL ",
    "lat": "47.8368",
    "lng": "12.9764",
    "arrival": "2023-10-08T11:56:00Z",
    "departure": "2023-10-08T12:07:00Z"
  },
  {
    "train_number": "79431 ",
    "unit_number": "4024.0120",
    "name": "Bad Reichenhall",
    "abbr": "MBRL",
    "lat": "47.7316",
    "lng": "12.881",
    "arrival": "2023-10-08T11:19:00Z",
    "departure": "2023-10-08T11:37:00Z"
  },
  {
    "train_number": "25716 ",
    "unit_number": "4024.0120",
    "name": "Freilassing",
    "abbr": "MFL ",
    "lat": "47.8368",
    "lng": "12.9764",
    "arrival": "2023-10-08T10:54:00Z",
    "departure": "2023-10-08T10:58:00Z"
  },
  {
    "train_number": "25716 ",
    "unit_number": "4024.0120",
    "name": "Salzburg Liefering (in Sb)",
    "abbr": "Lfg ",
    "lat": "47.8229",
    "lng": "13.0021",
    "arrival": "2023-10-08T10:50:00Z",
    "departure": "2023-10-08T10:50:00Z"
  },
  {
    "train_number": "25716 ",
    "unit_number": "4024.0120",
    "name": "Salzburg Hbf (in Sb)",
    "abbr": "Sb  ",
    "lat": "47.8135",
    "lng": "13.0466",
    "arrival": "2023-10-08T10:40:00Z",
    "departure": "2023-10-08T10:42:00Z"
  },
  {
    "train_number": "25716 ",
    "unit_number": "4024.0120",
    "name": "Salzburg Gnigl-Einfgr. (in Sb)",
    "abbr": "Sre ",
    "lat": "47.8075",
    "lng": "13.0687",
    "arrival": null,
    "departure": "2023-10-08T10:33:00Z"
  },
  {
    "train_number": "25716 ",
    "unit_number": "4024.0120",
    "name": "Bischofshofen (in Bo)",
    "abbr": "Bo  ",
    "lat": "47.42",
    "lng": "13.2199",
    "arrival": "2023-10-08T09:38:00Z",
    "departure": "2023-10-08T09:40:00Z"
  },
  {
    "train_number": "25709 ",
    "unit_number": "4024.0120",
    "name": "Schwarzach-St.Veit",
    "abbr": "Swa ",
    "lat": "47.3186",
    "lng": "13.1561",
    "arrival": "2023-10-08T08:39:00Z",
    "departure": "2023-10-08T09:24:00Z"
  },
  {
    "train_number": "25709 ",
    "unit_number": "4024.0120",
    "name": "Bischofshofen (in Bo)",
    "abbr": "Bo  ",
    "lat": "47.42",
    "lng": "13.2199",
    "arrival": "2023-10-08T08:22:00Z",
    "departure": "2023-10-08T08:24:00Z"
  },
  {
    "train_number": "25709 ",
    "unit_number": "4024.0120",
    "name": "Salzburg Gnigl-Einfgr. (in Sb)",
    "abbr": "Sre ",
    "lat": "47.8075",
    "lng": "13.0687",
    "arrival": null,
    "departure": "2023-10-08T07:27:00Z"
  },
  {
    "train_number": "25709 ",
    "unit_number": "4024.0120",
    "name": "Salzburg Hbf (in Sb)",
    "abbr": "Sb  ",
    "lat": "47.8135",
    "lng": "13.0466",
    "arrival": "2023-10-08T07:17:00Z",
    "departure": "2023-10-08T07:21:00Z"
  },
  {
    "train_number": "25709 ",
    "unit_number": "4024.0120",
    "name": "Salzburg Liefering (in Sb)",
    "abbr": "Lfg ",
    "lat": "47.8229",
    "lng": "13.0021",
    "arrival": "2023-10-08T07:09:00Z",
    "departure": "2023-10-08T07:10:00Z"
  },
  {
    "train_number": "25754 ",
    "unit_number": "4024.0120",
    "name": "Freilassing",
    "abbr": "MFL ",
    "lat": "47.8368",
    "lng": "12.9764",
    "arrival": "2023-10-08T05:24:00Z",
    "departure": "2023-10-08T07:07:00Z"
  },
  {
    "train_number": "25754 ",
    "unit_number": "4024.0120",
    "name": "Salzburg Liefering (in Sb)",
    "abbr": "Lfg ",
    "lat": "47.8229",
    "lng": "13.0021",
    "arrival": "2023-10-08T05:20:00Z",
    "departure": "2023-10-08T05:20:00Z"
  },
  {
    "train_number": "25754 ",
    "unit_number": "4024.0120",
    "name": "Salzburg Hbf (in Sb)",
    "abbr": "Sb  ",
    "lat": "47.8135",
    "lng": "13.0466",
    "arrival": "2023-10-08T05:10:00Z",
    "departure": "2023-10-08T05:12:00Z"
  },
  {
    "train_number": "25754 ",
    "unit_number": "4024.0120",
    "name": "Salzburg Gnigl-Einfgr. (in Sb)",
    "abbr": "Sre ",
    "lat": "47.8075",
    "lng": "13.0687",
    "arrival": null,
    "departure": "2023-10-08T05:03:00Z"
  },
  {
    "train_number": "25754 ",
    "unit_number": "4024.0120",
    "name": "Bischofshofen (in Bo)",
    "abbr": "Bo  ",
    "lat": "47.42",
    "lng": "13.2199",
    "arrival": "2023-10-08T04:08:00Z",
    "departure": "2023-10-08T04:10:00Z"
  },
  {
    "train_number": "25739 ",
    "unit_number": "4024.0120",
    "name": "Schwarzach-St.Veit",
    "abbr": "Swa ",
    "lat": "47.3186",
    "lng": "13.1561",
    "arrival": "2023-10-07T23:39:00Z",
    "departure": "2023-10-08T03:54:00Z"
  }
]
