[
  {
    "train_number": "5112  ",
    "unit_number": "4024.0088",
    "name": "Innsbruck Hbf  (in I)",
    "abbr": "I   ",
    "lat": "47.2634",
    "lng": "11.4017",
    "arrival": "2023-08-30T09:25:00Z",
    "departure": "2023-08-30T09:29:00Z"
  },
  {
    "train_number": "5112  ",
    "unit_number": "4024.0088",
    "name": "Hall in Tirol",
    "abbr": "H   ",
    "lat": "47.2769",
    "lng": "11.5013",
    "arrival": "2023-08-30T09:14:00Z",
    "departure": "2023-08-30T09:14:00Z"
  },
  {
    "train_number": "5112  ",
    "unit_number": "4024.0088",
    "name": "Schwaz",
    "abbr": "Sw  ",
    "lat": "47.3497",
    "lng": "11.7016",
    "arrival": "2023-08-30T08:58:00Z",
    "departure": "2023-08-30T08:58:00Z"
  },
  {
    "train_number": "5112  ",
    "unit_number": "4024.0088",
    "name": "Jenbach",
    "abbr": "Jb  ",
    "lat": "47.3884",
    "lng": "11.7783",
    "arrival": "2023-08-30T08:50:00Z",
    "departure": "2023-08-30T08:51:00Z"
  },
  {
    "train_number": "5112  ",
    "unit_number": "4024.0088",
    "name": "Wörgl Hbf-T. N. (in W)",
    "abbr": "Wtn ",
    "lat": "47.4824",
    "lng": "12.033",
    "arrival": null,
    "departure": "2023-08-30T08:30:00Z"
  },
  {
    "train_number": "5112  ",
    "unit_number": "4024.0088",
    "name": "Wörgl Hbf (in W)",
    "abbr": "W   ",
    "lat": "47.4912",
    "lng": "12.0603",
    "arrival": "2023-08-30T08:25:00Z",
    "departure": "2023-08-30T08:29:00Z"
  },
  {
    "train_number": "5109  ",
    "unit_number": "4024.0088",
    "name": "Kufstein",
    "abbr": "K   ",
    "lat": "47.5833",
    "lng": "12.1657",
    "arrival": "2023-08-30T07:48:00Z",
    "departure": "2023-08-30T08:12:00Z"
  },
  {
    "train_number": "5109  ",
    "unit_number": "4024.0088",
    "name": "Wörgl Hbf (in W)",
    "abbr": "W   ",
    "lat": "47.4912",
    "lng": "12.0603",
    "arrival": "2023-08-30T07:31:00Z",
    "departure": "2023-08-30T07:35:00Z"
  },
  {
    "train_number": "5109  ",
    "unit_number": "4024.0088",
    "name": "Wörgl Hbf-T. N. (in W)",
    "abbr": "Wtn ",
    "lat": "47.4824",
    "lng": "12.033",
    "arrival": null,
    "departure": "2023-08-30T07:28:00Z"
  },
  {
    "train_number": "5109  ",
    "unit_number": "4024.0088",
    "name": "Jenbach",
    "abbr": "Jb  ",
    "lat": "47.3884",
    "lng": "11.7783",
    "arrival": "2023-08-30T07:08:00Z",
    "departure": "2023-08-30T07:09:00Z"
  },
  {
    "train_number": "5109  ",
    "unit_number": "4024.0088",
    "name": "Schwaz",
    "abbr": "Sw  ",
    "lat": "47.3497",
    "lng": "11.7016",
    "arrival": "2023-08-30T07:01:00Z",
    "departure": "2023-08-30T07:02:00Z"
  },
  {
    "train_number": "5109  ",
    "unit_number": "4024.0088",
    "name": "Hall in Tirol",
    "abbr": "H   ",
    "lat": "47.2769",
    "lng": "11.5013",
    "arrival": "2023-08-30T06:45:00Z",
    "departure": "2023-08-30T06:46:00Z"
  },
  {
    "train_number": "5109  ",
    "unit_number": "4024.0088",
    "name": "Innsbruck Hbf  (in I)",
    "abbr": "I   ",
    "lat": "47.2634",
    "lng": "11.4017",
    "arrival": "2023-08-30T06:31:00Z",
    "departure": "2023-08-30T06:35:00Z"
  },
  {
    "train_number": "5104  ",
    "unit_number": "4024.0088",
    "name": "Innsbruck Hbf  (in I)",
    "abbr": "I   ",
    "lat": "47.2634",
    "lng": "11.4017",
    "arrival": "2023-08-30T05:25:00Z",
    "departure": "2023-08-30T05:29:00Z"
  },
  {
    "train_number": "5104  ",
    "unit_number": "4024.0088",
    "name": "Hall in Tirol",
    "abbr": "H   ",
    "lat": "47.2769",
    "lng": "11.5013",
    "arrival": "2023-08-30T05:14:00Z",
    "departure": "2023-08-30T05:14:00Z"
  },
  {
    "train_number": "5104  ",
    "unit_number": "4024.0088",
    "name": "Schwaz",
    "abbr": "Sw  ",
    "lat": "47.3497",
    "lng": "11.7016",
    "arrival": "2023-08-30T04:58:00Z",
    "departure": "2023-08-30T04:58:00Z"
  },
  {
    "train_number": "5104  ",
    "unit_number": "4024.0088",
    "name": "Jenbach",
    "abbr": "Jb  ",
    "lat": "47.3884",
    "lng": "11.7783",
    "arrival": "2023-08-30T04:50:00Z",
    "departure": "2023-08-30T04:51:00Z"
  },
  {
    "train_number": "5104  ",
    "unit_number": "4024.0088",
    "name": "Wörgl Hbf-T. N. (in W)",
    "abbr": "Wtn ",
    "lat": "47.4824",
    "lng": "12.033",
    "arrival": null,
    "departure": "2023-08-30T04:30:00Z"
  },
  {
    "train_number": "5104  ",
    "unit_number": "4024.0088",
    "name": "Wörgl Hbf (in W)",
    "abbr": "W   ",
    "lat": "47.4912",
    "lng": "12.0603",
    "arrival": "2023-08-30T04:25:00Z",
    "departure": "2023-08-30T04:29:00Z"
  },
  {
    "train_number": "5331  ",
    "unit_number": "4024.0088",
    "name": "Kufstein",
    "abbr": "K   ",
    "lat": "47.5833",
    "lng": "12.1657",
    "arrival": "2023-08-29T20:28:00Z",
    "departure": "2023-08-30T04:12:00Z"
  }
]
