[
  {
    "train_number": "21067 ",
    "unit_number": "4024.0089",
    "name": "Wien FJBf (in Wf)",
    "abbr": "Wf  ",
    "lat": "48.227",
    "lng": "16.3611",
    "arrival": "2023-10-13T19:21:00Z",
    "departure": "2023-10-13T19:39:00Z"
  },
  {
    "train_number": "21067 ",
    "unit_number": "4024.0089",
    "name": "Tulln a. d. Donau (in Tu)",
    "abbr": "Tu  ",
    "lat": "48.3275",
    "lng": "16.0644",
    "arrival": "2023-10-13T18:32:00Z",
    "departure": "2023-10-13T18:38:00Z"
  },
  {
    "train_number": "21067 ",
    "unit_number": "4024.0089",
    "name": "Herzogenburg (in Ho)",
    "abbr": "Ho  ",
    "lat": "48.2759",
    "lng": "15.6966",
    "arrival": "2023-10-13T17:28:00Z",
    "departure": "2023-10-13T17:29:00Z"
  },
  {
    "train_number": "21046 ",
    "unit_number": "4024.0089",
    "name": "St.Pölten Hbf (in Pb)",
    "abbr": "Pb  ",
    "lat": "48.2081",
    "lng": "15.6237",
    "arrival": "2023-10-13T16:49:00Z",
    "departure": "2023-10-13T17:12:00Z"
  },
  {
    "train_number": "21046 ",
    "unit_number": "4024.0089",
    "name": "Herzogenburg (in Ho)",
    "abbr": "Ho  ",
    "lat": "48.2759",
    "lng": "15.6966",
    "arrival": "2023-10-13T16:22:00Z",
    "departure": "2023-10-13T16:30:00Z"
  },
  {
    "train_number": "21046 ",
    "unit_number": "4024.0089",
    "name": "Tulln a. d. Donau (in Tu)",
    "abbr": "Tu  ",
    "lat": "48.3275",
    "lng": "16.0644",
    "arrival": "2023-10-13T15:22:00Z",
    "departure": "2023-10-13T15:27:00Z"
  },
  {
    "train_number": "21047 ",
    "unit_number": "4024.0089",
    "name": "Wien FJBf (in Wf)",
    "abbr": "Wf  ",
    "lat": "48.227",
    "lng": "16.3611",
    "arrival": "2023-10-13T14:21:00Z",
    "departure": "2023-10-13T14:39:00Z"
  },
  {
    "train_number": "21047 ",
    "unit_number": "4024.0089",
    "name": "Tulln a. d. Donau (in Tu)",
    "abbr": "Tu  ",
    "lat": "48.3275",
    "lng": "16.0644",
    "arrival": "2023-10-13T13:32:00Z",
    "departure": "2023-10-13T13:38:00Z"
  },
  {
    "train_number": "21047 ",
    "unit_number": "4024.0089",
    "name": "Herzogenburg (in Ho)",
    "abbr": "Ho  ",
    "lat": "48.2759",
    "lng": "15.6966",
    "arrival": "2023-10-13T12:28:00Z",
    "departure": "2023-10-13T12:29:00Z"
  },
  {
    "train_number": "21026 ",
    "unit_number": "4024.0089",
    "name": "St.Pölten Hbf (in Pb)",
    "abbr": "Pb  ",
    "lat": "48.2081",
    "lng": "15.6237",
    "arrival": "2023-10-13T11:49:00Z",
    "departure": "2023-10-13T12:12:00Z"
  },
  {
    "train_number": "21026 ",
    "unit_number": "4024.0089",
    "name": "Herzogenburg (in Ho)",
    "abbr": "Ho  ",
    "lat": "48.2759",
    "lng": "15.6966",
    "arrival": "2023-10-13T11:22:00Z",
    "departure": "2023-10-13T11:30:00Z"
  },
  {
    "train_number": "21026 ",
    "unit_number": "4024.0089",
    "name": "Tulln a. d. Donau (in Tu)",
    "abbr": "Tu  ",
    "lat": "48.3275",
    "lng": "16.0644",
    "arrival": "2023-10-13T10:22:00Z",
    "departure": "2023-10-13T10:27:00Z"
  },
  {
    "train_number": "21019 ",
    "unit_number": "4024.0089",
    "name": "Wien FJBf (in Wf)",
    "abbr": "Wf  ",
    "lat": "48.227",
    "lng": "16.3611",
    "arrival": "2023-10-13T07:21:00Z",
    "departure": "2023-10-13T09:39:00Z"
  },
  {
    "train_number": "86181 ",
    "unit_number": "4024.0089",
    "name": "Tulln a. d. Donau (in Tu)",
    "abbr": "Tu  ",
    "lat": "48.3275",
    "lng": "16.0644",
    "arrival": "2023-10-13T06:07:00Z",
    "departure": "2023-10-13T06:38:00Z"
  },
  {
    "train_number": "21008 ",
    "unit_number": "4024.0089",
    "name": "Tulln Stadt (in Tu)",
    "abbr": "Tus ",
    "lat": "48.3284",
    "lng": "16.0538",
    "arrival": "2023-10-13T06:00:00Z",
    "departure": "2023-10-13T06:05:00Z"
  },
  {
    "train_number": "21008 ",
    "unit_number": "4024.0089",
    "name": "Tulln a. d. Donau (in Tu)",
    "abbr": "Tu  ",
    "lat": "48.3275",
    "lng": "16.0644",
    "arrival": "2023-10-13T05:52:00Z",
    "departure": "2023-10-13T05:58:00Z"
  },
  {
    "train_number": "21009 ",
    "unit_number": "4024.0089",
    "name": "Wien FJBf (in Wf)",
    "abbr": "Wf  ",
    "lat": "48.227",
    "lng": "16.3611",
    "arrival": "2023-10-13T04:51:00Z",
    "departure": "2023-10-13T05:09:00Z"
  },
  {
    "train_number": "21009 ",
    "unit_number": "4024.0089",
    "name": "Tulln a. d. Donau (in Tu)",
    "abbr": "Tu  ",
    "lat": "48.3275",
    "lng": "16.0644",
    "arrival": "2023-10-13T04:02:00Z",
    "departure": "2023-10-13T04:08:00Z"
  },
  {
    "train_number": "21009 ",
    "unit_number": "4024.0089",
    "name": "Herzogenburg (in Ho)",
    "abbr": "Ho  ",
    "lat": "48.2759",
    "lng": "15.6966",
    "arrival": "2023-10-13T03:02:00Z",
    "departure": "2023-10-13T03:03:00Z"
  },
  {
    "train_number": "21062 ",
    "unit_number": "4024.0089",
    "name": "St.Pölten Hbf (in Pb)",
    "abbr": "Pb  ",
    "lat": "48.2081",
    "lng": "15.6237",
    "arrival": "2023-10-12T20:44:00Z",
    "departure": "2023-10-13T02:45:00Z"
  }
]
