[
  {
    "train_number": "25796 ",
    "unit_number": "4024.0014",
    "name": "Freilassing",
    "abbr": "MFL ",
    "lat": "47.8368",
    "lng": "12.9764",
    "arrival": "2023-08-29T19:43:00Z",
    "departure": "2023-08-30T03:17:00Z"
  },
  {
    "train_number": "25796 ",
    "unit_number": "4024.0014",
    "name": "Salzburg Liefering (in Sb)",
    "abbr": "Lfg ",
    "lat": "47.8229",
    "lng": "13.0021",
    "arrival": "2023-08-29T19:40:00Z",
    "departure": "2023-08-29T19:40:00Z"
  },
  {
    "train_number": "5080  ",
    "unit_number": "4024.0014",
    "name": "Salzburg Hbf (in Sb)",
    "abbr": "Sb  ",
    "lat": "47.8135",
    "lng": "13.0466",
    "arrival": "2023-08-29T18:26:00Z",
    "departure": "2023-08-29T19:32:00Z"
  },
  {
    "train_number": "5080  ",
    "unit_number": "4024.0014",
    "name": "Steindorf b.StraÃŸw. (in Nst)",
    "abbr": "Nst ",
    "lat": "47.9676",
    "lng": "13.2406",
    "arrival": null,
    "departure": "2023-08-29T17:59:00Z"
  },
  {
    "train_number": "5080  ",
    "unit_number": "4024.0014",
    "name": "Attnang-Puchheim",
    "abbr": "At  ",
    "lat": "48.0112",
    "lng": "13.7193",
    "arrival": "2023-08-29T16:50:00Z",
    "departure": "2023-08-29T16:51:00Z"
  },
  {
    "train_number": "5080  ",
    "unit_number": "4024.0014",
    "name": "Wels Hbf",
    "abbr": "We  ",
    "lat": "48.1662",
    "lng": "14.0273",
    "arrival": "2023-08-29T16:22:00Z",
    "departure": "2023-08-29T16:23:00Z"
  },
  {
    "train_number": "3964  ",
    "unit_number": "4024.0014",
    "name": "Linz Hbf",
    "abbr": "Lz  ",
    "lat": "48.2908",
    "lng": "14.2927",
    "arrival": "2023-08-29T15:24:00Z",
    "departure": "2023-08-29T16:00:00Z"
  },
  {
    "train_number": "3960  ",
    "unit_number": "4024.0014",
    "name": "Linz Hbf",
    "abbr": "Lz  ",
    "lat": "48.2908",
    "lng": "14.2927",
    "arrival": "2023-08-29T13:24:00Z",
    "departure": "2023-08-29T13:36:00Z"
  },
  {
    "train_number": "3956  ",
    "unit_number": "4024.0014",
    "name": "Linz Hbf",
    "abbr": "Lz  ",
    "lat": "48.2908",
    "lng": "14.2927",
    "arrival": "2023-08-29T12:24:00Z",
    "departure": "2023-08-29T12:36:00Z"
  },
  {
    "train_number": "3948  ",
    "unit_number": "4024.0014",
    "name": "Linz Hbf",
    "abbr": "Lz  ",
    "lat": "48.2908",
    "lng": "14.2927",
    "arrival": "2023-08-29T10:24:00Z",
    "departure": "2023-08-29T11:06:00Z"
  },
  {
    "train_number": "3646  ",
    "unit_number": "4024.0014",
    "name": "Linz Hbf",
    "abbr": "Lz  ",
    "lat": "48.2908",
    "lng": "14.2927",
    "arrival": "2023-08-29T08:04:00Z",
    "departure": "2023-08-29T09:36:00Z"
  },
  {
    "train_number": "3646  ",
    "unit_number": "4024.0014",
    "name": "Enns",
    "abbr": "Ens ",
    "lat": "48.2212",
    "lng": "14.4668",
    "arrival": "2023-08-29T07:47:00Z",
    "departure": "2023-08-29T07:48:00Z"
  },
  {
    "train_number": "3646  ",
    "unit_number": "4024.0014",
    "name": "St.Valentin (in Sv)",
    "abbr": "Sv  ",
    "lat": "48.1784",
    "lng": "14.5219",
    "arrival": "2023-08-29T07:37:00Z",
    "departure": "2023-08-29T07:41:00Z"
  },
  {
    "train_number": "3645  ",
    "unit_number": "4024.0014",
    "name": "St.Valentin (in Sv)",
    "abbr": "Sv  ",
    "lat": "48.1784",
    "lng": "14.5219",
    "arrival": "2023-08-29T06:17:00Z",
    "departure": "2023-08-29T06:21:00Z"
  },
  {
    "train_number": "3645  ",
    "unit_number": "4024.0014",
    "name": "Enns",
    "abbr": "Ens ",
    "lat": "48.2212",
    "lng": "14.4668",
    "arrival": "2023-08-29T06:10:00Z",
    "departure": "2023-08-29T06:11:00Z"
  },
  {
    "train_number": "3003  ",
    "unit_number": "4024.0014",
    "name": "Linz Hbf",
    "abbr": "Lz  ",
    "lat": "48.2908",
    "lng": "14.2927",
    "arrival": "2023-08-29T05:24:00Z",
    "departure": "2023-08-29T05:53:00Z"
  },
  {
    "train_number": "3003  ",
    "unit_number": "4024.0014",
    "name": "Wels Vbf-Einfgr (in Wev)",
    "abbr": "Wei ",
    "lat": "48.1765",
    "lng": "14.0501",
    "arrival": null,
    "departure": "2023-08-29T04:58:00Z"
  },
  {
    "train_number": "3003  ",
    "unit_number": "4024.0014",
    "name": "Wels Hbf",
    "abbr": "We  ",
    "lat": "48.1662",
    "lng": "14.0273",
    "arrival": "2023-08-29T04:36:00Z",
    "departure": "2023-08-29T04:55:00Z"
  },
  {
    "train_number": "3034  ",
    "unit_number": "4024.0014",
    "name": "Attnang-Puchheim",
    "abbr": "At  ",
    "lat": "48.0112",
    "lng": "13.7193",
    "arrival": "2023-08-28T20:50:00Z",
    "departure": "2023-08-29T04:10:00Z"
  }
]
