[
  {
    "train_number": "3432  ",
    "unit_number": "4024.0014",
    "name": "Stainach-Irdning",
    "abbr": "Rg  ",
    "lat": "47.5293",
    "lng": "14.1078",
    "arrival": "2023-09-13T20:15:00Z",
    "departure": "2023-09-13T21:45:00Z"
  },
  {
    "train_number": "3432  ",
    "unit_number": "4024.0014",
    "name": "Gmunden",
    "abbr": "Gz  ",
    "lat": "47.9254",
    "lng": "13.783",
    "arrival": "2023-09-13T18:23:00Z",
    "departure": "2023-09-13T18:24:00Z"
  },
  {
    "train_number": "3431  ",
    "unit_number": "4024.0014",
    "name": "Attnang-Puchheim",
    "abbr": "At  ",
    "lat": "48.0112",
    "lng": "13.7193",
    "arrival": "2023-09-13T17:51:00Z",
    "departure": "2023-09-13T18:08:00Z"
  },
  {
    "train_number": "3431  ",
    "unit_number": "4024.0014",
    "name": "Gmunden",
    "abbr": "Gz  ",
    "lat": "47.9254",
    "lng": "13.783",
    "arrival": "2023-09-13T17:35:00Z",
    "departure": "2023-09-13T17:36:00Z"
  },
  {
    "train_number": "4410  ",
    "unit_number": "4024.0014",
    "name": "Stainach-Irdning",
    "abbr": "Rg  ",
    "lat": "47.5293",
    "lng": "14.1078",
    "arrival": "2023-09-13T14:15:00Z",
    "departure": "2023-09-13T15:40:00Z"
  },
  {
    "train_number": "4410  ",
    "unit_number": "4024.0014",
    "name": "Gmunden",
    "abbr": "Gz  ",
    "lat": "47.9254",
    "lng": "13.783",
    "arrival": "2023-09-13T12:23:00Z",
    "departure": "2023-09-13T12:24:00Z"
  },
  {
    "train_number": "4410  ",
    "unit_number": "4024.0014",
    "name": "Attnang-Puchheim",
    "abbr": "At  ",
    "lat": "48.0112",
    "lng": "13.7193",
    "arrival": "2023-09-13T12:07:00Z",
    "departure": "2023-09-13T12:08:00Z"
  },
  {
    "train_number": "4410  ",
    "unit_number": "4024.0014",
    "name": "Wels Hbf",
    "abbr": "We  ",
    "lat": "48.1662",
    "lng": "14.0273",
    "arrival": "2023-09-13T11:33:00Z",
    "departure": "2023-09-13T11:34:00Z"
  },
  {
    "train_number": "3906  ",
    "unit_number": "4024.0014",
    "name": "Linz Hbf",
    "abbr": "Lz  ",
    "lat": "48.2908",
    "lng": "14.2927",
    "arrival": "2023-09-13T09:04:00Z",
    "departure": "2023-09-13T11:18:00Z"
  },
  {
    "train_number": "3906  ",
    "unit_number": "4024.0014",
    "name": "Kirchdorf a.d.Krems",
    "abbr": "Kik ",
    "lat": "47.9051",
    "lng": "14.1167",
    "arrival": "2023-09-13T08:20:00Z",
    "departure": "2023-09-13T08:21:00Z"
  },
  {
    "train_number": "3906  ",
    "unit_number": "4024.0014",
    "name": "Selzthal (in Sl)",
    "abbr": "Sl  ",
    "lat": "47.5505",
    "lng": "14.3134",
    "arrival": "2023-09-13T07:12:00Z",
    "departure": "2023-09-13T07:20:00Z"
  },
  {
    "train_number": "3901  ",
    "unit_number": "4024.0014",
    "name": "Selzthal (in Sl)",
    "abbr": "Sl  ",
    "lat": "47.5505",
    "lng": "14.3134",
    "arrival": "2023-09-13T06:40:00Z",
    "departure": "2023-09-13T06:44:00Z"
  },
  {
    "train_number": "3901  ",
    "unit_number": "4024.0014",
    "name": "Kirchdorf a.d.Krems",
    "abbr": "Kik ",
    "lat": "47.9051",
    "lng": "14.1167",
    "arrival": "2023-09-13T05:36:00Z",
    "departure": "2023-09-13T05:39:00Z"
  },
  {
    "train_number": "3924  ",
    "unit_number": "4024.0014",
    "name": "Linz Hbf",
    "abbr": "Lz  ",
    "lat": "48.2908",
    "lng": "14.2927",
    "arrival": "2023-09-13T04:24:00Z",
    "departure": "2023-09-13T04:57:00Z"
  },
  {
    "train_number": "3977  ",
    "unit_number": "4024.0014",
    "name": "Kirchdorf a.d.Krems",
    "abbr": "Kik ",
    "lat": "47.9051",
    "lng": "14.1167",
    "arrival": "2023-09-12T19:33:00Z",
    "departure": "2023-09-13T03:25:00Z"
  }
]
