[
  {
    "train_number": "3036  ",
    "unit_number": "4024.0014",
    "name": "Attnang-Puchheim",
    "abbr": "At  ",
    "lat": "48.0112",
    "lng": "13.7193",
    "arrival": "2023-09-09T21:50:00Z",
    "departure": "2023-09-10T04:10:00Z"
  },
  {
    "train_number": "3036  ",
    "unit_number": "4024.0014",
    "name": "Wels Hbf",
    "abbr": "We  ",
    "lat": "48.1662",
    "lng": "14.0273",
    "arrival": "2023-09-09T21:22:00Z",
    "departure": "2023-09-09T21:23:00Z"
  },
  {
    "train_number": "3984  ",
    "unit_number": "4024.0014",
    "name": "Linz Hbf",
    "abbr": "Lz  ",
    "lat": "48.2908",
    "lng": "14.2927",
    "arrival": "2023-09-09T20:24:00Z",
    "departure": "2023-09-09T21:00:00Z"
  },
  {
    "train_number": "3982  ",
    "unit_number": "4024.0014",
    "name": "Linz Hbf",
    "abbr": "Lz  ",
    "lat": "48.2908",
    "lng": "14.2927",
    "arrival": "2023-09-09T19:24:00Z",
    "departure": "2023-09-09T19:36:00Z"
  },
  {
    "train_number": "3980  ",
    "unit_number": "4024.0014",
    "name": "Linz Hbf",
    "abbr": "Lz  ",
    "lat": "48.2908",
    "lng": "14.2927",
    "arrival": "2023-09-09T18:24:00Z",
    "departure": "2023-09-09T18:36:00Z"
  },
  {
    "train_number": "3628  ",
    "unit_number": "4024.0014",
    "name": "Linz Hbf",
    "abbr": "Lz  ",
    "lat": "48.2908",
    "lng": "14.2927",
    "arrival": "2023-09-09T17:04:00Z",
    "departure": "2023-09-09T17:36:00Z"
  },
  {
    "train_number": "3628  ",
    "unit_number": "4024.0014",
    "name": "Enns",
    "abbr": "Ens ",
    "lat": "48.2212",
    "lng": "14.4668",
    "arrival": "2023-09-09T16:47:00Z",
    "departure": "2023-09-09T16:48:00Z"
  },
  {
    "train_number": "3628  ",
    "unit_number": "4024.0014",
    "name": "St.Valentin (in Sv)",
    "abbr": "Sv  ",
    "lat": "48.1784",
    "lng": "14.5219",
    "arrival": "2023-09-09T16:37:00Z",
    "departure": "2023-09-09T16:41:00Z"
  },
  {
    "train_number": "3665  ",
    "unit_number": "4024.0014",
    "name": "St.Valentin (in Sv)",
    "abbr": "Sv  ",
    "lat": "48.1784",
    "lng": "14.5219",
    "arrival": "2023-09-09T15:17:00Z",
    "departure": "2023-09-09T15:21:00Z"
  },
  {
    "train_number": "3665  ",
    "unit_number": "4024.0014",
    "name": "Enns",
    "abbr": "Ens ",
    "lat": "48.2212",
    "lng": "14.4668",
    "arrival": "2023-09-09T15:10:00Z",
    "departure": "2023-09-09T15:11:00Z"
  },
  {
    "train_number": "3652  ",
    "unit_number": "4024.0014",
    "name": "Linz Hbf",
    "abbr": "Lz  ",
    "lat": "48.2908",
    "lng": "14.2927",
    "arrival": "2023-09-09T11:04:00Z",
    "departure": "2023-09-09T14:53:00Z"
  },
  {
    "train_number": "3652  ",
    "unit_number": "4024.0014",
    "name": "Enns",
    "abbr": "Ens ",
    "lat": "48.2212",
    "lng": "14.4668",
    "arrival": "2023-09-09T10:47:00Z",
    "departure": "2023-09-09T10:48:00Z"
  },
  {
    "train_number": "3652  ",
    "unit_number": "4024.0014",
    "name": "St.Valentin (in Sv)",
    "abbr": "Sv  ",
    "lat": "48.1784",
    "lng": "14.5219",
    "arrival": "2023-09-09T10:37:00Z",
    "departure": "2023-09-09T10:41:00Z"
  },
  {
    "train_number": "3629  ",
    "unit_number": "4024.0014",
    "name": "St.Valentin (in Sv)",
    "abbr": "Sv  ",
    "lat": "48.1784",
    "lng": "14.5219",
    "arrival": "2023-09-09T09:17:00Z",
    "departure": "2023-09-09T09:21:00Z"
  },
  {
    "train_number": "3629  ",
    "unit_number": "4024.0014",
    "name": "Enns",
    "abbr": "Ens ",
    "lat": "48.2212",
    "lng": "14.4668",
    "arrival": "2023-09-09T09:10:00Z",
    "departure": "2023-09-09T09:11:00Z"
  },
  {
    "train_number": "3644  ",
    "unit_number": "4024.0014",
    "name": "Linz Hbf",
    "abbr": "Lz  ",
    "lat": "48.2908",
    "lng": "14.2927",
    "arrival": "2023-09-09T07:04:00Z",
    "departure": "2023-09-09T08:53:00Z"
  },
  {
    "train_number": "3644  ",
    "unit_number": "4024.0014",
    "name": "Enns",
    "abbr": "Ens ",
    "lat": "48.2212",
    "lng": "14.4668",
    "arrival": "2023-09-09T06:47:00Z",
    "departure": "2023-09-09T06:48:00Z"
  },
  {
    "train_number": "3644  ",
    "unit_number": "4024.0014",
    "name": "St.Valentin (in Sv)",
    "abbr": "Sv  ",
    "lat": "48.1784",
    "lng": "14.5219",
    "arrival": "2023-09-09T06:37:00Z",
    "departure": "2023-09-09T06:41:00Z"
  },
  {
    "train_number": "3660  ",
    "unit_number": "4024.0014",
    "name": "St.Valentin (in Sv)",
    "abbr": "Sv  ",
    "lat": "48.1784",
    "lng": "14.5219",
    "arrival": "2023-09-08T14:07:00Z",
    "departure": "2023-09-09T04:50:00Z"
  }
]
