[
  {
    "train_number": "3989  ",
    "unit_number": "4024.0014",
    "name": "Kirchdorf a.d.Krems",
    "abbr": "Kik ",
    "lat": "47.9051",
    "lng": "14.1167",
    "arrival": "2023-10-18T22:33:00Z",
    "departure": "2023-10-19T02:55:00Z"
  },
  {
    "train_number": "3634  ",
    "unit_number": "4024.0014",
    "name": "Linz Hbf",
    "abbr": "Lz  ",
    "lat": "48.2908",
    "lng": "14.2927",
    "arrival": "2023-10-18T20:04:00Z",
    "departure": "2023-10-18T21:36:00Z"
  },
  {
    "train_number": "3634  ",
    "unit_number": "4024.0014",
    "name": "Enns",
    "abbr": "Ens ",
    "lat": "48.2212",
    "lng": "14.4668",
    "arrival": "2023-10-18T19:47:00Z",
    "departure": "2023-10-18T19:48:00Z"
  },
  {
    "train_number": "3634  ",
    "unit_number": "4024.0014",
    "name": "St.Valentin (in Sv)",
    "abbr": "Sv  ",
    "lat": "48.1784",
    "lng": "14.5219",
    "arrival": "2023-10-18T19:39:00Z",
    "departure": "2023-10-18T19:41:00Z"
  },
  {
    "train_number": "3627  ",
    "unit_number": "4024.0014",
    "name": "St.Valentin (in Sv)",
    "abbr": "Sv  ",
    "lat": "48.1784",
    "lng": "14.5219",
    "arrival": "2023-10-18T15:47:00Z",
    "departure": "2023-10-18T15:51:00Z"
  },
  {
    "train_number": "3627  ",
    "unit_number": "4024.0014",
    "name": "Enns",
    "abbr": "Ens ",
    "lat": "48.2212",
    "lng": "14.4668",
    "arrival": "2023-10-18T15:40:00Z",
    "departure": "2023-10-18T15:41:00Z"
  },
  {
    "train_number": "4413  ",
    "unit_number": "4024.0014",
    "name": "Linz Hbf",
    "abbr": "Lz  ",
    "lat": "48.2908",
    "lng": "14.2927",
    "arrival": "2023-10-18T14:41:00Z",
    "departure": "2023-10-18T15:23:00Z"
  },
  {
    "train_number": "4413  ",
    "unit_number": "4024.0014",
    "name": "Wels Hbf",
    "abbr": "We  ",
    "lat": "48.1662",
    "lng": "14.0273",
    "arrival": "2023-10-18T14:24:00Z",
    "departure": "2023-10-18T14:25:00Z"
  },
  {
    "train_number": "4413  ",
    "unit_number": "4024.0014",
    "name": "Attnang-Puchheim",
    "abbr": "At  ",
    "lat": "48.0112",
    "lng": "13.7193",
    "arrival": "2023-10-18T13:51:00Z",
    "departure": "2023-10-18T13:53:00Z"
  },
  {
    "train_number": "4413  ",
    "unit_number": "4024.0014",
    "name": "Gmunden",
    "abbr": "Gz  ",
    "lat": "47.9254",
    "lng": "13.783",
    "arrival": "2023-10-18T13:35:00Z",
    "departure": "2023-10-18T13:36:00Z"
  },
  {
    "train_number": "3412  ",
    "unit_number": "4024.0014",
    "name": "Stainach-Irdning",
    "abbr": "Rg  ",
    "lat": "47.5293",
    "lng": "14.1078",
    "arrival": "2023-10-18T10:15:00Z",
    "departure": "2023-10-18T11:40:00Z"
  },
  {
    "train_number": "3412  ",
    "unit_number": "4024.0014",
    "name": "Gmunden",
    "abbr": "Gz  ",
    "lat": "47.9254",
    "lng": "13.783",
    "arrival": "2023-10-18T08:23:00Z",
    "departure": "2023-10-18T08:24:00Z"
  },
  {
    "train_number": "3411  ",
    "unit_number": "4024.0014",
    "name": "Attnang-Puchheim",
    "abbr": "At  ",
    "lat": "48.0112",
    "lng": "13.7193",
    "arrival": "2023-10-18T07:51:00Z",
    "departure": "2023-10-18T08:08:00Z"
  },
  {
    "train_number": "3411  ",
    "unit_number": "4024.0014",
    "name": "Gmunden",
    "abbr": "Gz  ",
    "lat": "47.9254",
    "lng": "13.783",
    "arrival": "2023-10-18T07:35:00Z",
    "departure": "2023-10-18T07:36:00Z"
  },
  {
    "train_number": "3442  ",
    "unit_number": "4024.0014",
    "name": "Stainach-Irdning",
    "abbr": "Rg  ",
    "lat": "47.5293",
    "lng": "14.1078",
    "arrival": "2023-10-18T05:05:00Z",
    "departure": "2023-10-18T05:13:00Z"
  }
]
