[
  {
    "train_number": "5261  ",
    "unit_number": "4024.0088",
    "name": "Innsbruck Hbf  (in I)",
    "abbr": "I   ",
    "lat": "47.2634",
    "lng": "11.4017",
    "arrival": "2023-09-30T13:41:00Z",
    "departure": "2023-09-30T13:51:00Z"
  },
  {
    "train_number": "5258  ",
    "unit_number": "4024.0088",
    "name": "Innsbruck Hbf  (in I)",
    "abbr": "I   ",
    "lat": "47.2634",
    "lng": "11.4017",
    "arrival": "2023-09-30T12:09:00Z",
    "departure": "2023-09-30T12:19:00Z"
  },
  {
    "train_number": "5258  ",
    "unit_number": "4024.0088",
    "name": "Hall in Tirol",
    "abbr": "H   ",
    "lat": "47.2769",
    "lng": "11.5013",
    "arrival": "2023-09-30T11:59:00Z",
    "departure": "2023-09-30T11:59:00Z"
  },
  {
    "train_number": "5258  ",
    "unit_number": "4024.0088",
    "name": "Schwaz",
    "abbr": "Sw  ",
    "lat": "47.3497",
    "lng": "11.7016",
    "arrival": "2023-09-30T11:43:00Z",
    "departure": "2023-09-30T11:43:00Z"
  },
  {
    "train_number": "5255  ",
    "unit_number": "4024.0088",
    "name": "Jenbach",
    "abbr": "Jb  ",
    "lat": "47.3884",
    "lng": "11.7783",
    "arrival": "2023-09-30T11:23:00Z",
    "departure": "2023-09-30T11:36:00Z"
  },
  {
    "train_number": "5255  ",
    "unit_number": "4024.0088",
    "name": "Schwaz",
    "abbr": "Sw  ",
    "lat": "47.3497",
    "lng": "11.7016",
    "arrival": "2023-09-30T11:16:00Z",
    "departure": "2023-09-30T11:17:00Z"
  },
  {
    "train_number": "5255  ",
    "unit_number": "4024.0088",
    "name": "Hall in Tirol",
    "abbr": "H   ",
    "lat": "47.2769",
    "lng": "11.5013",
    "arrival": "2023-09-30T11:00:00Z",
    "departure": "2023-09-30T11:01:00Z"
  },
  {
    "train_number": "5255  ",
    "unit_number": "4024.0088",
    "name": "Innsbruck Hbf  (in I)",
    "abbr": "I   ",
    "lat": "47.2634",
    "lng": "11.4017",
    "arrival": "2023-09-30T10:41:00Z",
    "departure": "2023-09-30T10:51:00Z"
  },
  {
    "train_number": "5252  ",
    "unit_number": "4024.0088",
    "name": "Innsbruck Hbf  (in I)",
    "abbr": "I   ",
    "lat": "47.2634",
    "lng": "11.4017",
    "arrival": "2023-09-30T09:09:00Z",
    "departure": "2023-09-30T09:19:00Z"
  },
  {
    "train_number": "5252  ",
    "unit_number": "4024.0088",
    "name": "Hall in Tirol",
    "abbr": "H   ",
    "lat": "47.2769",
    "lng": "11.5013",
    "arrival": "2023-09-30T08:59:00Z",
    "departure": "2023-09-30T08:59:00Z"
  },
  {
    "train_number": "5252  ",
    "unit_number": "4024.0088",
    "name": "Schwaz",
    "abbr": "Sw  ",
    "lat": "47.3497",
    "lng": "11.7016",
    "arrival": "2023-09-30T08:43:00Z",
    "departure": "2023-09-30T08:43:00Z"
  },
  {
    "train_number": "5249  ",
    "unit_number": "4024.0088",
    "name": "Jenbach",
    "abbr": "Jb  ",
    "lat": "47.3884",
    "lng": "11.7783",
    "arrival": "2023-09-30T08:23:00Z",
    "departure": "2023-09-30T08:36:00Z"
  },
  {
    "train_number": "5249  ",
    "unit_number": "4024.0088",
    "name": "Schwaz",
    "abbr": "Sw  ",
    "lat": "47.3497",
    "lng": "11.7016",
    "arrival": "2023-09-30T08:16:00Z",
    "departure": "2023-09-30T08:17:00Z"
  },
  {
    "train_number": "5249  ",
    "unit_number": "4024.0088",
    "name": "Hall in Tirol",
    "abbr": "H   ",
    "lat": "47.2769",
    "lng": "11.5013",
    "arrival": "2023-09-30T08:00:00Z",
    "departure": "2023-09-30T08:01:00Z"
  },
  {
    "train_number": "1826  ",
    "unit_number": "4024.0088",
    "name": "Innsbruck Hbf  (in I)",
    "abbr": "I   ",
    "lat": "47.2634",
    "lng": "11.4017",
    "arrival": "2023-09-30T07:38:00Z",
    "departure": "2023-09-30T07:51:00Z"
  },
  {
    "train_number": "5246  ",
    "unit_number": "4024.0088",
    "name": "Brennero/Brenner",
    "abbr": "Be  ",
    "lat": "47.0022",
    "lng": "11.5053",
    "arrival": "2023-09-30T06:58:00Z",
    "departure": "2023-09-30T07:02:00Z"
  },
  {
    "train_number": "5246  ",
    "unit_number": "4024.0088",
    "name": "Innsbruck Hbf  (in I)",
    "abbr": "I   ",
    "lat": "47.2634",
    "lng": "11.4017",
    "arrival": "2023-09-30T06:10:00Z",
    "departure": "2023-09-30T06:19:00Z"
  },
  {
    "train_number": "5246  ",
    "unit_number": "4024.0088",
    "name": "Hall in Tirol",
    "abbr": "H   ",
    "lat": "47.2769",
    "lng": "11.5013",
    "arrival": "2023-09-30T06:00:00Z",
    "departure": "2023-09-30T06:00:00Z"
  },
  {
    "train_number": "5246  ",
    "unit_number": "4024.0088",
    "name": "Schwaz",
    "abbr": "Sw  ",
    "lat": "47.3497",
    "lng": "11.7016",
    "arrival": "2023-09-30T05:43:00Z",
    "departure": "2023-09-30T05:43:00Z"
  },
  {
    "train_number": "5273  ",
    "unit_number": "4024.0088",
    "name": "Jenbach",
    "abbr": "Jb  ",
    "lat": "47.3884",
    "lng": "11.7783",
    "arrival": "2023-09-29T20:23:00Z",
    "departure": "2023-09-30T05:36:00Z"
  }
]
