[
  {
    "train_number": "2485  ",
    "unit_number": "4024.0014",
    "name": "St.Valentin (in Sv)",
    "abbr": "Sv  ",
    "lat": "48.1784",
    "lng": "14.5219",
    "arrival": "2023-09-23T17:17:00Z",
    "departure": "2023-09-23T17:23:00Z"
  },
  {
    "train_number": "2485  ",
    "unit_number": "4024.0014",
    "name": "Enns",
    "abbr": "Ens ",
    "lat": "48.2212",
    "lng": "14.4668",
    "arrival": "2023-09-23T17:10:00Z",
    "departure": "2023-09-23T17:11:00Z"
  },
  {
    "train_number": "3912  ",
    "unit_number": "4024.0014",
    "name": "Linz Hbf",
    "abbr": "Lz  ",
    "lat": "48.2908",
    "lng": "14.2927",
    "arrival": "2023-09-23T15:04:00Z",
    "departure": "2023-09-23T16:53:00Z"
  },
  {
    "train_number": "3912  ",
    "unit_number": "4024.0014",
    "name": "Kirchdorf a.d.Krems",
    "abbr": "Kik ",
    "lat": "47.9051",
    "lng": "14.1167",
    "arrival": "2023-09-23T14:20:00Z",
    "departure": "2023-09-23T14:21:00Z"
  },
  {
    "train_number": "3907  ",
    "unit_number": "4024.0014",
    "name": "Selzthal (in Sl)",
    "abbr": "Sl  ",
    "lat": "47.5505",
    "lng": "14.3134",
    "arrival": "2023-09-23T12:40:00Z",
    "departure": "2023-09-23T13:20:00Z"
  },
  {
    "train_number": "3907  ",
    "unit_number": "4024.0014",
    "name": "Kirchdorf a.d.Krems",
    "abbr": "Kik ",
    "lat": "47.9051",
    "lng": "14.1167",
    "arrival": "2023-09-23T11:38:00Z",
    "departure": "2023-09-23T11:39:00Z"
  },
  {
    "train_number": "3906  ",
    "unit_number": "4024.0014",
    "name": "Linz Hbf",
    "abbr": "Lz  ",
    "lat": "48.2908",
    "lng": "14.2927",
    "arrival": "2023-09-23T09:04:00Z",
    "departure": "2023-09-23T10:57:00Z"
  },
  {
    "train_number": "3906  ",
    "unit_number": "4024.0014",
    "name": "Kirchdorf a.d.Krems",
    "abbr": "Kik ",
    "lat": "47.9051",
    "lng": "14.1167",
    "arrival": "2023-09-23T08:20:00Z",
    "departure": "2023-09-23T08:21:00Z"
  },
  {
    "train_number": "3901  ",
    "unit_number": "4024.0014",
    "name": "Selzthal (in Sl)",
    "abbr": "Sl  ",
    "lat": "47.5505",
    "lng": "14.3134",
    "arrival": "2023-09-23T06:40:00Z",
    "departure": "2023-09-23T07:20:00Z"
  },
  {
    "train_number": "3901  ",
    "unit_number": "4024.0014",
    "name": "Kirchdorf a.d.Krems",
    "abbr": "Kik ",
    "lat": "47.9051",
    "lng": "14.1167",
    "arrival": "2023-09-23T05:36:00Z",
    "departure": "2023-09-23T05:39:00Z"
  },
  {
    "train_number": "2054  ",
    "unit_number": "4024.0014",
    "name": "Linz Hbf",
    "abbr": "Lz  ",
    "lat": "48.2908",
    "lng": "14.2927",
    "arrival": "2023-09-23T04:35:00Z",
    "departure": "2023-09-23T04:57:00Z"
  },
  {
    "train_number": "2054  ",
    "unit_number": "4024.0014",
    "name": "Enns",
    "abbr": "Ens ",
    "lat": "48.2212",
    "lng": "14.4668",
    "arrival": "2023-09-23T04:18:00Z",
    "departure": "2023-09-23T04:19:00Z"
  },
  {
    "train_number": "3664  ",
    "unit_number": "4024.0014",
    "name": "St.Valentin (in Sv)",
    "abbr": "Sv  ",
    "lat": "48.1784",
    "lng": "14.5219",
    "arrival": "2023-09-22T16:07:00Z",
    "departure": "2023-09-23T04:12:00Z"
  }
]
