[
  {
    "train_number": "5220  ",
    "unit_number": "4024.0120",
    "name": "Innsbruck Hbf  (in I)",
    "abbr": "I   ",
    "lat": "47.2634",
    "lng": "11.4017",
    "arrival": "2023-09-20T12:39:00Z",
    "departure": "2023-09-20T12:59:00Z"
  },
  {
    "train_number": "5220  ",
    "unit_number": "4024.0120",
    "name": "Hall in Tirol",
    "abbr": "H   ",
    "lat": "47.2769",
    "lng": "11.5013",
    "arrival": "2023-09-20T12:29:00Z",
    "departure": "2023-09-20T12:30:00Z"
  },
  {
    "train_number": "5220  ",
    "unit_number": "4024.0120",
    "name": "Schwaz",
    "abbr": "Sw  ",
    "lat": "47.3497",
    "lng": "11.7016",
    "arrival": "2023-09-20T12:18:00Z",
    "departure": "2023-09-20T12:19:00Z"
  },
  {
    "train_number": "5220  ",
    "unit_number": "4024.0120",
    "name": "Jenbach",
    "abbr": "Jb  ",
    "lat": "47.3884",
    "lng": "11.7783",
    "arrival": "2023-09-20T12:13:00Z",
    "departure": "2023-09-20T12:14:00Z"
  },
  {
    "train_number": "5220  ",
    "unit_number": "4024.0120",
    "name": "Wörgl Hbf-T. N. (in W)",
    "abbr": "Wtn ",
    "lat": "47.4824",
    "lng": "12.033",
    "arrival": null,
    "departure": "2023-09-20T11:56:00Z"
  },
  {
    "train_number": "5026  ",
    "unit_number": "4024.0120",
    "name": "Wörgl Hbf (in W)",
    "abbr": "W   ",
    "lat": "47.4912",
    "lng": "12.0603",
    "arrival": "2023-09-20T11:40:00Z",
    "departure": "2023-09-20T11:54:00Z"
  },
  {
    "train_number": "5026  ",
    "unit_number": "4024.0120",
    "name": "Kitzbühel",
    "abbr": "Kzb ",
    "lat": "47.4542",
    "lng": "12.391",
    "arrival": "2023-09-20T11:00:00Z",
    "departure": "2023-09-20T11:01:00Z"
  },
  {
    "train_number": "5025  ",
    "unit_number": "4024.0120",
    "name": "Kitzbühel",
    "abbr": "Kzb ",
    "lat": "47.4542",
    "lng": "12.391",
    "arrival": "2023-09-20T10:01:00Z",
    "departure": "2023-09-20T10:02:00Z"
  },
  {
    "train_number": "5309  ",
    "unit_number": "4024.0120",
    "name": "Wörgl Hbf (in W)",
    "abbr": "W   ",
    "lat": "47.4912",
    "lng": "12.0603",
    "arrival": "2023-09-20T09:07:00Z",
    "departure": "2023-09-20T09:22:00Z"
  },
  {
    "train_number": "5309  ",
    "unit_number": "4024.0120",
    "name": "Wörgl Hbf-T. N. (in W)",
    "abbr": "Wtn ",
    "lat": "47.4824",
    "lng": "12.033",
    "arrival": null,
    "departure": "2023-09-20T09:04:00Z"
  },
  {
    "train_number": "5309  ",
    "unit_number": "4024.0120",
    "name": "Jenbach",
    "abbr": "Jb  ",
    "lat": "47.3884",
    "lng": "11.7783",
    "arrival": "2023-09-20T08:47:00Z",
    "departure": "2023-09-20T08:48:00Z"
  },
  {
    "train_number": "5309  ",
    "unit_number": "4024.0120",
    "name": "Schwaz",
    "abbr": "Sw  ",
    "lat": "47.3497",
    "lng": "11.7016",
    "arrival": "2023-09-20T08:40:00Z",
    "departure": "2023-09-20T08:42:00Z"
  },
  {
    "train_number": "5309  ",
    "unit_number": "4024.0120",
    "name": "Hall in Tirol",
    "abbr": "H   ",
    "lat": "47.2769",
    "lng": "11.5013",
    "arrival": "2023-09-20T08:29:00Z",
    "departure": "2023-09-20T08:30:00Z"
  },
  {
    "train_number": "5309  ",
    "unit_number": "4024.0120",
    "name": "Innsbruck Hbf  (in I)",
    "abbr": "I   ",
    "lat": "47.2634",
    "lng": "11.4017",
    "arrival": "2023-09-20T08:13:00Z",
    "departure": "2023-09-20T08:21:00Z"
  },
  {
    "train_number": "5246  ",
    "unit_number": "4024.0120",
    "name": "Brennero/Brenner",
    "abbr": "Be  ",
    "lat": "47.0022",
    "lng": "11.5053",
    "arrival": "2023-09-20T06:58:00Z",
    "departure": "2023-09-20T07:33:00Z"
  },
  {
    "train_number": "5205  ",
    "unit_number": "4024.0120",
    "name": "Innsbruck Hbf  (in I)",
    "abbr": "I   ",
    "lat": "47.2634",
    "lng": "11.4017",
    "arrival": "2023-09-20T06:11:00Z",
    "departure": "2023-09-20T06:19:00Z"
  },
  {
    "train_number": "5204  ",
    "unit_number": "4024.0120",
    "name": "Brennero/Brenner",
    "abbr": "Be  ",
    "lat": "47.0022",
    "lng": "11.5053",
    "arrival": "2023-09-20T05:28:00Z",
    "departure": "2023-09-20T05:33:00Z"
  },
  {
    "train_number": "5204  ",
    "unit_number": "4024.0120",
    "name": "Innsbruck Hbf  (in I)",
    "abbr": "I   ",
    "lat": "47.2634",
    "lng": "11.4017",
    "arrival": "2023-09-20T04:43:00Z",
    "departure": "2023-09-20T04:49:00Z"
  },
  {
    "train_number": "5201  ",
    "unit_number": "4024.0120",
    "name": "Innsbruck Hbf  (in I)",
    "abbr": "I   ",
    "lat": "47.2634",
    "lng": "11.4017",
    "arrival": "2023-09-20T04:07:00Z",
    "departure": "2023-09-20T04:13:00Z"
  },
  {
    "train_number": "5276  ",
    "unit_number": "4024.0120",
    "name": "Brennero/Brenner",
    "abbr": "Be  ",
    "lat": "47.0022",
    "lng": "11.5053",
    "arrival": "2023-09-19T22:44:00Z",
    "departure": "2023-09-20T03:27:00Z"
  }
]
