[
  {
    "train_number": "5920  ",
    "unit_number": "4024.0014",
    "name": "Sch채rding (in Sch)",
    "abbr": "Sch ",
    "lat": "48.4638",
    "lng": "13.4424",
    "arrival": "2023-10-29T21:08:00Z",
    "departure": "2023-10-29T21:09:00Z"
  },
  {
    "train_number": "5920  ",
    "unit_number": "4024.0014",
    "name": "Neumarkt-Kallham (in Neu)",
    "abbr": "Neu ",
    "lat": "48.2714",
    "lng": "13.7245",
    "arrival": "2023-10-29T20:35:00Z",
    "departure": "2023-10-29T20:36:00Z"
  },
  {
    "train_number": "5920  ",
    "unit_number": "4024.0014",
    "name": "Wels Hbf",
    "abbr": "We  ",
    "lat": "48.1662",
    "lng": "14.0273",
    "arrival": "2023-10-29T20:07:00Z",
    "departure": "2023-10-29T20:09:00Z"
  },
  {
    "train_number": "5927  ",
    "unit_number": "4024.0014",
    "name": "Linz Hbf",
    "abbr": "Lz  ",
    "lat": "48.2908",
    "lng": "14.2927",
    "arrival": "2023-10-29T19:10:00Z",
    "departure": "2023-10-29T19:50:00Z"
  },
  {
    "train_number": "5927  ",
    "unit_number": "4024.0014",
    "name": "Wels Hbf",
    "abbr": "We  ",
    "lat": "48.1662",
    "lng": "14.0273",
    "arrival": "2023-10-29T18:51:00Z",
    "departure": "2023-10-29T18:53:00Z"
  },
  {
    "train_number": "5927  ",
    "unit_number": "4024.0014",
    "name": "Neumarkt-Kallham (in Neu)",
    "abbr": "Neu ",
    "lat": "48.2714",
    "lng": "13.7245",
    "arrival": "2023-10-29T18:23:00Z",
    "departure": "2023-10-29T18:24:00Z"
  },
  {
    "train_number": "5927  ",
    "unit_number": "4024.0014",
    "name": "Sch채rding (in Sch)",
    "abbr": "Sch ",
    "lat": "48.4638",
    "lng": "13.4424",
    "arrival": "2023-10-29T17:51:00Z",
    "departure": "2023-10-29T17:52:00Z"
  },
  {
    "train_number": "5912  ",
    "unit_number": "4024.0014",
    "name": "Passau Hbf",
    "abbr": "Pa  ",
    "lat": "48.5737",
    "lng": "13.4503",
    "arrival": "2023-10-29T17:22:00Z",
    "departure": "2023-10-29T17:40:00Z"
  },
  {
    "train_number": "5912  ",
    "unit_number": "4024.0014",
    "name": "Sch채rding (in Sch)",
    "abbr": "Sch ",
    "lat": "48.4638",
    "lng": "13.4424",
    "arrival": "2023-10-29T17:08:00Z",
    "departure": "2023-10-29T17:09:00Z"
  },
  {
    "train_number": "5912  ",
    "unit_number": "4024.0014",
    "name": "Neumarkt-Kallham (in Neu)",
    "abbr": "Neu ",
    "lat": "48.2714",
    "lng": "13.7245",
    "arrival": "2023-10-29T16:35:00Z",
    "departure": "2023-10-29T16:36:00Z"
  },
  {
    "train_number": "5912  ",
    "unit_number": "4024.0014",
    "name": "Wels Hbf",
    "abbr": "We  ",
    "lat": "48.1662",
    "lng": "14.0273",
    "arrival": "2023-10-29T16:07:00Z",
    "departure": "2023-10-29T16:09:00Z"
  },
  {
    "train_number": "3962  ",
    "unit_number": "4024.0014",
    "name": "Linz Hbf",
    "abbr": "Lz  ",
    "lat": "48.2908",
    "lng": "14.2927",
    "arrival": "2023-10-29T15:24:00Z",
    "departure": "2023-10-29T15:50:00Z"
  },
  {
    "train_number": "3949  ",
    "unit_number": "4024.0014",
    "name": "Kirchdorf a.d.Krems",
    "abbr": "Kik ",
    "lat": "47.9051",
    "lng": "14.1167",
    "arrival": "2023-10-29T12:33:00Z",
    "departure": "2023-10-29T14:25:00Z"
  },
  {
    "train_number": "3948  ",
    "unit_number": "4024.0014",
    "name": "Linz Hbf",
    "abbr": "Lz  ",
    "lat": "48.2908",
    "lng": "14.2927",
    "arrival": "2023-10-29T11:24:00Z",
    "departure": "2023-10-29T11:36:00Z"
  },
  {
    "train_number": "3933  ",
    "unit_number": "4024.0014",
    "name": "Kirchdorf a.d.Krems",
    "abbr": "Kik ",
    "lat": "47.9051",
    "lng": "14.1167",
    "arrival": "2023-10-29T08:33:00Z",
    "departure": "2023-10-29T10:25:00Z"
  },
  {
    "train_number": "5909  ",
    "unit_number": "4024.0014",
    "name": "Linz Hbf",
    "abbr": "Lz  ",
    "lat": "48.2908",
    "lng": "14.2927",
    "arrival": "2023-10-29T07:24:00Z",
    "departure": "2023-10-29T07:36:00Z"
  },
  {
    "train_number": "5909  ",
    "unit_number": "4024.0014",
    "name": "Wels Hbf",
    "abbr": "We  ",
    "lat": "48.1662",
    "lng": "14.0273",
    "arrival": "2023-10-29T07:04:00Z",
    "departure": "2023-10-29T07:06:00Z"
  },
  {
    "train_number": "5909  ",
    "unit_number": "4024.0014",
    "name": "Neumarkt-Kallham (in Neu)",
    "abbr": "Neu ",
    "lat": "48.2714",
    "lng": "13.7245",
    "arrival": "2023-10-29T06:34:00Z",
    "departure": "2023-10-29T06:36:00Z"
  },
  {
    "train_number": "5909  ",
    "unit_number": "4024.0014",
    "name": "Sch채rding (in Sch)",
    "abbr": "Sch ",
    "lat": "48.4638",
    "lng": "13.4424",
    "arrival": "2023-10-29T06:02:00Z",
    "departure": "2023-10-29T06:03:00Z"
  },
  {
    "train_number": "5918  ",
    "unit_number": "4024.0014",
    "name": "Passau Hbf",
    "abbr": "Pa  ",
    "lat": "48.5737",
    "lng": "13.4503",
    "arrival": "2023-10-28T19:22:00Z",
    "departure": "2023-10-29T05:50:00Z"
  }
]
