[
  {
    "train_number": "5165  ",
    "unit_number": "4024.0088",
    "name": "Schwaz",
    "abbr": "Sw  ",
    "lat": "47.3497",
    "lng": "11.7016",
    "arrival": "2023-10-28T15:31:00Z",
    "departure": "2023-10-28T15:32:00Z"
  },
  {
    "train_number": "5165  ",
    "unit_number": "4024.0088",
    "name": "Hall in Tirol",
    "abbr": "H   ",
    "lat": "47.2769",
    "lng": "11.5013",
    "arrival": "2023-10-28T15:15:00Z",
    "departure": "2023-10-28T15:16:00Z"
  },
  {
    "train_number": "5165  ",
    "unit_number": "4024.0088",
    "name": "Innsbruck Hbf  (in I)",
    "abbr": "I   ",
    "lat": "47.2634",
    "lng": "11.4017",
    "arrival": "2023-10-28T15:01:00Z",
    "departure": "2023-10-28T15:05:00Z"
  },
  {
    "train_number": "5160  ",
    "unit_number": "4024.0088",
    "name": "Innsbruck Hbf  (in I)",
    "abbr": "I   ",
    "lat": "47.2634",
    "lng": "11.4017",
    "arrival": "2023-10-28T12:55:00Z",
    "departure": "2023-10-28T12:59:00Z"
  },
  {
    "train_number": "5160  ",
    "unit_number": "4024.0088",
    "name": "Hall in Tirol",
    "abbr": "H   ",
    "lat": "47.2769",
    "lng": "11.5013",
    "arrival": "2023-10-28T12:44:00Z",
    "departure": "2023-10-28T12:44:00Z"
  },
  {
    "train_number": "5160  ",
    "unit_number": "4024.0088",
    "name": "Schwaz",
    "abbr": "Sw  ",
    "lat": "47.3497",
    "lng": "11.7016",
    "arrival": "2023-10-28T12:28:00Z",
    "departure": "2023-10-28T12:28:00Z"
  },
  {
    "train_number": "5157  ",
    "unit_number": "4024.0088",
    "name": "Jenbach",
    "abbr": "Jb  ",
    "lat": "47.3884",
    "lng": "11.7783",
    "arrival": "2023-10-28T11:38:00Z",
    "departure": "2023-10-28T12:21:00Z"
  },
  {
    "train_number": "5157  ",
    "unit_number": "4024.0088",
    "name": "Schwaz",
    "abbr": "Sw  ",
    "lat": "47.3497",
    "lng": "11.7016",
    "arrival": "2023-10-28T11:31:00Z",
    "departure": "2023-10-28T11:32:00Z"
  },
  {
    "train_number": "5157  ",
    "unit_number": "4024.0088",
    "name": "Hall in Tirol",
    "abbr": "H   ",
    "lat": "47.2769",
    "lng": "11.5013",
    "arrival": "2023-10-28T11:15:00Z",
    "departure": "2023-10-28T11:16:00Z"
  },
  {
    "train_number": "5157  ",
    "unit_number": "4024.0088",
    "name": "Innsbruck Hbf  (in I)",
    "abbr": "I   ",
    "lat": "47.2634",
    "lng": "11.4017",
    "arrival": "2023-10-28T11:01:00Z",
    "departure": "2023-10-28T11:05:00Z"
  },
  {
    "train_number": "5152  ",
    "unit_number": "4024.0088",
    "name": "Innsbruck Hbf  (in I)",
    "abbr": "I   ",
    "lat": "47.2634",
    "lng": "11.4017",
    "arrival": "2023-10-28T08:55:00Z",
    "departure": "2023-10-28T08:59:00Z"
  },
  {
    "train_number": "5152  ",
    "unit_number": "4024.0088",
    "name": "Hall in Tirol",
    "abbr": "H   ",
    "lat": "47.2769",
    "lng": "11.5013",
    "arrival": "2023-10-28T08:44:00Z",
    "departure": "2023-10-28T08:44:00Z"
  },
  {
    "train_number": "5152  ",
    "unit_number": "4024.0088",
    "name": "Schwaz",
    "abbr": "Sw  ",
    "lat": "47.3497",
    "lng": "11.7016",
    "arrival": "2023-10-28T08:28:00Z",
    "departure": "2023-10-28T08:28:00Z"
  },
  {
    "train_number": "5149  ",
    "unit_number": "4024.0088",
    "name": "Jenbach",
    "abbr": "Jb  ",
    "lat": "47.3884",
    "lng": "11.7783",
    "arrival": "2023-10-28T07:38:00Z",
    "departure": "2023-10-28T08:21:00Z"
  },
  {
    "train_number": "5149  ",
    "unit_number": "4024.0088",
    "name": "Schwaz",
    "abbr": "Sw  ",
    "lat": "47.3497",
    "lng": "11.7016",
    "arrival": "2023-10-28T07:31:00Z",
    "departure": "2023-10-28T07:32:00Z"
  },
  {
    "train_number": "5149  ",
    "unit_number": "4024.0088",
    "name": "Hall in Tirol",
    "abbr": "H   ",
    "lat": "47.2769",
    "lng": "11.5013",
    "arrival": "2023-10-28T07:15:00Z",
    "departure": "2023-10-28T07:16:00Z"
  },
  {
    "train_number": "5149  ",
    "unit_number": "4024.0088",
    "name": "Innsbruck Hbf  (in I)",
    "abbr": "I   ",
    "lat": "47.2634",
    "lng": "11.4017",
    "arrival": "2023-10-28T07:01:00Z",
    "departure": "2023-10-28T07:05:00Z"
  },
  {
    "train_number": "5203  ",
    "unit_number": "4024.0088",
    "name": "Innsbruck Hbf  (in I)",
    "abbr": "I   ",
    "lat": "47.2634",
    "lng": "11.4017",
    "arrival": "2023-10-28T05:08:00Z",
    "departure": "2023-10-28T05:13:00Z"
  },
  {
    "train_number": "5240  ",
    "unit_number": "4024.0088",
    "name": "Brennero/Brenner",
    "abbr": "Be  ",
    "lat": "47.0022",
    "lng": "11.5053",
    "arrival": "2023-10-28T03:59:00Z",
    "departure": "2023-10-28T04:28:00Z"
  },
  {
    "train_number": "5231  ",
    "unit_number": "4024.0088",
    "name": "Innsbruck Hbf  (in I)",
    "abbr": "I   ",
    "lat": "47.2634",
    "lng": "11.4017",
    "arrival": "2023-10-27T18:11:00Z",
    "departure": "2023-10-28T03:19:00Z"
  }
]
