[
  {
    "train_number": "5218  ",
    "unit_number": "4024.0088",
    "name": "Jenbach",
    "abbr": "Jb  ",
    "lat": "47.3884",
    "lng": "11.7783",
    "arrival": "2023-11-03T12:13:00Z",
    "departure": "2023-11-03T12:14:00Z"
  },
  {
    "train_number": "5218  ",
    "unit_number": "4024.0088",
    "name": "Wörgl Hbf-T. N. (in W)",
    "abbr": "Wtn ",
    "lat": "47.4824",
    "lng": "12.033",
    "arrival": null,
    "departure": "2023-11-03T11:56:00Z"
  },
  {
    "train_number": "5024  ",
    "unit_number": "4024.0088",
    "name": "Wörgl Hbf (in W)",
    "abbr": "W   ",
    "lat": "47.4912",
    "lng": "12.0603",
    "arrival": "2023-11-03T11:40:00Z",
    "departure": "2023-11-03T11:54:00Z"
  },
  {
    "train_number": "5024  ",
    "unit_number": "4024.0088",
    "name": "Kitzbühel",
    "abbr": "Kzb ",
    "lat": "47.4542",
    "lng": "12.391",
    "arrival": "2023-11-03T11:00:00Z",
    "departure": "2023-11-03T11:01:00Z"
  },
  {
    "train_number": "5023  ",
    "unit_number": "4024.0088",
    "name": "Kitzbühel",
    "abbr": "Kzb ",
    "lat": "47.4542",
    "lng": "12.391",
    "arrival": "2023-11-03T10:01:00Z",
    "departure": "2023-11-03T10:02:00Z"
  },
  {
    "train_number": "5307  ",
    "unit_number": "4024.0088",
    "name": "Wörgl Hbf (in W)",
    "abbr": "W   ",
    "lat": "47.4912",
    "lng": "12.0603",
    "arrival": "2023-11-03T09:06:00Z",
    "departure": "2023-11-03T09:22:00Z"
  },
  {
    "train_number": "5307  ",
    "unit_number": "4024.0088",
    "name": "Wörgl Hbf-T. N. (in W)",
    "abbr": "Wtn ",
    "lat": "47.4824",
    "lng": "12.033",
    "arrival": null,
    "departure": "2023-11-03T09:03:00Z"
  },
  {
    "train_number": "5307  ",
    "unit_number": "4024.0088",
    "name": "Jenbach",
    "abbr": "Jb  ",
    "lat": "47.3884",
    "lng": "11.7783",
    "arrival": "2023-11-03T08:46:00Z",
    "departure": "2023-11-03T08:47:00Z"
  },
  {
    "train_number": "5307  ",
    "unit_number": "4024.0088",
    "name": "Schwaz",
    "abbr": "Sw  ",
    "lat": "47.3497",
    "lng": "11.7016",
    "arrival": "2023-11-03T08:40:00Z",
    "departure": "2023-11-03T08:41:00Z"
  },
  {
    "train_number": "5307  ",
    "unit_number": "4024.0088",
    "name": "Hall in Tirol",
    "abbr": "H   ",
    "lat": "47.2769",
    "lng": "11.5013",
    "arrival": "2023-11-03T08:29:00Z",
    "departure": "2023-11-03T08:30:00Z"
  },
  {
    "train_number": "5307  ",
    "unit_number": "4024.0088",
    "name": "Innsbruck Hbf  (in I)",
    "abbr": "I   ",
    "lat": "47.2634",
    "lng": "11.4017",
    "arrival": "2023-11-03T08:11:00Z",
    "departure": "2023-11-03T08:20:00Z"
  },
  {
    "train_number": "5206  ",
    "unit_number": "4024.0088",
    "name": "Brennero/Brenner",
    "abbr": "Be  ",
    "lat": "47.0022",
    "lng": "11.5053",
    "arrival": "2023-11-03T07:28:00Z",
    "departure": "2023-11-03T07:33:00Z"
  },
  {
    "train_number": "5107  ",
    "unit_number": "4024.0088",
    "name": "Innsbruck Hbf  (in I)",
    "abbr": "I   ",
    "lat": "47.2634",
    "lng": "11.4017",
    "arrival": "2023-11-03T06:42:00Z",
    "departure": "2023-11-03T06:49:00Z"
  },
  {
    "train_number": "5242  ",
    "unit_number": "4024.0088",
    "name": "Innsbruck Hbf  (in I)",
    "abbr": "I   ",
    "lat": "47.2634",
    "lng": "11.4017",
    "arrival": "2023-11-03T05:39:00Z",
    "departure": "2023-11-03T05:47:00Z"
  },
  {
    "train_number": "5242  ",
    "unit_number": "4024.0088",
    "name": "Hall in Tirol",
    "abbr": "H   ",
    "lat": "47.2769",
    "lng": "11.5013",
    "arrival": "2023-11-03T05:28:00Z",
    "departure": "2023-11-03T05:29:00Z"
  },
  {
    "train_number": "5242  ",
    "unit_number": "4024.0088",
    "name": "Schwaz",
    "abbr": "Sw  ",
    "lat": "47.3497",
    "lng": "11.7016",
    "arrival": "2023-11-03T05:17:00Z",
    "departure": "2023-11-03T05:18:00Z"
  },
  {
    "train_number": "5242  ",
    "unit_number": "4024.0088",
    "name": "Jenbach",
    "abbr": "Jb  ",
    "lat": "47.3884",
    "lng": "11.7783",
    "arrival": "2023-11-03T05:12:00Z",
    "departure": "2023-11-03T05:13:00Z"
  },
  {
    "train_number": "5242  ",
    "unit_number": "4024.0088",
    "name": "Wörgl Hbf-T. N. (in W)",
    "abbr": "Wtn ",
    "lat": "47.4824",
    "lng": "12.033",
    "arrival": null,
    "departure": "2023-11-03T04:55:00Z"
  },
  {
    "train_number": "5242  ",
    "unit_number": "4024.0088",
    "name": "Wörgl Hbf (in W)",
    "abbr": "W   ",
    "lat": "47.4912",
    "lng": "12.0603",
    "arrival": "2023-11-03T04:52:00Z",
    "departure": "2023-11-03T04:53:00Z"
  },
  {
    "train_number": "5333  ",
    "unit_number": "4024.0088",
    "name": "Kufstein",
    "abbr": "K   ",
    "lat": "47.5833",
    "lng": "12.1657",
    "arrival": "2023-11-02T22:27:00Z",
    "departure": "2023-11-03T04:39:00Z"
  }
]
