[
  {
    "train_number": "5222  ",
    "unit_number": "4024.0120",
    "name": "Wörgl Hbf-T. N. (in W)",
    "abbr": "Wtn ",
    "lat": "47.4824",
    "lng": "12.033",
    "arrival": null,
    "departure": "2023-09-12T12:51:00Z"
  },
  {
    "train_number": "5028  ",
    "unit_number": "4024.0120",
    "name": "Wörgl Hbf (in W)",
    "abbr": "W   ",
    "lat": "47.4912",
    "lng": "12.0603",
    "arrival": "2023-09-12T12:40:00Z",
    "departure": "2023-09-12T12:49:00Z"
  },
  {
    "train_number": "5028  ",
    "unit_number": "4024.0120",
    "name": "Kitzbühel",
    "abbr": "Kzb ",
    "lat": "47.4542",
    "lng": "12.391",
    "arrival": "2023-09-12T12:00:00Z",
    "departure": "2023-09-12T12:01:00Z"
  },
  {
    "train_number": "5027  ",
    "unit_number": "4024.0120",
    "name": "Kitzbühel",
    "abbr": "Kzb ",
    "lat": "47.4542",
    "lng": "12.391",
    "arrival": "2023-09-12T11:01:00Z",
    "departure": "2023-09-12T11:02:00Z"
  },
  {
    "train_number": "5311  ",
    "unit_number": "4024.0120",
    "name": "Wörgl Hbf (in W)",
    "abbr": "W   ",
    "lat": "47.4912",
    "lng": "12.0603",
    "arrival": "2023-09-12T10:06:00Z",
    "departure": "2023-09-12T10:22:00Z"
  },
  {
    "train_number": "5311  ",
    "unit_number": "4024.0120",
    "name": "Wörgl Hbf-T. N. (in W)",
    "abbr": "Wtn ",
    "lat": "47.4824",
    "lng": "12.033",
    "arrival": null,
    "departure": "2023-09-12T10:03:00Z"
  },
  {
    "train_number": "5311  ",
    "unit_number": "4024.0120",
    "name": "Jenbach",
    "abbr": "Jb  ",
    "lat": "47.3884",
    "lng": "11.7783",
    "arrival": "2023-09-12T09:46:00Z",
    "departure": "2023-09-12T09:47:00Z"
  },
  {
    "train_number": "5311  ",
    "unit_number": "4024.0120",
    "name": "Schwaz",
    "abbr": "Sw  ",
    "lat": "47.3497",
    "lng": "11.7016",
    "arrival": "2023-09-12T09:40:00Z",
    "departure": "2023-09-12T09:41:00Z"
  },
  {
    "train_number": "5311  ",
    "unit_number": "4024.0120",
    "name": "Hall in Tirol",
    "abbr": "H   ",
    "lat": "47.2769",
    "lng": "11.5013",
    "arrival": "2023-09-12T09:29:00Z",
    "departure": "2023-09-12T09:30:00Z"
  },
  {
    "train_number": "5311  ",
    "unit_number": "4024.0120",
    "name": "Innsbruck Hbf  (in I)",
    "abbr": "I   ",
    "lat": "47.2634",
    "lng": "11.4017",
    "arrival": "2023-09-12T09:11:00Z",
    "departure": "2023-09-12T09:20:00Z"
  },
  {
    "train_number": "5210  ",
    "unit_number": "4024.0120",
    "name": "Brennero/Brenner",
    "abbr": "Be  ",
    "lat": "47.0022",
    "lng": "11.5053",
    "arrival": "2023-09-12T08:28:00Z",
    "departure": "2023-09-12T08:33:00Z"
  },
  {
    "train_number": "5210  ",
    "unit_number": "4024.0120",
    "name": "Innsbruck Hbf  (in I)",
    "abbr": "I   ",
    "lat": "47.2634",
    "lng": "11.4017",
    "arrival": "2023-09-12T07:40:00Z",
    "departure": "2023-09-12T07:49:00Z"
  },
  {
    "train_number": "5210  ",
    "unit_number": "4024.0120",
    "name": "Hall in Tirol",
    "abbr": "H   ",
    "lat": "47.2769",
    "lng": "11.5013",
    "arrival": "2023-09-12T07:29:00Z",
    "departure": "2023-09-12T07:30:00Z"
  },
  {
    "train_number": "5210  ",
    "unit_number": "4024.0120",
    "name": "Schwaz",
    "abbr": "Sw  ",
    "lat": "47.3497",
    "lng": "11.7016",
    "arrival": "2023-09-12T07:18:00Z",
    "departure": "2023-09-12T07:19:00Z"
  },
  {
    "train_number": "5210  ",
    "unit_number": "4024.0120",
    "name": "Jenbach",
    "abbr": "Jb  ",
    "lat": "47.3884",
    "lng": "11.7783",
    "arrival": "2023-09-12T07:13:00Z",
    "departure": "2023-09-12T07:14:00Z"
  },
  {
    "train_number": "5210  ",
    "unit_number": "4024.0120",
    "name": "Wörgl Hbf-T. N. (in W)",
    "abbr": "Wtn ",
    "lat": "47.4824",
    "lng": "12.033",
    "arrival": null,
    "departure": "2023-09-12T06:56:00Z"
  },
  {
    "train_number": "5016  ",
    "unit_number": "4024.0120",
    "name": "Wörgl Hbf (in W)",
    "abbr": "W   ",
    "lat": "47.4912",
    "lng": "12.0603",
    "arrival": "2023-09-12T06:40:00Z",
    "departure": "2023-09-12T06:54:00Z"
  },
  {
    "train_number": "5016  ",
    "unit_number": "4024.0120",
    "name": "Kitzbühel",
    "abbr": "Kzb ",
    "lat": "47.4542",
    "lng": "12.391",
    "arrival": "2023-09-12T06:00:00Z",
    "departure": "2023-09-12T06:01:00Z"
  },
  {
    "train_number": "5007  ",
    "unit_number": "4024.0120",
    "name": "Kitzbühel",
    "abbr": "Kzb ",
    "lat": "47.4542",
    "lng": "12.391",
    "arrival": "2023-09-12T05:13:00Z",
    "departure": "2023-09-12T05:14:00Z"
  },
  {
    "train_number": "85558 ",
    "unit_number": "4024.0120",
    "name": "Wörgl Hbf (in W)",
    "abbr": "W   ",
    "lat": "47.4912",
    "lng": "12.0603",
    "arrival": "2023-09-11T23:03:00Z",
    "departure": "2023-09-12T04:34:00Z"
  }
]
