[
  {
    "train_number": "3821  ",
    "unit_number": "4024.0014",
    "name": "Freistadt",
    "abbr": "Fr  ",
    "lat": "48.4952",
    "lng": "14.4815",
    "arrival": "2023-08-18T02:20:00Z",
    "departure": "2023-08-18T02:21:00Z"
  },
  {
    "train_number": "3836  ",
    "unit_number": "4024.0014",
    "name": "Summerau",
    "abbr": "Smr ",
    "lat": "48.5572",
    "lng": "14.4489",
    "arrival": "2023-08-17T21:47:00Z",
    "departure": "2023-08-18T02:12:00Z"
  },
  {
    "train_number": "3836  ",
    "unit_number": "4024.0014",
    "name": "Freistadt",
    "abbr": "Fr  ",
    "lat": "48.4952",
    "lng": "14.4815",
    "arrival": "2023-08-17T21:38:00Z",
    "departure": "2023-08-17T21:39:00Z"
  },
  {
    "train_number": "3879  ",
    "unit_number": "4024.0014",
    "name": "Linz Hbf",
    "abbr": "Lz  ",
    "lat": "48.2908",
    "lng": "14.2927",
    "arrival": "2023-08-17T20:24:00Z",
    "departure": "2023-08-17T20:35:00Z"
  },
  {
    "train_number": "4419  ",
    "unit_number": "4024.0014",
    "name": "Linz Hbf",
    "abbr": "Lz  ",
    "lat": "48.2908",
    "lng": "14.2927",
    "arrival": "2023-08-17T17:41:00Z",
    "departure": "2023-08-17T18:35:00Z"
  },
  {
    "train_number": "4419  ",
    "unit_number": "4024.0014",
    "name": "Wels Hbf",
    "abbr": "We  ",
    "lat": "48.1662",
    "lng": "14.0273",
    "arrival": "2023-08-17T17:24:00Z",
    "departure": "2023-08-17T17:25:00Z"
  },
  {
    "train_number": "4418  ",
    "unit_number": "4024.0014",
    "name": "Attnang-Puchheim",
    "abbr": "At  ",
    "lat": "48.0112",
    "lng": "13.7193",
    "arrival": "2023-08-17T16:07:00Z",
    "departure": "2023-08-17T16:53:00Z"
  },
  {
    "train_number": "4418  ",
    "unit_number": "4024.0014",
    "name": "Wels Hbf",
    "abbr": "We  ",
    "lat": "48.1662",
    "lng": "14.0273",
    "arrival": "2023-08-17T15:33:00Z",
    "departure": "2023-08-17T15:34:00Z"
  },
  {
    "train_number": "3656  ",
    "unit_number": "4024.0014",
    "name": "Linz Hbf",
    "abbr": "Lz  ",
    "lat": "48.2908",
    "lng": "14.2927",
    "arrival": "2023-08-17T13:04:00Z",
    "departure": "2023-08-17T15:18:00Z"
  },
  {
    "train_number": "3656  ",
    "unit_number": "4024.0014",
    "name": "Enns",
    "abbr": "Ens ",
    "lat": "48.2212",
    "lng": "14.4668",
    "arrival": "2023-08-17T12:47:00Z",
    "departure": "2023-08-17T12:48:00Z"
  },
  {
    "train_number": "3656  ",
    "unit_number": "4024.0014",
    "name": "St.Valentin (in Sv)",
    "abbr": "Sv  ",
    "lat": "48.1784",
    "lng": "14.5219",
    "arrival": "2023-08-17T12:37:00Z",
    "departure": "2023-08-17T12:41:00Z"
  },
  {
    "train_number": "3608  ",
    "unit_number": "4024.0014",
    "name": "St.Valentin (in Sv)",
    "abbr": "Sv  ",
    "lat": "48.1784",
    "lng": "14.5219",
    "arrival": "2023-08-17T07:07:00Z",
    "departure": "2023-08-17T09:51:00Z"
  },
  {
    "train_number": "3601  ",
    "unit_number": "4024.0014",
    "name": "St.Valentin (in Sv)",
    "abbr": "Sv  ",
    "lat": "48.1784",
    "lng": "14.5219",
    "arrival": "2023-08-17T02:49:00Z",
    "departure": "2023-08-17T03:09:00Z"
  },
  {
    "train_number": "3601  ",
    "unit_number": "4024.0014",
    "name": "Enns",
    "abbr": "Ens ",
    "lat": "48.2212",
    "lng": "14.4668",
    "arrival": "2023-08-17T02:41:00Z",
    "departure": "2023-08-17T02:42:00Z"
  }
]
