[
  {
    "train_number": "5315  ",
    "unit_number": "4024.0088",
    "name": "Schwaz",
    "abbr": "Sw  ",
    "lat": "47.3497",
    "lng": "11.7016",
    "arrival": "2023-10-30T12:40:00Z",
    "departure": "2023-10-30T12:41:00Z"
  },
  {
    "train_number": "5315  ",
    "unit_number": "4024.0088",
    "name": "Hall in Tirol",
    "abbr": "H   ",
    "lat": "47.2769",
    "lng": "11.5013",
    "arrival": "2023-10-30T12:29:00Z",
    "departure": "2023-10-30T12:30:00Z"
  },
  {
    "train_number": "5315  ",
    "unit_number": "4024.0088",
    "name": "Innsbruck Hbf  (in I)",
    "abbr": "I   ",
    "lat": "47.2634",
    "lng": "11.4017",
    "arrival": "2023-10-30T12:11:00Z",
    "departure": "2023-10-30T12:20:00Z"
  },
  {
    "train_number": "5214  ",
    "unit_number": "4024.0088",
    "name": "Brennero/Brenner",
    "abbr": "Be  ",
    "lat": "47.0022",
    "lng": "11.5053",
    "arrival": "2023-10-30T11:28:00Z",
    "departure": "2023-10-30T11:33:00Z"
  },
  {
    "train_number": "5214  ",
    "unit_number": "4024.0088",
    "name": "Innsbruck Hbf  (in I)",
    "abbr": "I   ",
    "lat": "47.2634",
    "lng": "11.4017",
    "arrival": "2023-10-30T10:40:00Z",
    "departure": "2023-10-30T10:49:00Z"
  },
  {
    "train_number": "5214  ",
    "unit_number": "4024.0088",
    "name": "Hall in Tirol",
    "abbr": "H   ",
    "lat": "47.2769",
    "lng": "11.5013",
    "arrival": "2023-10-30T10:29:00Z",
    "departure": "2023-10-30T10:30:00Z"
  },
  {
    "train_number": "5214  ",
    "unit_number": "4024.0088",
    "name": "Schwaz",
    "abbr": "Sw  ",
    "lat": "47.3497",
    "lng": "11.7016",
    "arrival": "2023-10-30T10:18:00Z",
    "departure": "2023-10-30T10:19:00Z"
  },
  {
    "train_number": "5214  ",
    "unit_number": "4024.0088",
    "name": "Jenbach",
    "abbr": "Jb  ",
    "lat": "47.3884",
    "lng": "11.7783",
    "arrival": "2023-10-30T10:13:00Z",
    "departure": "2023-10-30T10:14:00Z"
  },
  {
    "train_number": "5214  ",
    "unit_number": "4024.0088",
    "name": "Wörgl Hbf-T. N. (in W)",
    "abbr": "Wtn ",
    "lat": "47.4824",
    "lng": "12.033",
    "arrival": null,
    "departure": "2023-10-30T09:56:00Z"
  },
  {
    "train_number": "5020  ",
    "unit_number": "4024.0088",
    "name": "Wörgl Hbf (in W)",
    "abbr": "W   ",
    "lat": "47.4912",
    "lng": "12.0603",
    "arrival": "2023-10-30T09:40:00Z",
    "departure": "2023-10-30T09:54:00Z"
  },
  {
    "train_number": "5020  ",
    "unit_number": "4024.0088",
    "name": "Kitzbühel",
    "abbr": "Kzb ",
    "lat": "47.4542",
    "lng": "12.391",
    "arrival": "2023-10-30T09:00:00Z",
    "departure": "2023-10-30T09:01:00Z"
  },
  {
    "train_number": "5019  ",
    "unit_number": "4024.0088",
    "name": "Kitzbühel",
    "abbr": "Kzb ",
    "lat": "47.4542",
    "lng": "12.391",
    "arrival": "2023-10-30T08:01:00Z",
    "departure": "2023-10-30T08:02:00Z"
  },
  {
    "train_number": "5303  ",
    "unit_number": "4024.0088",
    "name": "Wörgl Hbf (in W)",
    "abbr": "W   ",
    "lat": "47.4912",
    "lng": "12.0603",
    "arrival": "2023-10-30T07:09:00Z",
    "departure": "2023-10-30T07:22:00Z"
  },
  {
    "train_number": "5303  ",
    "unit_number": "4024.0088",
    "name": "Wörgl Hbf-T. N. (in W)",
    "abbr": "Wtn ",
    "lat": "47.4824",
    "lng": "12.033",
    "arrival": null,
    "departure": "2023-10-30T07:06:00Z"
  },
  {
    "train_number": "5303  ",
    "unit_number": "4024.0088",
    "name": "Jenbach",
    "abbr": "Jb  ",
    "lat": "47.3884",
    "lng": "11.7783",
    "arrival": "2023-10-30T06:49:00Z",
    "departure": "2023-10-30T06:50:00Z"
  },
  {
    "train_number": "5303  ",
    "unit_number": "4024.0088",
    "name": "Schwaz",
    "abbr": "Sw  ",
    "lat": "47.3497",
    "lng": "11.7016",
    "arrival": "2023-10-30T06:43:00Z",
    "departure": "2023-10-30T06:44:00Z"
  },
  {
    "train_number": "5303  ",
    "unit_number": "4024.0088",
    "name": "Hall in Tirol",
    "abbr": "H   ",
    "lat": "47.2769",
    "lng": "11.5013",
    "arrival": "2023-10-30T06:30:00Z",
    "departure": "2023-10-30T06:31:00Z"
  },
  {
    "train_number": "5203  ",
    "unit_number": "4024.0088",
    "name": "Innsbruck Hbf  (in I)",
    "abbr": "I   ",
    "lat": "47.2634",
    "lng": "11.4017",
    "arrival": "2023-10-30T06:08:00Z",
    "departure": "2023-10-30T06:21:00Z"
  },
  {
    "train_number": "5240  ",
    "unit_number": "4024.0088",
    "name": "Brennero/Brenner",
    "abbr": "Be  ",
    "lat": "47.0022",
    "lng": "11.5053",
    "arrival": "2023-10-30T04:59:00Z",
    "departure": "2023-10-30T05:28:00Z"
  },
  {
    "train_number": "Steht ",
    "unit_number": "4024.0088",
    "name": "Innsbruck Hbf  (in I)",
    "abbr": "I   ",
    "lat": "47.2634",
    "lng": "11.4017",
    "arrival": "2023-10-29T23:00:00Z",
    "departure": "2023-10-30T04:19:00Z"
  }
]
