[
  {
    "train_number": "3034  ",
    "unit_number": "4024.0014",
    "name": "Attnang-Puchheim",
    "abbr": "At  ",
    "lat": "48.0112",
    "lng": "13.7193",
    "arrival": "2023-08-28T20:50:00Z",
    "departure": "2023-08-29T04:10:00Z"
  },
  {
    "train_number": "3034  ",
    "unit_number": "4024.0014",
    "name": "Wels Hbf",
    "abbr": "We  ",
    "lat": "48.1662",
    "lng": "14.0273",
    "arrival": "2023-08-28T20:22:00Z",
    "departure": "2023-08-28T20:23:00Z"
  },
  {
    "train_number": "3982  ",
    "unit_number": "4024.0014",
    "name": "Linz Hbf",
    "abbr": "Lz  ",
    "lat": "48.2908",
    "lng": "14.2927",
    "arrival": "2023-08-28T19:24:00Z",
    "departure": "2023-08-28T20:00:00Z"
  },
  {
    "train_number": "3980  ",
    "unit_number": "4024.0014",
    "name": "Linz Hbf",
    "abbr": "Lz  ",
    "lat": "48.2908",
    "lng": "14.2927",
    "arrival": "2023-08-28T18:24:00Z",
    "departure": "2023-08-28T18:36:00Z"
  },
  {
    "train_number": "3976  ",
    "unit_number": "4024.0014",
    "name": "Linz Hbf",
    "abbr": "Lz  ",
    "lat": "48.2908",
    "lng": "14.2927",
    "arrival": "2023-08-28T17:24:00Z",
    "departure": "2023-08-28T17:36:00Z"
  },
  {
    "train_number": "3672  ",
    "unit_number": "4024.0014",
    "name": "Linz Hbf",
    "abbr": "Lz  ",
    "lat": "48.2908",
    "lng": "14.2927",
    "arrival": "2023-08-28T16:04:00Z",
    "departure": "2023-08-28T16:36:00Z"
  },
  {
    "train_number": "3672  ",
    "unit_number": "4024.0014",
    "name": "Enns",
    "abbr": "Ens ",
    "lat": "48.2212",
    "lng": "14.4668",
    "arrival": "2023-08-28T15:47:00Z",
    "departure": "2023-08-28T15:48:00Z"
  },
  {
    "train_number": "3672  ",
    "unit_number": "4024.0014",
    "name": "St.Valentin (in Sv)",
    "abbr": "Sv  ",
    "lat": "48.1784",
    "lng": "14.5219",
    "arrival": "2023-08-28T15:37:00Z",
    "departure": "2023-08-28T15:41:00Z"
  },
  {
    "train_number": "3663  ",
    "unit_number": "4024.0014",
    "name": "St.Valentin (in Sv)",
    "abbr": "Sv  ",
    "lat": "48.1784",
    "lng": "14.5219",
    "arrival": "2023-08-28T14:17:00Z",
    "departure": "2023-08-28T14:21:00Z"
  },
  {
    "train_number": "3663  ",
    "unit_number": "4024.0014",
    "name": "Enns",
    "abbr": "Ens ",
    "lat": "48.2212",
    "lng": "14.4668",
    "arrival": "2023-08-28T14:10:00Z",
    "departure": "2023-08-28T14:11:00Z"
  },
  {
    "train_number": "3992  ",
    "unit_number": "4024.0014",
    "name": "Linz Hbf",
    "abbr": "Lz  ",
    "lat": "48.2908",
    "lng": "14.2927",
    "arrival": "2023-08-28T05:43:00Z",
    "departure": "2023-08-28T13:53:00Z"
  },
  {
    "train_number": "3600  ",
    "unit_number": "4024.0014",
    "name": "Linz Hbf",
    "abbr": "Lz  ",
    "lat": "48.2908",
    "lng": "14.2927",
    "arrival": "2023-08-28T04:19:00Z",
    "departure": "2023-08-28T04:36:00Z"
  },
  {
    "train_number": "3600  ",
    "unit_number": "4024.0014",
    "name": "Enns",
    "abbr": "Ens ",
    "lat": "48.2212",
    "lng": "14.4668",
    "arrival": "2023-08-28T04:02:00Z",
    "departure": "2023-08-28T04:03:00Z"
  },
  {
    "train_number": "3600  ",
    "unit_number": "4024.0014",
    "name": "St.Valentin (in Sv)",
    "abbr": "Sv  ",
    "lat": "48.1784",
    "lng": "14.5219",
    "arrival": "2023-08-28T03:55:00Z",
    "departure": "2023-08-28T03:56:00Z"
  }
]
