[
  {
    "train_number": "5934  ",
    "unit_number": "4024.0014",
    "name": "Sch채rding (in Sch)",
    "abbr": "Sch ",
    "lat": "48.4638",
    "lng": "13.4424",
    "arrival": "2023-10-27T21:48:00Z",
    "departure": "2023-10-28T01:58:00Z"
  },
  {
    "train_number": "5934  ",
    "unit_number": "4024.0014",
    "name": "Neumarkt-Kallham (in Neu)",
    "abbr": "Neu ",
    "lat": "48.2714",
    "lng": "13.7245",
    "arrival": "2023-10-27T21:15:00Z",
    "departure": "2023-10-27T21:16:00Z"
  },
  {
    "train_number": "5939  ",
    "unit_number": "4024.0014",
    "name": "Wels Hbf",
    "abbr": "We  ",
    "lat": "48.1662",
    "lng": "14.0273",
    "arrival": "2023-10-27T19:51:00Z",
    "departure": "2023-10-27T20:49:00Z"
  },
  {
    "train_number": "5939  ",
    "unit_number": "4024.0014",
    "name": "Neumarkt-Kallham (in Neu)",
    "abbr": "Neu ",
    "lat": "48.2714",
    "lng": "13.7245",
    "arrival": "2023-10-27T19:23:00Z",
    "departure": "2023-10-27T19:24:00Z"
  },
  {
    "train_number": "5939  ",
    "unit_number": "4024.0014",
    "name": "Sch채rding (in Sch)",
    "abbr": "Sch ",
    "lat": "48.4638",
    "lng": "13.4424",
    "arrival": "2023-10-27T18:51:00Z",
    "departure": "2023-10-27T18:52:00Z"
  },
  {
    "train_number": "5916  ",
    "unit_number": "4024.0014",
    "name": "Passau Hbf",
    "abbr": "Pa  ",
    "lat": "48.5737",
    "lng": "13.4503",
    "arrival": "2023-10-27T18:22:00Z",
    "departure": "2023-10-27T18:40:00Z"
  },
  {
    "train_number": "5916  ",
    "unit_number": "4024.0014",
    "name": "Sch채rding (in Sch)",
    "abbr": "Sch ",
    "lat": "48.4638",
    "lng": "13.4424",
    "arrival": "2023-10-27T18:08:00Z",
    "departure": "2023-10-27T18:09:00Z"
  },
  {
    "train_number": "5916  ",
    "unit_number": "4024.0014",
    "name": "Neumarkt-Kallham (in Neu)",
    "abbr": "Neu ",
    "lat": "48.2714",
    "lng": "13.7245",
    "arrival": "2023-10-27T17:35:00Z",
    "departure": "2023-10-27T17:36:00Z"
  },
  {
    "train_number": "5916  ",
    "unit_number": "4024.0014",
    "name": "Wels Hbf",
    "abbr": "We  ",
    "lat": "48.1662",
    "lng": "14.0273",
    "arrival": "2023-10-27T17:07:00Z",
    "departure": "2023-10-27T17:09:00Z"
  },
  {
    "train_number": "3672  ",
    "unit_number": "4024.0014",
    "name": "Linz Hbf",
    "abbr": "Lz  ",
    "lat": "48.2908",
    "lng": "14.2927",
    "arrival": "2023-10-27T16:04:00Z",
    "departure": "2023-10-27T16:50:00Z"
  },
  {
    "train_number": "3672  ",
    "unit_number": "4024.0014",
    "name": "Enns",
    "abbr": "Ens ",
    "lat": "48.2212",
    "lng": "14.4668",
    "arrival": "2023-10-27T15:47:00Z",
    "departure": "2023-10-27T15:48:00Z"
  },
  {
    "train_number": "3672  ",
    "unit_number": "4024.0014",
    "name": "St.Valentin (in Sv)",
    "abbr": "Sv  ",
    "lat": "48.1784",
    "lng": "14.5219",
    "arrival": "2023-10-27T15:37:00Z",
    "departure": "2023-10-27T15:41:00Z"
  },
  {
    "train_number": "3663  ",
    "unit_number": "4024.0014",
    "name": "St.Valentin (in Sv)",
    "abbr": "Sv  ",
    "lat": "48.1784",
    "lng": "14.5219",
    "arrival": "2023-10-27T14:17:00Z",
    "departure": "2023-10-27T14:21:00Z"
  },
  {
    "train_number": "3663  ",
    "unit_number": "4024.0014",
    "name": "Enns",
    "abbr": "Ens ",
    "lat": "48.2212",
    "lng": "14.4668",
    "arrival": "2023-10-27T14:10:00Z",
    "departure": "2023-10-27T14:11:00Z"
  },
  {
    "train_number": "3938  ",
    "unit_number": "4024.0014",
    "name": "Linz Hbf",
    "abbr": "Lz  ",
    "lat": "48.2908",
    "lng": "14.2927",
    "arrival": "2023-10-27T07:24:00Z",
    "departure": "2023-10-27T13:53:00Z"
  },
  {
    "train_number": "3929  ",
    "unit_number": "4024.0014",
    "name": "Kirchdorf a.d.Krems",
    "abbr": "Kik ",
    "lat": "47.9051",
    "lng": "14.1167",
    "arrival": "2023-10-27T05:33:00Z",
    "departure": "2023-10-27T06:25:00Z"
  },
  {
    "train_number": "5903  ",
    "unit_number": "4024.0014",
    "name": "Linz Hbf",
    "abbr": "Lz  ",
    "lat": "48.2908",
    "lng": "14.2927",
    "arrival": "2023-10-27T03:54:00Z",
    "departure": "2023-10-27T04:36:00Z"
  },
  {
    "train_number": "5903  ",
    "unit_number": "4024.0014",
    "name": "Wels Hbf",
    "abbr": "We  ",
    "lat": "48.1662",
    "lng": "14.0273",
    "arrival": "2023-10-27T03:29:00Z",
    "departure": "2023-10-27T03:31:00Z"
  },
  {
    "train_number": "5903  ",
    "unit_number": "4024.0014",
    "name": "Neumarkt-Kallham (in Neu)",
    "abbr": "Neu ",
    "lat": "48.2714",
    "lng": "13.7245",
    "arrival": "2023-10-27T03:03:00Z",
    "departure": "2023-10-27T03:04:00Z"
  },
  {
    "train_number": "Steht ",
    "unit_number": "4024.0014",
    "name": "Sch채rding (in Sch)",
    "abbr": "Sch ",
    "lat": "48.4638",
    "lng": "13.4424",
    "arrival": "2023-10-26T22:00:00Z",
    "departure": "2023-10-27T02:32:00Z"
  }
]
