[
  {
    "train_number": "5328  ",
    "unit_number": "4024.0088",
    "name": "Hall in Tirol",
    "abbr": "H   ",
    "lat": "47.2769",
    "lng": "11.5013",
    "arrival": "2023-09-22T18:29:00Z",
    "departure": "2023-09-22T18:30:00Z"
  },
  {
    "train_number": "5328  ",
    "unit_number": "4024.0088",
    "name": "Schwaz",
    "abbr": "Sw  ",
    "lat": "47.3497",
    "lng": "11.7016",
    "arrival": "2023-09-22T18:18:00Z",
    "departure": "2023-09-22T18:19:00Z"
  },
  {
    "train_number": "5328  ",
    "unit_number": "4024.0088",
    "name": "Jenbach",
    "abbr": "Jb  ",
    "lat": "47.3884",
    "lng": "11.7783",
    "arrival": "2023-09-22T18:13:00Z",
    "departure": "2023-09-22T18:14:00Z"
  },
  {
    "train_number": "5328  ",
    "unit_number": "4024.0088",
    "name": "Wörgl Hbf-T. N. (in W)",
    "abbr": "Wtn ",
    "lat": "47.4824",
    "lng": "12.033",
    "arrival": null,
    "departure": "2023-09-22T17:56:00Z"
  },
  {
    "train_number": "5038  ",
    "unit_number": "4024.0088",
    "name": "Wörgl Hbf (in W)",
    "abbr": "W   ",
    "lat": "47.4912",
    "lng": "12.0603",
    "arrival": "2023-09-22T17:40:00Z",
    "departure": "2023-09-22T17:54:00Z"
  },
  {
    "train_number": "5038  ",
    "unit_number": "4024.0088",
    "name": "Kitzbühel",
    "abbr": "Kzb ",
    "lat": "47.4542",
    "lng": "12.391",
    "arrival": "2023-09-22T17:00:00Z",
    "departure": "2023-09-22T17:01:00Z"
  },
  {
    "train_number": "5037  ",
    "unit_number": "4024.0088",
    "name": "Kitzbühel",
    "abbr": "Kzb ",
    "lat": "47.4542",
    "lng": "12.391",
    "arrival": "2023-09-22T16:01:00Z",
    "departure": "2023-09-22T16:02:00Z"
  },
  {
    "train_number": "5321  ",
    "unit_number": "4024.0088",
    "name": "Wörgl Hbf (in W)",
    "abbr": "W   ",
    "lat": "47.4912",
    "lng": "12.0603",
    "arrival": "2023-09-22T15:09:00Z",
    "departure": "2023-09-22T15:22:00Z"
  },
  {
    "train_number": "5321  ",
    "unit_number": "4024.0088",
    "name": "Wörgl Hbf-T. N. (in W)",
    "abbr": "Wtn ",
    "lat": "47.4824",
    "lng": "12.033",
    "arrival": null,
    "departure": "2023-09-22T15:06:00Z"
  },
  {
    "train_number": "5321  ",
    "unit_number": "4024.0088",
    "name": "Jenbach",
    "abbr": "Jb  ",
    "lat": "47.3884",
    "lng": "11.7783",
    "arrival": "2023-09-22T14:49:00Z",
    "departure": "2023-09-22T14:50:00Z"
  },
  {
    "train_number": "5321  ",
    "unit_number": "4024.0088",
    "name": "Schwaz",
    "abbr": "Sw  ",
    "lat": "47.3497",
    "lng": "11.7016",
    "arrival": "2023-09-22T14:42:00Z",
    "departure": "2023-09-22T14:44:00Z"
  },
  {
    "train_number": "5321  ",
    "unit_number": "4024.0088",
    "name": "Hall in Tirol",
    "abbr": "H   ",
    "lat": "47.2769",
    "lng": "11.5013",
    "arrival": "2023-09-22T14:29:00Z",
    "departure": "2023-09-22T14:30:00Z"
  },
  {
    "train_number": "5183  ",
    "unit_number": "4024.0088",
    "name": "Innsbruck Hbf  (in I)",
    "abbr": "I   ",
    "lat": "47.2634",
    "lng": "11.4017",
    "arrival": "2023-09-22T05:30:00Z",
    "departure": "2023-09-22T14:21:00Z"
  },
  {
    "train_number": "5242  ",
    "unit_number": "4024.0088",
    "name": "Innsbruck Hbf  (in I)",
    "abbr": "I   ",
    "lat": "47.2634",
    "lng": "11.4017",
    "arrival": "2023-09-22T04:38:00Z",
    "departure": "2023-09-22T04:43:00Z"
  },
  {
    "train_number": "5242  ",
    "unit_number": "4024.0088",
    "name": "Hall in Tirol",
    "abbr": "H   ",
    "lat": "47.2769",
    "lng": "11.5013",
    "arrival": "2023-09-22T04:28:00Z",
    "departure": "2023-09-22T04:29:00Z"
  },
  {
    "train_number": "5242  ",
    "unit_number": "4024.0088",
    "name": "Schwaz",
    "abbr": "Sw  ",
    "lat": "47.3497",
    "lng": "11.7016",
    "arrival": "2023-09-22T04:17:00Z",
    "departure": "2023-09-22T04:18:00Z"
  },
  {
    "train_number": "5242  ",
    "unit_number": "4024.0088",
    "name": "Jenbach",
    "abbr": "Jb  ",
    "lat": "47.3884",
    "lng": "11.7783",
    "arrival": "2023-09-22T04:12:00Z",
    "departure": "2023-09-22T04:13:00Z"
  },
  {
    "train_number": "5242  ",
    "unit_number": "4024.0088",
    "name": "Wörgl Hbf-T. N. (in W)",
    "abbr": "Wtn ",
    "lat": "47.4824",
    "lng": "12.033",
    "arrival": null,
    "departure": "2023-09-22T03:55:00Z"
  },
  {
    "train_number": "5242  ",
    "unit_number": "4024.0088",
    "name": "Wörgl Hbf (in W)",
    "abbr": "W   ",
    "lat": "47.4912",
    "lng": "12.0603",
    "arrival": "2023-09-22T03:52:00Z",
    "departure": "2023-09-22T03:53:00Z"
  },
  {
    "train_number": "5333  ",
    "unit_number": "4024.0088",
    "name": "Kufstein",
    "abbr": "K   ",
    "lat": "47.5833",
    "lng": "12.1657",
    "arrival": "2023-09-21T21:27:00Z",
    "departure": "2023-09-22T03:39:00Z"
  }
]
