[
  {
    "train_number": "3573  ",
    "unit_number": "4024.0120",
    "name": "Bischofshofen (in Bo)",
    "abbr": "Bo  ",
    "lat": "47.42",
    "lng": "13.2199",
    "arrival": "2023-11-05T22:12:00Z",
    "departure": "2023-11-05T22:13:00Z"
  },
  {
    "train_number": "25733 ",
    "unit_number": "4024.0120",
    "name": "Schwarzach-St.Veit",
    "abbr": "Swa ",
    "lat": "47.3186",
    "lng": "13.1561",
    "arrival": "2023-11-05T21:39:00Z",
    "departure": "2023-11-05T21:58:00Z"
  },
  {
    "train_number": "25733 ",
    "unit_number": "4024.0120",
    "name": "Bischofshofen (in Bo)",
    "abbr": "Bo  ",
    "lat": "47.42",
    "lng": "13.2199",
    "arrival": "2023-11-05T21:22:00Z",
    "departure": "2023-11-05T21:24:00Z"
  },
  {
    "train_number": "25733 ",
    "unit_number": "4024.0120",
    "name": "Salzburg Gnigl-Einfgr. (in Sb)",
    "abbr": "Sre ",
    "lat": "47.8075",
    "lng": "13.0687",
    "arrival": null,
    "departure": "2023-11-05T20:27:00Z"
  },
  {
    "train_number": "25733 ",
    "unit_number": "4024.0120",
    "name": "Salzburg Hbf (in Sb)",
    "abbr": "Sb  ",
    "lat": "47.8135",
    "lng": "13.0466",
    "arrival": "2023-11-05T20:17:00Z",
    "departure": "2023-11-05T20:21:00Z"
  },
  {
    "train_number": "25733 ",
    "unit_number": "4024.0120",
    "name": "Salzburg Liefering (in Sb)",
    "abbr": "Lfg ",
    "lat": "47.8229",
    "lng": "13.0021",
    "arrival": "2023-11-05T20:09:00Z",
    "departure": "2023-11-05T20:10:00Z"
  },
  {
    "train_number": "25732 ",
    "unit_number": "4024.0120",
    "name": "Freilassing",
    "abbr": "MFL ",
    "lat": "47.8368",
    "lng": "12.9764",
    "arrival": "2023-11-05T19:54:00Z",
    "departure": "2023-11-05T20:07:00Z"
  },
  {
    "train_number": "25732 ",
    "unit_number": "4024.0120",
    "name": "Salzburg Liefering (in Sb)",
    "abbr": "Lfg ",
    "lat": "47.8229",
    "lng": "13.0021",
    "arrival": "2023-11-05T19:50:00Z",
    "departure": "2023-11-05T19:50:00Z"
  },
  {
    "train_number": "25732 ",
    "unit_number": "4024.0120",
    "name": "Salzburg Hbf (in Sb)",
    "abbr": "Sb  ",
    "lat": "47.8135",
    "lng": "13.0466",
    "arrival": "2023-11-05T19:40:00Z",
    "departure": "2023-11-05T19:42:00Z"
  },
  {
    "train_number": "25732 ",
    "unit_number": "4024.0120",
    "name": "Salzburg Gnigl-Einfgr. (in Sb)",
    "abbr": "Sre ",
    "lat": "47.8075",
    "lng": "13.0687",
    "arrival": null,
    "departure": "2023-11-05T19:33:00Z"
  },
  {
    "train_number": "25732 ",
    "unit_number": "4024.0120",
    "name": "Bischofshofen (in Bo)",
    "abbr": "Bo  ",
    "lat": "47.42",
    "lng": "13.2199",
    "arrival": "2023-11-05T18:38:00Z",
    "departure": "2023-11-05T18:40:00Z"
  },
  {
    "train_number": "1525  ",
    "unit_number": "4024.0120",
    "name": "Schwarzach-St.Veit",
    "abbr": "Swa ",
    "lat": "47.3186",
    "lng": "13.1561",
    "arrival": "2023-11-05T17:48:00Z",
    "departure": "2023-11-05T18:24:00Z"
  },
  {
    "train_number": "1525  ",
    "unit_number": "4024.0120",
    "name": "Kitzbühel",
    "abbr": "Kzb ",
    "lat": "47.4542",
    "lng": "12.391",
    "arrival": "2023-11-05T16:24:00Z",
    "departure": "2023-11-05T16:25:00Z"
  },
  {
    "train_number": "1506  ",
    "unit_number": "4024.0120",
    "name": "Wörgl Hbf (in W)",
    "abbr": "W   ",
    "lat": "47.4912",
    "lng": "12.0603",
    "arrival": "2023-11-05T10:09:00Z",
    "departure": "2023-11-05T15:50:00Z"
  },
  {
    "train_number": "1506  ",
    "unit_number": "4024.0120",
    "name": "Kitzbühel",
    "abbr": "Kzb ",
    "lat": "47.4542",
    "lng": "12.391",
    "arrival": "2023-11-05T09:35:00Z",
    "departure": "2023-11-05T09:35:00Z"
  },
  {
    "train_number": "1505  ",
    "unit_number": "4024.0120",
    "name": "Schwarzach-St.Veit",
    "abbr": "Swa ",
    "lat": "47.3186",
    "lng": "13.1561",
    "arrival": "2023-11-05T07:48:00Z",
    "departure": "2023-11-05T08:12:00Z"
  },
  {
    "train_number": "1505  ",
    "unit_number": "4024.0120",
    "name": "Kitzbühel",
    "abbr": "Kzb ",
    "lat": "47.4542",
    "lng": "12.391",
    "arrival": "2023-11-05T06:24:00Z",
    "departure": "2023-11-05T06:25:00Z"
  },
  {
    "train_number": "5016  ",
    "unit_number": "4024.0120",
    "name": "Wörgl Hbf (in W)",
    "abbr": "W   ",
    "lat": "47.4912",
    "lng": "12.0603",
    "arrival": "2023-11-04T07:40:00Z",
    "departure": "2023-11-05T05:49:00Z"
  }
]
