[
  {
    "train_number": "4424  ",
    "unit_number": "4024.0014",
    "name": "Gmunden",
    "abbr": "Gz  ",
    "lat": "47.9254",
    "lng": "13.783",
    "arrival": "2023-11-06T20:23:00Z",
    "departure": "2023-11-06T20:24:00Z"
  },
  {
    "train_number": "4424  ",
    "unit_number": "4024.0014",
    "name": "Attnang-Puchheim",
    "abbr": "At  ",
    "lat": "48.0112",
    "lng": "13.7193",
    "arrival": "2023-11-06T19:50:00Z",
    "departure": "2023-11-06T20:08:00Z"
  },
  {
    "train_number": "4424  ",
    "unit_number": "4024.0014",
    "name": "Wels Hbf",
    "abbr": "We  ",
    "lat": "48.1662",
    "lng": "14.0273",
    "arrival": "2023-11-06T19:22:00Z",
    "departure": "2023-11-06T19:23:00Z"
  },
  {
    "train_number": "4419  ",
    "unit_number": "4024.0014",
    "name": "Linz Hbf",
    "abbr": "Lz  ",
    "lat": "48.2908",
    "lng": "14.2927",
    "arrival": "2023-11-06T18:41:00Z",
    "departure": "2023-11-06T19:00:00Z"
  },
  {
    "train_number": "4419  ",
    "unit_number": "4024.0014",
    "name": "Wels Hbf",
    "abbr": "We  ",
    "lat": "48.1662",
    "lng": "14.0273",
    "arrival": "2023-11-06T18:24:00Z",
    "departure": "2023-11-06T18:25:00Z"
  },
  {
    "train_number": "4419  ",
    "unit_number": "4024.0014",
    "name": "Attnang-Puchheim",
    "abbr": "At  ",
    "lat": "48.0112",
    "lng": "13.7193",
    "arrival": "2023-11-06T17:52:00Z",
    "departure": "2023-11-06T17:53:00Z"
  },
  {
    "train_number": "4419  ",
    "unit_number": "4024.0014",
    "name": "Gmunden",
    "abbr": "Gz  ",
    "lat": "47.9254",
    "lng": "13.783",
    "arrival": "2023-11-06T17:35:00Z",
    "departure": "2023-11-06T17:36:00Z"
  },
  {
    "train_number": "4412  ",
    "unit_number": "4024.0014",
    "name": "Gmunden",
    "abbr": "Gz  ",
    "lat": "47.9254",
    "lng": "13.783",
    "arrival": "2023-11-06T14:23:00Z",
    "departure": "2023-11-06T14:24:00Z"
  },
  {
    "train_number": "4412  ",
    "unit_number": "4024.0014",
    "name": "Attnang-Puchheim",
    "abbr": "At  ",
    "lat": "48.0112",
    "lng": "13.7193",
    "arrival": "2023-11-06T14:07:00Z",
    "departure": "2023-11-06T14:08:00Z"
  },
  {
    "train_number": "4412  ",
    "unit_number": "4024.0014",
    "name": "Wels Hbf",
    "abbr": "We  ",
    "lat": "48.1662",
    "lng": "14.0273",
    "arrival": "2023-11-06T13:33:00Z",
    "departure": "2023-11-06T13:34:00Z"
  },
  {
    "train_number": "2054  ",
    "unit_number": "4024.0014",
    "name": "Linz Hbf",
    "abbr": "Lz  ",
    "lat": "48.2908",
    "lng": "14.2927",
    "arrival": "2023-11-06T05:35:00Z",
    "departure": "2023-11-06T13:18:00Z"
  },
  {
    "train_number": "2054  ",
    "unit_number": "4024.0014",
    "name": "Enns",
    "abbr": "Ens ",
    "lat": "48.2212",
    "lng": "14.4668",
    "arrival": "2023-11-06T05:18:00Z",
    "departure": "2023-11-06T05:19:00Z"
  },
  {
    "train_number": "Steht ",
    "unit_number": "4024.0014",
    "name": "St.Valentin (in Sv)",
    "abbr": "Sv  ",
    "lat": "48.1784",
    "lng": "14.5219",
    "arrival": "2023-11-05T23:00:00Z",
    "departure": "2023-11-06T05:12:00Z"
  }
]
