[
  {
    "train_number": "25713 ",
    "unit_number": "4024.0120",
    "name": "Salzburg Hbf (in Sb)",
    "abbr": "Sb  ",
    "lat": "47.8135",
    "lng": "13.0466",
    "arrival": "2023-10-26T09:17:00Z",
    "departure": "2023-10-26T09:21:00Z"
  },
  {
    "train_number": "25713 ",
    "unit_number": "4024.0120",
    "name": "Salzburg Liefering (in Sb)",
    "abbr": "Lfg ",
    "lat": "47.8229",
    "lng": "13.0021",
    "arrival": "2023-10-26T09:09:00Z",
    "departure": "2023-10-26T09:10:00Z"
  },
  {
    "train_number": "79422 ",
    "unit_number": "4024.0120",
    "name": "Freilassing",
    "abbr": "MFL ",
    "lat": "47.8368",
    "lng": "12.9764",
    "arrival": "2023-10-26T08:56:00Z",
    "departure": "2023-10-26T09:07:00Z"
  },
  {
    "train_number": "79419 ",
    "unit_number": "4024.0120",
    "name": "Bad Reichenhall",
    "abbr": "MBRL",
    "lat": "47.7316",
    "lng": "12.881",
    "arrival": "2023-10-26T08:19:00Z",
    "departure": "2023-10-26T08:37:00Z"
  },
  {
    "train_number": "25710 ",
    "unit_number": "4024.0120",
    "name": "Freilassing",
    "abbr": "MFL ",
    "lat": "47.8368",
    "lng": "12.9764",
    "arrival": "2023-10-26T07:54:00Z",
    "departure": "2023-10-26T07:58:00Z"
  },
  {
    "train_number": "25710 ",
    "unit_number": "4024.0120",
    "name": "Salzburg Liefering (in Sb)",
    "abbr": "Lfg ",
    "lat": "47.8229",
    "lng": "13.0021",
    "arrival": "2023-10-26T07:50:00Z",
    "departure": "2023-10-26T07:50:00Z"
  },
  {
    "train_number": "25710 ",
    "unit_number": "4024.0120",
    "name": "Salzburg Hbf (in Sb)",
    "abbr": "Sb  ",
    "lat": "47.8135",
    "lng": "13.0466",
    "arrival": "2023-10-26T07:40:00Z",
    "departure": "2023-10-26T07:42:00Z"
  },
  {
    "train_number": "25710 ",
    "unit_number": "4024.0120",
    "name": "Salzburg Gnigl-Einfgr. (in Sb)",
    "abbr": "Sre ",
    "lat": "47.8075",
    "lng": "13.0687",
    "arrival": null,
    "departure": "2023-10-26T07:33:00Z"
  },
  {
    "train_number": "25710 ",
    "unit_number": "4024.0120",
    "name": "Bischofshofen (in Bo)",
    "abbr": "Bo  ",
    "lat": "47.42",
    "lng": "13.2199",
    "arrival": "2023-10-26T06:38:00Z",
    "departure": "2023-10-26T06:40:00Z"
  },
  {
    "train_number": "25703 ",
    "unit_number": "4024.0120",
    "name": "Schwarzach-St.Veit",
    "abbr": "Swa ",
    "lat": "47.3186",
    "lng": "13.1561",
    "arrival": "2023-10-26T05:39:00Z",
    "departure": "2023-10-26T06:24:00Z"
  },
  {
    "train_number": "25703 ",
    "unit_number": "4024.0120",
    "name": "Bischofshofen (in Bo)",
    "abbr": "Bo  ",
    "lat": "47.42",
    "lng": "13.2199",
    "arrival": "2023-10-26T05:22:00Z",
    "departure": "2023-10-26T05:24:00Z"
  },
  {
    "train_number": "25703 ",
    "unit_number": "4024.0120",
    "name": "Salzburg Gnigl-Einfgr. (in Sb)",
    "abbr": "Sre ",
    "lat": "47.8075",
    "lng": "13.0687",
    "arrival": null,
    "departure": "2023-10-26T04:27:00Z"
  },
  {
    "train_number": "25703 ",
    "unit_number": "4024.0120",
    "name": "Salzburg Hbf (in Sb)",
    "abbr": "Sb  ",
    "lat": "47.8135",
    "lng": "13.0466",
    "arrival": "2023-10-26T04:17:00Z",
    "departure": "2023-10-26T04:21:00Z"
  },
  {
    "train_number": "25703 ",
    "unit_number": "4024.0120",
    "name": "Salzburg Liefering (in Sb)",
    "abbr": "Lfg ",
    "lat": "47.8229",
    "lng": "13.0021",
    "arrival": "2023-10-26T04:09:00Z",
    "departure": "2023-10-26T04:10:00Z"
  },
  {
    "train_number": "25702 ",
    "unit_number": "4024.0120",
    "name": "Freilassing",
    "abbr": "MFL ",
    "lat": "47.8368",
    "lng": "12.9764",
    "arrival": "2023-10-26T03:53:00Z",
    "departure": "2023-10-26T04:07:00Z"
  },
  {
    "train_number": "25702 ",
    "unit_number": "4024.0120",
    "name": "Salzburg Liefering (in Sb)",
    "abbr": "Lfg ",
    "lat": "47.8229",
    "lng": "13.0021",
    "arrival": "2023-10-26T03:50:00Z",
    "departure": "2023-10-26T03:50:00Z"
  },
  {
    "train_number": "25702 ",
    "unit_number": "4024.0120",
    "name": "Salzburg Hbf (in Sb)",
    "abbr": "Sb  ",
    "lat": "47.8135",
    "lng": "13.0466",
    "arrival": "2023-10-26T03:40:00Z",
    "departure": "2023-10-26T03:42:00Z"
  },
  {
    "train_number": "25702 ",
    "unit_number": "4024.0120",
    "name": "Salzburg Gnigl-Einfgr. (in Sb)",
    "abbr": "Sre ",
    "lat": "47.8075",
    "lng": "13.0687",
    "arrival": null,
    "departure": "2023-10-26T03:33:00Z"
  },
  {
    "train_number": "25702 ",
    "unit_number": "4024.0120",
    "name": "Bischofshofen (in Bo)",
    "abbr": "Bo  ",
    "lat": "47.42",
    "lng": "13.2199",
    "arrival": "2023-10-26T02:38:00Z",
    "departure": "2023-10-26T02:40:00Z"
  },
  {
    "train_number": "25729 ",
    "unit_number": "4024.0120",
    "name": "Schwarzach-St.Veit",
    "abbr": "Swa ",
    "lat": "47.3186",
    "lng": "13.1561",
    "arrival": "2023-10-25T18:39:00Z",
    "departure": "2023-10-26T02:24:00Z"
  }
]
