[
  {
    "train_number": "25735 ",
    "unit_number": "4024.0120",
    "name": "Salzburg Hbf (in Sb)",
    "abbr": "Sb  ",
    "lat": "47.8135",
    "lng": "13.0466",
    "arrival": "2023-08-21T20:17:00Z",
    "departure": "2023-08-22T03:37:00Z"
  },
  {
    "train_number": "25735 ",
    "unit_number": "4024.0120",
    "name": "Salzburg Liefering (in Sb)",
    "abbr": "Lfg ",
    "lat": "47.8229",
    "lng": "13.0021",
    "arrival": "2023-08-21T20:09:00Z",
    "departure": "2023-08-21T20:10:00Z"
  },
  {
    "train_number": "25734 ",
    "unit_number": "4024.0120",
    "name": "Freilassing",
    "abbr": "MFL ",
    "lat": "47.8368",
    "lng": "12.9764",
    "arrival": "2023-08-21T19:54:00Z",
    "departure": "2023-08-21T20:07:00Z"
  },
  {
    "train_number": "25734 ",
    "unit_number": "4024.0120",
    "name": "Salzburg Liefering (in Sb)",
    "abbr": "Lfg ",
    "lat": "47.8229",
    "lng": "13.0021",
    "arrival": "2023-08-21T19:50:00Z",
    "departure": "2023-08-21T19:50:00Z"
  },
  {
    "train_number": "25734 ",
    "unit_number": "4024.0120",
    "name": "Salzburg Hbf (in Sb)",
    "abbr": "Sb  ",
    "lat": "47.8135",
    "lng": "13.0466",
    "arrival": "2023-08-21T19:40:00Z",
    "departure": "2023-08-21T19:42:00Z"
  },
  {
    "train_number": "25734 ",
    "unit_number": "4024.0120",
    "name": "Salzburg Gnigl-Einfgr. (in Sb)",
    "abbr": "Sre ",
    "lat": "47.8075",
    "lng": "13.0687",
    "arrival": null,
    "departure": "2023-08-21T19:33:00Z"
  },
  {
    "train_number": "25734 ",
    "unit_number": "4024.0120",
    "name": "Bischofshofen (in Bo)",
    "abbr": "Bo  ",
    "lat": "47.42",
    "lng": "13.2199",
    "arrival": "2023-08-21T18:38:00Z",
    "departure": "2023-08-21T18:40:00Z"
  },
  {
    "train_number": "1550  ",
    "unit_number": "4024.0120",
    "name": "Schwarzach-St.Veit",
    "abbr": "Swa ",
    "lat": "47.3186",
    "lng": "13.1561",
    "arrival": "2023-08-21T15:52:00Z",
    "departure": "2023-08-21T18:24:00Z"
  },
  {
    "train_number": "1550  ",
    "unit_number": "4024.0120",
    "name": "Bischofshofen (in Bo)",
    "abbr": "Bo  ",
    "lat": "47.42",
    "lng": "13.2199",
    "arrival": "2023-08-21T15:35:00Z",
    "departure": "2023-08-21T15:37:00Z"
  },
  {
    "train_number": "1550  ",
    "unit_number": "4024.0120",
    "name": "Salzburg Gnigl-Einfgr. (in Sb)",
    "abbr": "Sre ",
    "lat": "47.8075",
    "lng": "13.0687",
    "arrival": null,
    "departure": "2023-08-21T14:50:00Z"
  },
  {
    "train_number": "3050  ",
    "unit_number": "4024.0120",
    "name": "Salzburg Hbf (in Sb)",
    "abbr": "Sb  ",
    "lat": "47.8135",
    "lng": "13.0466",
    "arrival": "2023-08-21T06:05:00Z",
    "departure": "2023-08-21T14:43:00Z"
  },
  {
    "train_number": "3050  ",
    "unit_number": "4024.0120",
    "name": "Steindorf b.Straßw. (in Nst)",
    "abbr": "Nst ",
    "lat": "47.9676",
    "lng": "13.2406",
    "arrival": "2023-08-21T05:37:00Z",
    "departure": "2023-08-21T05:38:00Z"
  },
  {
    "train_number": "3051  ",
    "unit_number": "4024.0120",
    "name": "Steindorf b.Straßw. (in Nst)",
    "abbr": "Nst ",
    "lat": "47.9676",
    "lng": "13.2406",
    "arrival": "2023-08-21T05:21:00Z",
    "departure": "2023-08-21T05:22:00Z"
  },
  {
    "train_number": "3046  ",
    "unit_number": "4024.0120",
    "name": "Salzburg Hbf (in Sb)",
    "abbr": "Sb  ",
    "lat": "47.8135",
    "lng": "13.0466",
    "arrival": "2023-08-21T04:26:00Z",
    "departure": "2023-08-21T04:55:00Z"
  },
  {
    "train_number": "3046  ",
    "unit_number": "4024.0120",
    "name": "Steindorf b.Straßw. (in Nst)",
    "abbr": "Nst ",
    "lat": "47.9676",
    "lng": "13.2406",
    "arrival": "2023-08-21T03:57:00Z",
    "departure": "2023-08-21T03:58:00Z"
  },
  {
    "train_number": "84850 ",
    "unit_number": "4024.0120",
    "name": "Steindorf b.Straßw. (in Nst)",
    "abbr": "Nst ",
    "lat": "47.9676",
    "lng": "13.2406",
    "arrival": "2023-08-21T03:20:00Z",
    "departure": "2023-08-21T03:40:00Z"
  }
]
