[
  {
    "train_number": "3834  ",
    "unit_number": "4024.0014",
    "name": "Summerau",
    "abbr": "Smr ",
    "lat": "48.5572",
    "lng": "14.4489",
    "arrival": "2023-09-10T20:49:00Z",
    "departure": "2023-09-11T03:30:00Z"
  },
  {
    "train_number": "3834  ",
    "unit_number": "4024.0014",
    "name": "Freistadt",
    "abbr": "Fr  ",
    "lat": "48.4952",
    "lng": "14.4815",
    "arrival": "2023-09-10T20:38:00Z",
    "departure": "2023-09-10T20:41:00Z"
  },
  {
    "train_number": "3877  ",
    "unit_number": "4024.0014",
    "name": "Linz Hbf",
    "abbr": "Lz  ",
    "lat": "48.2908",
    "lng": "14.2927",
    "arrival": "2023-09-10T19:24:00Z",
    "departure": "2023-09-10T19:35:00Z"
  },
  {
    "train_number": "3873  ",
    "unit_number": "4024.0014",
    "name": "Linz Hbf",
    "abbr": "Lz  ",
    "lat": "48.2908",
    "lng": "14.2927",
    "arrival": "2023-09-10T16:24:00Z",
    "departure": "2023-09-10T16:35:00Z"
  },
  {
    "train_number": "3865  ",
    "unit_number": "4024.0014",
    "name": "Linz Hbf",
    "abbr": "Lz  ",
    "lat": "48.2908",
    "lng": "14.2927",
    "arrival": "2023-09-10T13:24:00Z",
    "departure": "2023-09-10T13:35:00Z"
  },
  {
    "train_number": "3005  ",
    "unit_number": "4024.0014",
    "name": "Linz Hbf",
    "abbr": "Lz  ",
    "lat": "48.2908",
    "lng": "14.2927",
    "arrival": "2023-09-10T05:00:00Z",
    "departure": "2023-09-10T10:35:00Z"
  },
  {
    "train_number": "3005  ",
    "unit_number": "4024.0014",
    "name": "Wels Hbf",
    "abbr": "We  ",
    "lat": "48.1662",
    "lng": "14.0273",
    "arrival": "2023-09-10T04:36:00Z",
    "departure": "2023-09-10T04:37:00Z"
  },
  {
    "train_number": "3036  ",
    "unit_number": "4024.0014",
    "name": "Attnang-Puchheim",
    "abbr": "At  ",
    "lat": "48.0112",
    "lng": "13.7193",
    "arrival": "2023-09-09T21:50:00Z",
    "departure": "2023-09-10T04:10:00Z"
  }
]
