[
  {
    "train_number": "3438  ",
    "unit_number": "4024.0014",
    "name": "Gmunden",
    "abbr": "Gz  ",
    "lat": "47.9254",
    "lng": "13.783",
    "arrival": "2023-10-21T21:23:00Z",
    "departure": "2023-10-21T21:24:00Z"
  },
  {
    "train_number": "3437  ",
    "unit_number": "4024.0014",
    "name": "Attnang-Puchheim",
    "abbr": "At  ",
    "lat": "48.0112",
    "lng": "13.7193",
    "arrival": "2023-10-21T20:52:00Z",
    "departure": "2023-10-21T21:08:00Z"
  },
  {
    "train_number": "3437  ",
    "unit_number": "4024.0014",
    "name": "Gmunden",
    "abbr": "Gz  ",
    "lat": "47.9254",
    "lng": "13.783",
    "arrival": "2023-10-21T20:35:00Z",
    "departure": "2023-10-21T20:36:00Z"
  },
  {
    "train_number": "4420  ",
    "unit_number": "4024.0014",
    "name": "Gmunden",
    "abbr": "Gz  ",
    "lat": "47.9254",
    "lng": "13.783",
    "arrival": "2023-10-21T17:23:00Z",
    "departure": "2023-10-21T17:24:00Z"
  },
  {
    "train_number": "4420  ",
    "unit_number": "4024.0014",
    "name": "Attnang-Puchheim",
    "abbr": "At  ",
    "lat": "48.0112",
    "lng": "13.7193",
    "arrival": "2023-10-21T17:07:00Z",
    "departure": "2023-10-21T17:08:00Z"
  },
  {
    "train_number": "4420  ",
    "unit_number": "4024.0014",
    "name": "Wels Hbf",
    "abbr": "We  ",
    "lat": "48.1662",
    "lng": "14.0273",
    "arrival": "2023-10-21T16:33:00Z",
    "departure": "2023-10-21T16:34:00Z"
  },
  {
    "train_number": "5091  ",
    "unit_number": "4024.0014",
    "name": "Linz Hbf",
    "abbr": "Lz  ",
    "lat": "48.2908",
    "lng": "14.2927",
    "arrival": "2023-10-21T06:00:00Z",
    "departure": "2023-10-21T16:18:00Z"
  },
  {
    "train_number": "5091  ",
    "unit_number": "4024.0014",
    "name": "Wels Hbf",
    "abbr": "We  ",
    "lat": "48.1662",
    "lng": "14.0273",
    "arrival": "2023-10-21T05:36:00Z",
    "departure": "2023-10-21T05:37:00Z"
  },
  {
    "train_number": "5091  ",
    "unit_number": "4024.0014",
    "name": "Attnang-Puchheim",
    "abbr": "At  ",
    "lat": "48.0112",
    "lng": "13.7193",
    "arrival": "2023-10-21T04:54:00Z",
    "departure": "2023-10-21T05:10:00Z"
  },
  {
    "train_number": "5091  ",
    "unit_number": "4024.0014",
    "name": "Steindorf b.StraÃŸw. (in Nst)",
    "abbr": "Nst ",
    "lat": "47.9676",
    "lng": "13.2406",
    "arrival": "2023-10-21T04:05:00Z",
    "departure": "2023-10-21T04:10:00Z"
  },
  {
    "train_number": "5091  ",
    "unit_number": "4024.0014",
    "name": "Salzburg Hbf (in Sb)",
    "abbr": "Sb  ",
    "lat": "47.8135",
    "lng": "13.0466",
    "arrival": "2023-10-21T03:35:00Z",
    "departure": "2023-10-21T03:37:00Z"
  },
  {
    "train_number": "5091  ",
    "unit_number": "4024.0014",
    "name": "Salzburg Liefering (in Sb)",
    "abbr": "Lfg ",
    "lat": "47.8229",
    "lng": "13.0021",
    "arrival": "2023-10-21T03:26:00Z",
    "departure": "2023-10-21T03:27:00Z"
  },
  {
    "train_number": "25796 ",
    "unit_number": "4024.0014",
    "name": "Freilassing",
    "abbr": "MFL ",
    "lat": "47.8368",
    "lng": "12.9764",
    "arrival": "2023-10-20T19:43:00Z",
    "departure": "2023-10-21T03:24:00Z"
  }
]
