[
  {
    "train_number": "3634  ",
    "unit_number": "4024.0014",
    "name": "Enns",
    "abbr": "Ens ",
    "lat": "48.2212",
    "lng": "14.4668",
    "arrival": "2023-10-14T19:47:00Z",
    "departure": "2023-10-14T19:48:00Z"
  },
  {
    "train_number": "3634  ",
    "unit_number": "4024.0014",
    "name": "St.Valentin (in Sv)",
    "abbr": "Sv  ",
    "lat": "48.1784",
    "lng": "14.5219",
    "arrival": "2023-10-14T19:39:00Z",
    "departure": "2023-10-14T19:41:00Z"
  },
  {
    "train_number": "3667  ",
    "unit_number": "4024.0014",
    "name": "St.Valentin (in Sv)",
    "abbr": "Sv  ",
    "lat": "48.1784",
    "lng": "14.5219",
    "arrival": "2023-10-14T16:17:00Z",
    "departure": "2023-10-14T16:21:00Z"
  },
  {
    "train_number": "3667  ",
    "unit_number": "4024.0014",
    "name": "Enns",
    "abbr": "Ens ",
    "lat": "48.2212",
    "lng": "14.4668",
    "arrival": "2023-10-14T16:10:00Z",
    "departure": "2023-10-14T16:11:00Z"
  },
  {
    "train_number": "5923  ",
    "unit_number": "4024.0014",
    "name": "Linz Hbf",
    "abbr": "Lz  ",
    "lat": "48.2908",
    "lng": "14.2927",
    "arrival": "2023-10-14T15:10:00Z",
    "departure": "2023-10-14T15:53:00Z"
  },
  {
    "train_number": "5923  ",
    "unit_number": "4024.0014",
    "name": "Wels Hbf",
    "abbr": "We  ",
    "lat": "48.1662",
    "lng": "14.0273",
    "arrival": "2023-10-14T14:52:00Z",
    "departure": "2023-10-14T14:53:00Z"
  },
  {
    "train_number": "5923  ",
    "unit_number": "4024.0014",
    "name": "Neumarkt-Kallham (in Neu)",
    "abbr": "Neu ",
    "lat": "48.2714",
    "lng": "13.7245",
    "arrival": "2023-10-14T14:23:00Z",
    "departure": "2023-10-14T14:24:00Z"
  },
  {
    "train_number": "1780  ",
    "unit_number": "4024.0014",
    "name": "Schärding (in Sch)",
    "abbr": "Sch ",
    "lat": "48.4638",
    "lng": "13.4424",
    "arrival": "2023-10-14T12:56:00Z",
    "departure": "2023-10-14T13:52:00Z"
  },
  {
    "train_number": "1780  ",
    "unit_number": "4024.0014",
    "name": "Neumarkt-Kallham (in Neu)",
    "abbr": "Neu ",
    "lat": "48.2714",
    "lng": "13.7245",
    "arrival": "2023-10-14T12:31:00Z",
    "departure": "2023-10-14T12:32:00Z"
  },
  {
    "train_number": "1780  ",
    "unit_number": "4024.0014",
    "name": "Wels Hbf",
    "abbr": "We  ",
    "lat": "48.1662",
    "lng": "14.0273",
    "arrival": "2023-10-14T12:07:00Z",
    "departure": "2023-10-14T12:09:00Z"
  },
  {
    "train_number": "5919  ",
    "unit_number": "4024.0014",
    "name": "Linz Hbf",
    "abbr": "Lz  ",
    "lat": "48.2908",
    "lng": "14.2927",
    "arrival": "2023-10-14T11:10:00Z",
    "departure": "2023-10-14T11:50:00Z"
  },
  {
    "train_number": "5919  ",
    "unit_number": "4024.0014",
    "name": "Wels Hbf",
    "abbr": "We  ",
    "lat": "48.1662",
    "lng": "14.0273",
    "arrival": "2023-10-14T10:51:00Z",
    "departure": "2023-10-14T10:53:00Z"
  },
  {
    "train_number": "5919  ",
    "unit_number": "4024.0014",
    "name": "Neumarkt-Kallham (in Neu)",
    "abbr": "Neu ",
    "lat": "48.2714",
    "lng": "13.7245",
    "arrival": "2023-10-14T10:23:00Z",
    "departure": "2023-10-14T10:24:00Z"
  },
  {
    "train_number": "1776  ",
    "unit_number": "4024.0014",
    "name": "Schärding (in Sch)",
    "abbr": "Sch ",
    "lat": "48.4638",
    "lng": "13.4424",
    "arrival": "2023-10-14T08:56:00Z",
    "departure": "2023-10-14T09:52:00Z"
  },
  {
    "train_number": "1776  ",
    "unit_number": "4024.0014",
    "name": "Neumarkt-Kallham (in Neu)",
    "abbr": "Neu ",
    "lat": "48.2714",
    "lng": "13.7245",
    "arrival": "2023-10-14T08:31:00Z",
    "departure": "2023-10-14T08:32:00Z"
  },
  {
    "train_number": "1776  ",
    "unit_number": "4024.0014",
    "name": "Wels Hbf",
    "abbr": "We  ",
    "lat": "48.1662",
    "lng": "14.0273",
    "arrival": "2023-10-14T08:07:00Z",
    "departure": "2023-10-14T08:09:00Z"
  },
  {
    "train_number": "5907  ",
    "unit_number": "4024.0014",
    "name": "Linz Hbf",
    "abbr": "Lz  ",
    "lat": "48.2908",
    "lng": "14.2927",
    "arrival": "2023-10-14T05:08:00Z",
    "departure": "2023-10-14T07:50:00Z"
  },
  {
    "train_number": "5907  ",
    "unit_number": "4024.0014",
    "name": "Wels Hbf",
    "abbr": "We  ",
    "lat": "48.1662",
    "lng": "14.0273",
    "arrival": "2023-10-14T04:50:00Z",
    "departure": "2023-10-14T04:52:00Z"
  },
  {
    "train_number": "5907  ",
    "unit_number": "4024.0014",
    "name": "Neumarkt-Kallham (in Neu)",
    "abbr": "Neu ",
    "lat": "48.2714",
    "lng": "13.7245",
    "arrival": "2023-10-14T04:23:00Z",
    "departure": "2023-10-14T04:24:00Z"
  },
  {
    "train_number": "5920  ",
    "unit_number": "4024.0014",
    "name": "Schärding (in Sch)",
    "abbr": "Sch ",
    "lat": "48.4638",
    "lng": "13.4424",
    "arrival": "2023-10-13T20:08:00Z",
    "departure": "2023-10-14T03:52:00Z"
  }
]
