[
  {
    "train_number": "5162  ",
    "unit_number": "4024.0088",
    "name": "Innsbruck Hbf  (in I)",
    "abbr": "I   ",
    "lat": "47.2634",
    "lng": "11.4017",
    "arrival": "2023-11-02T14:55:00Z",
    "departure": "2023-11-02T14:59:00Z"
  },
  {
    "train_number": "5162  ",
    "unit_number": "4024.0088",
    "name": "Hall in Tirol",
    "abbr": "H   ",
    "lat": "47.2769",
    "lng": "11.5013",
    "arrival": "2023-11-02T14:44:00Z",
    "departure": "2023-11-02T14:44:00Z"
  },
  {
    "train_number": "5162  ",
    "unit_number": "4024.0088",
    "name": "Schwaz",
    "abbr": "Sw  ",
    "lat": "47.3497",
    "lng": "11.7016",
    "arrival": "2023-11-02T14:28:00Z",
    "departure": "2023-11-02T14:28:00Z"
  },
  {
    "train_number": "5159  ",
    "unit_number": "4024.0088",
    "name": "Jenbach",
    "abbr": "Jb  ",
    "lat": "47.3884",
    "lng": "11.7783",
    "arrival": "2023-11-02T13:38:00Z",
    "departure": "2023-11-02T14:21:00Z"
  },
  {
    "train_number": "5159  ",
    "unit_number": "4024.0088",
    "name": "Schwaz",
    "abbr": "Sw  ",
    "lat": "47.3497",
    "lng": "11.7016",
    "arrival": "2023-11-02T13:31:00Z",
    "departure": "2023-11-02T13:32:00Z"
  },
  {
    "train_number": "5159  ",
    "unit_number": "4024.0088",
    "name": "Hall in Tirol",
    "abbr": "H   ",
    "lat": "47.2769",
    "lng": "11.5013",
    "arrival": "2023-11-02T13:15:00Z",
    "departure": "2023-11-02T13:16:00Z"
  },
  {
    "train_number": "5159  ",
    "unit_number": "4024.0088",
    "name": "Innsbruck Hbf  (in I)",
    "abbr": "I   ",
    "lat": "47.2634",
    "lng": "11.4017",
    "arrival": "2023-11-02T13:01:00Z",
    "departure": "2023-11-02T13:05:00Z"
  },
  {
    "train_number": "5154  ",
    "unit_number": "4024.0088",
    "name": "Innsbruck Hbf  (in I)",
    "abbr": "I   ",
    "lat": "47.2634",
    "lng": "11.4017",
    "arrival": "2023-11-02T10:55:00Z",
    "departure": "2023-11-02T10:59:00Z"
  },
  {
    "train_number": "5154  ",
    "unit_number": "4024.0088",
    "name": "Hall in Tirol",
    "abbr": "H   ",
    "lat": "47.2769",
    "lng": "11.5013",
    "arrival": "2023-11-02T10:44:00Z",
    "departure": "2023-11-02T10:44:00Z"
  },
  {
    "train_number": "5154  ",
    "unit_number": "4024.0088",
    "name": "Schwaz",
    "abbr": "Sw  ",
    "lat": "47.3497",
    "lng": "11.7016",
    "arrival": "2023-11-02T10:28:00Z",
    "departure": "2023-11-02T10:28:00Z"
  },
  {
    "train_number": "5151  ",
    "unit_number": "4024.0088",
    "name": "Jenbach",
    "abbr": "Jb  ",
    "lat": "47.3884",
    "lng": "11.7783",
    "arrival": "2023-11-02T09:38:00Z",
    "departure": "2023-11-02T10:21:00Z"
  },
  {
    "train_number": "5151  ",
    "unit_number": "4024.0088",
    "name": "Schwaz",
    "abbr": "Sw  ",
    "lat": "47.3497",
    "lng": "11.7016",
    "arrival": "2023-11-02T09:31:00Z",
    "departure": "2023-11-02T09:32:00Z"
  },
  {
    "train_number": "5151  ",
    "unit_number": "4024.0088",
    "name": "Hall in Tirol",
    "abbr": "H   ",
    "lat": "47.2769",
    "lng": "11.5013",
    "arrival": "2023-11-02T09:15:00Z",
    "departure": "2023-11-02T09:16:00Z"
  },
  {
    "train_number": "5151  ",
    "unit_number": "4024.0088",
    "name": "Innsbruck Hbf  (in I)",
    "abbr": "I   ",
    "lat": "47.2634",
    "lng": "11.4017",
    "arrival": "2023-11-02T09:01:00Z",
    "departure": "2023-11-02T09:05:00Z"
  },
  {
    "train_number": "5144  ",
    "unit_number": "4024.0088",
    "name": "Innsbruck Hbf  (in I)",
    "abbr": "I   ",
    "lat": "47.2634",
    "lng": "11.4017",
    "arrival": "2023-11-02T05:55:00Z",
    "departure": "2023-11-02T05:59:00Z"
  },
  {
    "train_number": "5144  ",
    "unit_number": "4024.0088",
    "name": "Hall in Tirol",
    "abbr": "H   ",
    "lat": "47.2769",
    "lng": "11.5013",
    "arrival": "2023-11-02T05:44:00Z",
    "departure": "2023-11-02T05:44:00Z"
  },
  {
    "train_number": "5144  ",
    "unit_number": "4024.0088",
    "name": "Schwaz",
    "abbr": "Sw  ",
    "lat": "47.3497",
    "lng": "11.7016",
    "arrival": "2023-11-02T05:28:00Z",
    "departure": "2023-11-02T05:28:00Z"
  },
  {
    "train_number": "5144  ",
    "unit_number": "4024.0088",
    "name": "Jenbach",
    "abbr": "Jb  ",
    "lat": "47.3884",
    "lng": "11.7783",
    "arrival": "2023-11-02T05:20:00Z",
    "departure": "2023-11-02T05:21:00Z"
  },
  {
    "train_number": "5144  ",
    "unit_number": "4024.0088",
    "name": "Wörgl Hbf-T. N. (in W)",
    "abbr": "Wtn ",
    "lat": "47.4824",
    "lng": "12.033",
    "arrival": null,
    "departure": "2023-11-02T05:00:00Z"
  },
  {
    "train_number": "5040  ",
    "unit_number": "4024.0088",
    "name": "Wörgl Hbf (in W)",
    "abbr": "W   ",
    "lat": "47.4912",
    "lng": "12.0603",
    "arrival": "2023-11-01T19:40:00Z",
    "departure": "2023-11-02T04:59:00Z"
  }
]
