[
  {
    "train_number": "5918  ",
    "unit_number": "4024.0014",
    "name": "Schärding (in Sch)",
    "abbr": "Sch ",
    "lat": "48.4638",
    "lng": "13.4424",
    "arrival": "2023-08-19T19:08:00Z",
    "departure": "2023-08-19T19:09:00Z"
  },
  {
    "train_number": "5918  ",
    "unit_number": "4024.0014",
    "name": "Neumarkt-Kallham (in Neu)",
    "abbr": "Neu ",
    "lat": "48.2714",
    "lng": "13.7245",
    "arrival": "2023-08-19T18:35:00Z",
    "departure": "2023-08-19T18:36:00Z"
  },
  {
    "train_number": "5918  ",
    "unit_number": "4024.0014",
    "name": "Wels Hbf",
    "abbr": "We  ",
    "lat": "48.1662",
    "lng": "14.0273",
    "arrival": "2023-08-19T18:07:00Z",
    "departure": "2023-08-19T18:09:00Z"
  },
  {
    "train_number": "5073  ",
    "unit_number": "4024.0014",
    "name": "Linz Hbf",
    "abbr": "Lz  ",
    "lat": "48.2908",
    "lng": "14.2927",
    "arrival": "2023-08-19T17:00:00Z",
    "departure": "2023-08-19T17:50:00Z"
  },
  {
    "train_number": "5073  ",
    "unit_number": "4024.0014",
    "name": "Wels Hbf",
    "abbr": "We  ",
    "lat": "48.1662",
    "lng": "14.0273",
    "arrival": "2023-08-19T16:36:00Z",
    "departure": "2023-08-19T16:37:00Z"
  },
  {
    "train_number": "5073  ",
    "unit_number": "4024.0014",
    "name": "Attnang-Puchheim",
    "abbr": "At  ",
    "lat": "48.0112",
    "lng": "13.7193",
    "arrival": "2023-08-19T15:55:00Z",
    "departure": "2023-08-19T16:10:00Z"
  },
  {
    "train_number": "5073  ",
    "unit_number": "4024.0014",
    "name": "Steindorf b.Straßw. (in Nst)",
    "abbr": "Nst ",
    "lat": "47.9676",
    "lng": "13.2406",
    "arrival": null,
    "departure": "2023-08-19T15:00:00Z"
  },
  {
    "train_number": "5073  ",
    "unit_number": "4024.0014",
    "name": "Salzburg Hbf (in Sb)",
    "abbr": "Sb  ",
    "lat": "47.8135",
    "lng": "13.0466",
    "arrival": "2023-08-19T14:32:00Z",
    "departure": "2023-08-19T14:34:00Z"
  },
  {
    "train_number": "5073  ",
    "unit_number": "4024.0014",
    "name": "Salzburg Liefering (in Sb)",
    "abbr": "Lfg ",
    "lat": "47.8229",
    "lng": "13.0021",
    "arrival": "2023-08-19T14:23:00Z",
    "departure": "2023-08-19T14:23:00Z"
  },
  {
    "train_number": "5070  ",
    "unit_number": "4024.0014",
    "name": "Freilassing",
    "abbr": "MFL ",
    "lat": "47.8368",
    "lng": "12.9764",
    "arrival": "2023-08-19T13:42:00Z",
    "departure": "2023-08-19T14:20:00Z"
  },
  {
    "train_number": "5070  ",
    "unit_number": "4024.0014",
    "name": "Salzburg Liefering (in Sb)",
    "abbr": "Lfg ",
    "lat": "47.8229",
    "lng": "13.0021",
    "arrival": "2023-08-19T13:36:00Z",
    "departure": "2023-08-19T13:36:00Z"
  },
  {
    "train_number": "5070  ",
    "unit_number": "4024.0014",
    "name": "Salzburg Hbf (in Sb)",
    "abbr": "Sb  ",
    "lat": "47.8135",
    "lng": "13.0466",
    "arrival": "2023-08-19T13:26:00Z",
    "departure": "2023-08-19T13:28:00Z"
  },
  {
    "train_number": "5070  ",
    "unit_number": "4024.0014",
    "name": "Steindorf b.Straßw. (in Nst)",
    "abbr": "Nst ",
    "lat": "47.9676",
    "lng": "13.2406",
    "arrival": null,
    "departure": "2023-08-19T12:59:00Z"
  },
  {
    "train_number": "5070  ",
    "unit_number": "4024.0014",
    "name": "Attnang-Puchheim",
    "abbr": "At  ",
    "lat": "48.0112",
    "lng": "13.7193",
    "arrival": "2023-08-19T11:50:00Z",
    "departure": "2023-08-19T11:51:00Z"
  },
  {
    "train_number": "5070  ",
    "unit_number": "4024.0014",
    "name": "Wels Hbf",
    "abbr": "We  ",
    "lat": "48.1662",
    "lng": "14.0273",
    "arrival": "2023-08-19T11:22:00Z",
    "departure": "2023-08-19T11:23:00Z"
  },
  {
    "train_number": "5907  ",
    "unit_number": "4024.0014",
    "name": "Linz Hbf",
    "abbr": "Lz  ",
    "lat": "48.2908",
    "lng": "14.2927",
    "arrival": "2023-08-19T05:08:00Z",
    "departure": "2023-08-19T11:00:00Z"
  },
  {
    "train_number": "5907  ",
    "unit_number": "4024.0014",
    "name": "Wels Hbf",
    "abbr": "We  ",
    "lat": "48.1662",
    "lng": "14.0273",
    "arrival": "2023-08-19T04:50:00Z",
    "departure": "2023-08-19T04:52:00Z"
  },
  {
    "train_number": "5907  ",
    "unit_number": "4024.0014",
    "name": "Neumarkt-Kallham (in Neu)",
    "abbr": "Neu ",
    "lat": "48.2714",
    "lng": "13.7245",
    "arrival": "2023-08-19T04:23:00Z",
    "departure": "2023-08-19T04:24:00Z"
  },
  {
    "train_number": "5907  ",
    "unit_number": "4024.0014",
    "name": "Schärding (in Sch)",
    "abbr": "Sch ",
    "lat": "48.4638",
    "lng": "13.4424",
    "arrival": "2023-08-19T03:51:00Z",
    "departure": "2023-08-19T03:52:00Z"
  },
  {
    "train_number": "1788  ",
    "unit_number": "4024.0014",
    "name": "Passau Hbf",
    "abbr": "Pa  ",
    "lat": "48.5729",
    "lng": "13.4342",
    "arrival": "2023-08-18T17:30:00Z",
    "departure": "2023-08-19T03:39:00Z"
  }
]
