[
  {
    "train_number": "85150 ",
    "unit_number": "4024.0089",
    "name": "Wien Westbf (in Ws)",
    "abbr": "Ws  ",
    "lat": "48.1964",
    "lng": "16.3374",
    "arrival": "2023-10-03T17:56:00Z",
    "departure": "2023-10-04T03:56:00Z"
  },
  {
    "train_number": null,
    "unit_number": "4024.0089",
    "name": "W. FJBf-Gürtelbrücke (in Wf)",
    "abbr": "Wfg ",
    "lat": "48.2392",
    "lng": "16.3604",
    "arrival": null,
    "departure": "2023-10-03T17:14:00Z"
  },
  {
    "train_number": "21055 ",
    "unit_number": "4024.0089",
    "name": "Tulln a. d. Donau (in Tu)",
    "abbr": "Tu  ",
    "lat": "48.3275",
    "lng": "16.0644",
    "arrival": "2023-10-03T15:32:00Z",
    "departure": "2023-10-03T15:38:00Z"
  },
  {
    "train_number": "21055 ",
    "unit_number": "4024.0089",
    "name": "Herzogenburg (in Ho)",
    "abbr": "Ho  ",
    "lat": "48.2759",
    "lng": "15.6966",
    "arrival": "2023-10-03T14:28:00Z",
    "departure": "2023-10-03T14:29:00Z"
  },
  {
    "train_number": "21034 ",
    "unit_number": "4024.0089",
    "name": "St.Pölten Hbf (in Pb)",
    "abbr": "Pb  ",
    "lat": "48.2081",
    "lng": "15.6237",
    "arrival": "2023-10-03T13:49:00Z",
    "departure": "2023-10-03T14:12:00Z"
  },
  {
    "train_number": "21034 ",
    "unit_number": "4024.0089",
    "name": "Herzogenburg (in Ho)",
    "abbr": "Ho  ",
    "lat": "48.2759",
    "lng": "15.6966",
    "arrival": "2023-10-03T13:22:00Z",
    "departure": "2023-10-03T13:30:00Z"
  },
  {
    "train_number": "21034 ",
    "unit_number": "4024.0089",
    "name": "Tulln a. d. Donau (in Tu)",
    "abbr": "Tu  ",
    "lat": "48.3275",
    "lng": "16.0644",
    "arrival": "2023-10-03T12:22:00Z",
    "departure": "2023-10-03T12:27:00Z"
  },
  {
    "train_number": "21035 ",
    "unit_number": "4024.0089",
    "name": "Wien FJBf (in Wf)",
    "abbr": "Wf  ",
    "lat": "48.227",
    "lng": "16.3611",
    "arrival": "2023-10-03T11:21:00Z",
    "departure": "2023-10-03T11:39:00Z"
  },
  {
    "train_number": "21035 ",
    "unit_number": "4024.0089",
    "name": "Tulln a. d. Donau (in Tu)",
    "abbr": "Tu  ",
    "lat": "48.3275",
    "lng": "16.0644",
    "arrival": "2023-10-03T10:32:00Z",
    "departure": "2023-10-03T10:38:00Z"
  },
  {
    "train_number": "21035 ",
    "unit_number": "4024.0089",
    "name": "Herzogenburg (in Ho)",
    "abbr": "Ho  ",
    "lat": "48.2759",
    "lng": "15.6966",
    "arrival": "2023-10-03T09:28:00Z",
    "departure": "2023-10-03T09:29:00Z"
  },
  {
    "train_number": "21014 ",
    "unit_number": "4024.0089",
    "name": "St.Pölten Hbf (in Pb)",
    "abbr": "Pb  ",
    "lat": "48.2081",
    "lng": "15.6237",
    "arrival": "2023-10-03T08:44:00Z",
    "departure": "2023-10-03T09:12:00Z"
  },
  {
    "train_number": "21014 ",
    "unit_number": "4024.0089",
    "name": "Herzogenburg (in Ho)",
    "abbr": "Ho  ",
    "lat": "48.2759",
    "lng": "15.6966",
    "arrival": "2023-10-03T08:22:00Z",
    "departure": "2023-10-03T08:30:00Z"
  },
  {
    "train_number": "21014 ",
    "unit_number": "4024.0089",
    "name": "Tulln a. d. Donau (in Tu)",
    "abbr": "Tu  ",
    "lat": "48.3275",
    "lng": "16.0644",
    "arrival": "2023-10-03T07:22:00Z",
    "departure": "2023-10-03T07:27:00Z"
  },
  {
    "train_number": "21013 ",
    "unit_number": "4024.0089",
    "name": "Wien FJBf (in Wf)",
    "abbr": "Wf  ",
    "lat": "48.227",
    "lng": "16.3611",
    "arrival": "2023-10-03T05:51:00Z",
    "departure": "2023-10-03T06:39:00Z"
  },
  {
    "train_number": "21013 ",
    "unit_number": "4024.0089",
    "name": "Tulln a. d. Donau (in Tu)",
    "abbr": "Tu  ",
    "lat": "48.3275",
    "lng": "16.0644",
    "arrival": "2023-10-03T05:02:00Z",
    "departure": "2023-10-03T05:08:00Z"
  },
  {
    "train_number": "21013 ",
    "unit_number": "4024.0089",
    "name": "Herzogenburg (in Ho)",
    "abbr": "Ho  ",
    "lat": "48.2759",
    "lng": "15.6966",
    "arrival": "2023-10-03T04:01:00Z",
    "departure": "2023-10-03T04:02:00Z"
  },
  {
    "train_number": "21090 ",
    "unit_number": "4024.0089",
    "name": "St.Pölten Hbf (in Pb)",
    "abbr": "Pb  ",
    "lat": "48.2081",
    "lng": "15.6237",
    "arrival": "2023-10-03T03:37:00Z",
    "departure": "2023-10-03T03:45:00Z"
  },
  {
    "train_number": "21090 ",
    "unit_number": "4024.0089",
    "name": "Herzogenburg (in Ho)",
    "abbr": "Ho  ",
    "lat": "48.2759",
    "lng": "15.6966",
    "arrival": "2023-10-03T03:23:00Z",
    "departure": "2023-10-03T03:24:00Z"
  },
  {
    "train_number": "21085 ",
    "unit_number": "4024.0089",
    "name": "Tulln a. d. Donau (in Tu)",
    "abbr": "Tu  ",
    "lat": "48.3275",
    "lng": "16.0644",
    "arrival": "2023-10-02T22:32:00Z",
    "departure": "2023-10-03T02:41:00Z"
  }
]
