[
  {
    "train_number": "5274  ",
    "unit_number": "4024.0088",
    "name": "Brennero/Brenner",
    "abbr": "Be  ",
    "lat": "47.0022",
    "lng": "11.5053",
    "arrival": "2023-10-18T21:44:00Z",
    "departure": "2023-10-19T03:58:00Z"
  },
  {
    "train_number": "5469  ",
    "unit_number": "4024.0088",
    "name": "Innsbruck Hbf  (in I)",
    "abbr": "I   ",
    "lat": "47.2634",
    "lng": "11.4017",
    "arrival": "2023-10-18T20:23:00Z",
    "departure": "2023-10-18T21:05:00Z"
  },
  {
    "train_number": "5465  ",
    "unit_number": "4024.0088",
    "name": "Innsbruck Hbf  (in I)",
    "abbr": "I   ",
    "lat": "47.2634",
    "lng": "11.4017",
    "arrival": "2023-10-18T17:23:00Z",
    "departure": "2023-10-18T18:38:00Z"
  },
  {
    "train_number": "5457  ",
    "unit_number": "4024.0088",
    "name": "Innsbruck Hbf  (in I)",
    "abbr": "I   ",
    "lat": "47.2634",
    "lng": "11.4017",
    "arrival": "2023-10-18T13:23:00Z",
    "departure": "2023-10-18T14:38:00Z"
  },
  {
    "train_number": "5449  ",
    "unit_number": "4024.0088",
    "name": "Innsbruck Hbf  (in I)",
    "abbr": "I   ",
    "lat": "47.2634",
    "lng": "11.4017",
    "arrival": "2023-10-18T09:23:00Z",
    "departure": "2023-10-18T10:38:00Z"
  },
  {
    "train_number": "5184  ",
    "unit_number": "4024.0088",
    "name": "Innsbruck Hbf  (in I)",
    "abbr": "I   ",
    "lat": "47.2634",
    "lng": "11.4017",
    "arrival": "2023-10-18T05:29:00Z",
    "departure": "2023-10-18T06:38:00Z"
  },
  {
    "train_number": "5184  ",
    "unit_number": "4024.0088",
    "name": "Hall in Tirol",
    "abbr": "H   ",
    "lat": "47.2769",
    "lng": "11.5013",
    "arrival": "2023-10-18T05:18:00Z",
    "departure": "2023-10-18T05:18:00Z"
  },
  {
    "train_number": "5184  ",
    "unit_number": "4024.0088",
    "name": "Schwaz",
    "abbr": "Sw  ",
    "lat": "47.3497",
    "lng": "11.7016",
    "arrival": "2023-10-18T05:02:00Z",
    "departure": "2023-10-18T05:02:00Z"
  },
  {
    "train_number": "5143  ",
    "unit_number": "4024.0088",
    "name": "Jenbach",
    "abbr": "Jb  ",
    "lat": "47.3884",
    "lng": "11.7783",
    "arrival": "2023-10-18T04:31:00Z",
    "departure": "2023-10-18T04:55:00Z"
  },
  {
    "train_number": "5143  ",
    "unit_number": "4024.0088",
    "name": "Schwaz",
    "abbr": "Sw  ",
    "lat": "47.3497",
    "lng": "11.7016",
    "arrival": "2023-10-18T04:24:00Z",
    "departure": "2023-10-18T04:25:00Z"
  },
  {
    "train_number": "5143  ",
    "unit_number": "4024.0088",
    "name": "Hall in Tirol",
    "abbr": "H   ",
    "lat": "47.2769",
    "lng": "11.5013",
    "arrival": "2023-10-18T04:08:00Z",
    "departure": "2023-10-18T04:09:00Z"
  },
  {
    "train_number": "5143  ",
    "unit_number": "4024.0088",
    "name": "Innsbruck Hbf  (in I)",
    "abbr": "I   ",
    "lat": "47.2634",
    "lng": "11.4017",
    "arrival": "2023-10-18T03:53:00Z",
    "departure": "2023-10-18T03:58:00Z"
  }
]
