[
  {
    "train_number": "21085 ",
    "unit_number": "4024.0089",
    "name": "Tulln a. d. Donau (in Tu)",
    "abbr": "Tu  ",
    "lat": "48.3275",
    "lng": "16.0644",
    "arrival": "2023-10-02T22:32:00Z",
    "departure": "2023-10-03T02:41:00Z"
  },
  {
    "train_number": "21074 ",
    "unit_number": "4024.0089",
    "name": "Tulln Stadt (in Tu)",
    "abbr": "Tus ",
    "lat": "48.3284",
    "lng": "16.0538",
    "arrival": "2023-10-02T22:25:00Z",
    "departure": "2023-10-02T22:30:00Z"
  },
  {
    "train_number": "21074 ",
    "unit_number": "4024.0089",
    "name": "Tulln a. d. Donau (in Tu)",
    "abbr": "Tu  ",
    "lat": "48.3275",
    "lng": "16.0644",
    "arrival": "2023-10-02T22:22:00Z",
    "departure": "2023-10-02T22:23:00Z"
  },
  {
    "train_number": "21075 ",
    "unit_number": "4024.0089",
    "name": "Wien FJBf (in Wf)",
    "abbr": "Wf  ",
    "lat": "48.227",
    "lng": "16.3611",
    "arrival": "2023-10-02T21:21:00Z",
    "departure": "2023-10-02T21:39:00Z"
  },
  {
    "train_number": "21075 ",
    "unit_number": "4024.0089",
    "name": "Tulln a. d. Donau (in Tu)",
    "abbr": "Tu  ",
    "lat": "48.3275",
    "lng": "16.0644",
    "arrival": "2023-10-02T20:32:00Z",
    "departure": "2023-10-02T20:38:00Z"
  },
  {
    "train_number": "21075 ",
    "unit_number": "4024.0089",
    "name": "Herzogenburg (in Ho)",
    "abbr": "Ho  ",
    "lat": "48.2759",
    "lng": "15.6966",
    "arrival": "2023-10-02T19:28:00Z",
    "departure": "2023-10-02T19:29:00Z"
  },
  {
    "train_number": "21042 ",
    "unit_number": "4024.0089",
    "name": "St.Pölten Hbf (in Pb)",
    "abbr": "Pb  ",
    "lat": "48.2081",
    "lng": "15.6237",
    "arrival": "2023-10-02T15:49:00Z",
    "departure": "2023-10-02T19:12:00Z"
  },
  {
    "train_number": "21042 ",
    "unit_number": "4024.0089",
    "name": "Herzogenburg (in Ho)",
    "abbr": "Ho  ",
    "lat": "48.2759",
    "lng": "15.6966",
    "arrival": "2023-10-02T15:22:00Z",
    "departure": "2023-10-02T15:32:00Z"
  },
  {
    "train_number": "21042 ",
    "unit_number": "4024.0089",
    "name": "Tulln a. d. Donau (in Tu)",
    "abbr": "Tu  ",
    "lat": "48.3275",
    "lng": "16.0644",
    "arrival": "2023-10-02T14:22:00Z",
    "departure": "2023-10-02T14:27:00Z"
  },
  {
    "train_number": "21023 ",
    "unit_number": "4024.0089",
    "name": "Wien FJBf (in Wf)",
    "abbr": "Wf  ",
    "lat": "48.227",
    "lng": "16.3611",
    "arrival": "2023-10-02T08:21:00Z",
    "departure": "2023-10-02T13:39:00Z"
  },
  {
    "train_number": "21023 ",
    "unit_number": "4024.0089",
    "name": "Tulln a. d. Donau (in Tu)",
    "abbr": "Tu  ",
    "lat": "48.3275",
    "lng": "16.0644",
    "arrival": "2023-10-02T07:32:00Z",
    "departure": "2023-10-02T07:38:00Z"
  },
  {
    "train_number": "21023 ",
    "unit_number": "4024.0089",
    "name": "Herzogenburg (in Ho)",
    "abbr": "Ho  ",
    "lat": "48.2759",
    "lng": "15.6966",
    "arrival": "2023-10-02T06:28:00Z",
    "departure": "2023-10-02T06:33:00Z"
  },
  {
    "train_number": "21004 ",
    "unit_number": "4024.0089",
    "name": "St.Pölten Hbf (in Pb)",
    "abbr": "Pb  ",
    "lat": "48.2081",
    "lng": "15.6237",
    "arrival": "2023-10-02T06:04:00Z",
    "departure": "2023-10-02T06:12:00Z"
  },
  {
    "train_number": "21004 ",
    "unit_number": "4024.0089",
    "name": "Herzogenburg (in Ho)",
    "abbr": "Ho  ",
    "lat": "48.2759",
    "lng": "15.6966",
    "arrival": "2023-10-02T05:51:00Z",
    "departure": "2023-10-02T05:52:00Z"
  },
  {
    "train_number": "21004 ",
    "unit_number": "4024.0089",
    "name": "Tulln a. d. Donau (in Tu)",
    "abbr": "Tu  ",
    "lat": "48.3275",
    "lng": "16.0644",
    "arrival": "2023-10-02T04:52:00Z",
    "departure": "2023-10-02T04:58:00Z"
  },
  {
    "train_number": "21005 ",
    "unit_number": "4024.0089",
    "name": "Wien FJBf (in Wf)",
    "abbr": "Wf  ",
    "lat": "48.227",
    "lng": "16.3611",
    "arrival": "2023-10-02T03:51:00Z",
    "departure": "2023-10-02T04:09:00Z"
  },
  {
    "train_number": "21005 ",
    "unit_number": "4024.0089",
    "name": "Tulln a. d. Donau (in Tu)",
    "abbr": "Tu  ",
    "lat": "48.3275",
    "lng": "16.0644",
    "arrival": "2023-10-02T02:58:00Z",
    "departure": "2023-10-02T03:08:00Z"
  },
  {
    "train_number": "21005 ",
    "unit_number": "4024.0089",
    "name": "Herzogenburg (in Ho)",
    "abbr": "Ho  ",
    "lat": "48.2759",
    "lng": "15.6966",
    "arrival": "2023-10-02T02:16:00Z",
    "departure": "2023-10-02T02:17:00Z"
  }
]
