[
  {
    "train_number": "21085 ",
    "unit_number": "4024.0089",
    "name": "Tulln a. d. Donau (in Tu)",
    "abbr": "Tu  ",
    "lat": "48.3275",
    "lng": "16.0644",
    "arrival": "2023-09-27T22:32:00Z",
    "departure": "2023-09-28T03:38:00Z"
  },
  {
    "train_number": "21074 ",
    "unit_number": "4024.0089",
    "name": "Tulln Stadt (in Tu)",
    "abbr": "Tus ",
    "lat": "48.3275",
    "lng": "16.0644",
    "arrival": "2023-09-27T22:25:00Z",
    "departure": "2023-09-27T22:30:00Z"
  },
  {
    "train_number": "21074 ",
    "unit_number": "4024.0089",
    "name": "Tulln a. d. Donau (in Tu)",
    "abbr": "Tu  ",
    "lat": "48.3275",
    "lng": "16.0644",
    "arrival": "2023-09-27T22:22:00Z",
    "departure": "2023-09-27T22:23:00Z"
  },
  {
    "train_number": "21075 ",
    "unit_number": "4024.0089",
    "name": "Wien FJBf (in Wf)",
    "abbr": "Wf  ",
    "lat": "48.227",
    "lng": "16.3611",
    "arrival": "2023-09-27T21:21:00Z",
    "departure": "2023-09-27T21:39:00Z"
  },
  {
    "train_number": "21075 ",
    "unit_number": "4024.0089",
    "name": "Tulln a. d. Donau (in Tu)",
    "abbr": "Tu  ",
    "lat": "48.3275",
    "lng": "16.0644",
    "arrival": "2023-09-27T20:32:00Z",
    "departure": "2023-09-27T20:38:00Z"
  },
  {
    "train_number": "21075 ",
    "unit_number": "4024.0089",
    "name": "Herzogenburg (in Ho)",
    "abbr": "Ho  ",
    "lat": "48.2759",
    "lng": "15.6966",
    "arrival": "2023-09-27T19:28:00Z",
    "departure": "2023-09-27T19:29:00Z"
  },
  {
    "train_number": "21042 ",
    "unit_number": "4024.0089",
    "name": "St.Pölten Hbf (in Pb)",
    "abbr": "Pb  ",
    "lat": "48.2081",
    "lng": "15.6237",
    "arrival": "2023-09-27T15:49:00Z",
    "departure": "2023-09-27T19:12:00Z"
  },
  {
    "train_number": "21042 ",
    "unit_number": "4024.0089",
    "name": "Herzogenburg (in Ho)",
    "abbr": "Ho  ",
    "lat": "48.2759",
    "lng": "15.6966",
    "arrival": "2023-09-27T15:22:00Z",
    "departure": "2023-09-27T15:32:00Z"
  },
  {
    "train_number": "21042 ",
    "unit_number": "4024.0089",
    "name": "Tulln a. d. Donau (in Tu)",
    "abbr": "Tu  ",
    "lat": "48.3275",
    "lng": "16.0644",
    "arrival": "2023-09-27T14:22:00Z",
    "departure": "2023-09-27T14:27:00Z"
  },
  {
    "train_number": "21031 ",
    "unit_number": "4024.0089",
    "name": "Wien FJBf (in Wf)",
    "abbr": "Wf  ",
    "lat": "48.227",
    "lng": "16.3611",
    "arrival": "2023-09-27T10:21:00Z",
    "departure": "2023-09-27T13:39:00Z"
  },
  {
    "train_number": "21031 ",
    "unit_number": "4024.0089",
    "name": "Tulln a. d. Donau (in Tu)",
    "abbr": "Tu  ",
    "lat": "48.3275",
    "lng": "16.0644",
    "arrival": "2023-09-27T09:32:00Z",
    "departure": "2023-09-27T09:38:00Z"
  },
  {
    "train_number": "21031 ",
    "unit_number": "4024.0089",
    "name": "Herzogenburg (in Ho)",
    "abbr": "Ho  ",
    "lat": "48.2759",
    "lng": "15.6966",
    "arrival": "2023-09-27T08:28:00Z",
    "departure": "2023-09-27T08:29:00Z"
  },
  {
    "train_number": "21010 ",
    "unit_number": "4024.0089",
    "name": "St.Pölten Hbf (in Pb)",
    "abbr": "Pb  ",
    "lat": "48.2081",
    "lng": "15.6237",
    "arrival": "2023-09-27T07:44:00Z",
    "departure": "2023-09-27T08:12:00Z"
  },
  {
    "train_number": "21010 ",
    "unit_number": "4024.0089",
    "name": "Herzogenburg (in Ho)",
    "abbr": "Ho  ",
    "lat": "48.2759",
    "lng": "15.6966",
    "arrival": "2023-09-27T07:22:00Z",
    "departure": "2023-09-27T07:30:00Z"
  },
  {
    "train_number": "21010 ",
    "unit_number": "4024.0089",
    "name": "Tulln a. d. Donau (in Tu)",
    "abbr": "Tu  ",
    "lat": "48.3275",
    "lng": "16.0644",
    "arrival": "2023-09-27T06:22:00Z",
    "departure": "2023-09-27T06:27:00Z"
  },
  {
    "train_number": null,
    "unit_number": "4024.0089",
    "name": "Wien FJBf (in Wf)",
    "abbr": "Wf  ",
    "lat": "48.227",
    "lng": "16.3611",
    "arrival": null,
    "departure": "2023-09-27T05:39:00Z"
  },
  {
    "train_number": "82271 ",
    "unit_number": "4024.0089",
    "name": "Wien Westbf (in Ws)",
    "abbr": "Ws  ",
    "lat": "48.1964",
    "lng": "16.3374",
    "arrival": "2023-09-26T21:10:00Z",
    "departure": "2023-09-27T03:56:00Z"
  }
]
