[
  {
    "train_number": "25796 ",
    "unit_number": "4024.0014",
    "name": "Salzburg Liefering (in Sb)",
    "abbr": "Lfg ",
    "lat": "47.8229",
    "lng": "13.0021",
    "arrival": "2023-10-12T19:40:00Z",
    "departure": "2023-10-12T19:40:00Z"
  },
  {
    "train_number": "5080  ",
    "unit_number": "4024.0014",
    "name": "Salzburg Hbf (in Sb)",
    "abbr": "Sb  ",
    "lat": "47.8135",
    "lng": "13.0466",
    "arrival": "2023-10-12T18:26:00Z",
    "departure": "2023-10-12T19:32:00Z"
  },
  {
    "train_number": "5080  ",
    "unit_number": "4024.0014",
    "name": "Steindorf b.StraÃŸw. (in Nst)",
    "abbr": "Nst ",
    "lat": "47.9676",
    "lng": "13.2406",
    "arrival": null,
    "departure": "2023-10-12T17:59:00Z"
  },
  {
    "train_number": "5080  ",
    "unit_number": "4024.0014",
    "name": "Attnang-Puchheim",
    "abbr": "At  ",
    "lat": "48.0112",
    "lng": "13.7193",
    "arrival": "2023-10-12T16:50:00Z",
    "departure": "2023-10-12T16:51:00Z"
  },
  {
    "train_number": "5080  ",
    "unit_number": "4024.0014",
    "name": "Wels Hbf",
    "abbr": "We  ",
    "lat": "48.1662",
    "lng": "14.0273",
    "arrival": "2023-10-12T16:22:00Z",
    "departure": "2023-10-12T16:23:00Z"
  },
  {
    "train_number": "3970  ",
    "unit_number": "4024.0014",
    "name": "Linz Hbf",
    "abbr": "Lz  ",
    "lat": "48.2908",
    "lng": "14.2927",
    "arrival": "2023-10-12T15:54:00Z",
    "departure": "2023-10-12T16:00:00Z"
  },
  {
    "train_number": "4411  ",
    "unit_number": "4024.0014",
    "name": "Linz Hbf",
    "abbr": "Lz  ",
    "lat": "48.2908",
    "lng": "14.2927",
    "arrival": "2023-10-12T13:41:00Z",
    "departure": "2023-10-12T14:06:00Z"
  },
  {
    "train_number": "4411  ",
    "unit_number": "4024.0014",
    "name": "Wels Hbf",
    "abbr": "We  ",
    "lat": "48.1662",
    "lng": "14.0273",
    "arrival": "2023-10-12T13:24:00Z",
    "departure": "2023-10-12T13:25:00Z"
  },
  {
    "train_number": "4411  ",
    "unit_number": "4024.0014",
    "name": "Attnang-Puchheim",
    "abbr": "At  ",
    "lat": "48.0112",
    "lng": "13.7193",
    "arrival": "2023-10-12T12:52:00Z",
    "departure": "2023-10-12T12:53:00Z"
  },
  {
    "train_number": "4411  ",
    "unit_number": "4024.0014",
    "name": "Gmunden",
    "abbr": "Gz  ",
    "lat": "47.9254",
    "lng": "13.783",
    "arrival": "2023-10-12T12:35:00Z",
    "departure": "2023-10-12T12:36:00Z"
  },
  {
    "train_number": "3414  ",
    "unit_number": "4024.0014",
    "name": "Gmunden",
    "abbr": "Gz  ",
    "lat": "47.9254",
    "lng": "13.783",
    "arrival": "2023-10-12T09:23:00Z",
    "departure": "2023-10-12T09:24:00Z"
  },
  {
    "train_number": "3413  ",
    "unit_number": "4024.0014",
    "name": "Attnang-Puchheim",
    "abbr": "At  ",
    "lat": "48.0112",
    "lng": "13.7193",
    "arrival": "2023-10-12T08:52:00Z",
    "departure": "2023-10-12T09:08:00Z"
  },
  {
    "train_number": "3413  ",
    "unit_number": "4024.0014",
    "name": "Gmunden",
    "abbr": "Gz  ",
    "lat": "47.9254",
    "lng": "13.783",
    "arrival": "2023-10-12T08:35:00Z",
    "departure": "2023-10-12T08:36:00Z"
  },
  {
    "train_number": "3406  ",
    "unit_number": "4024.0014",
    "name": "Gmunden",
    "abbr": "Gz  ",
    "lat": "47.9254",
    "lng": "13.783",
    "arrival": "2023-10-12T05:32:00Z",
    "departure": "2023-10-12T05:36:00Z"
  },
  {
    "train_number": "3002  ",
    "unit_number": "4024.0014",
    "name": "Attnang-Puchheim",
    "abbr": "At  ",
    "lat": "48.0112",
    "lng": "13.7193",
    "arrival": "2023-10-12T04:50:00Z",
    "departure": "2023-10-12T05:16:00Z"
  },
  {
    "train_number": "3002  ",
    "unit_number": "4024.0014",
    "name": "Wels Hbf",
    "abbr": "We  ",
    "lat": "48.1662",
    "lng": "14.0273",
    "arrival": "2023-10-12T04:22:00Z",
    "departure": "2023-10-12T04:23:00Z"
  },
  {
    "train_number": "2460  ",
    "unit_number": "4024.0014",
    "name": "Linz Hbf",
    "abbr": "Lz  ",
    "lat": "48.2908",
    "lng": "14.2927",
    "arrival": "2023-10-12T03:53:00Z",
    "departure": "2023-10-12T04:00:00Z"
  },
  {
    "train_number": "2460  ",
    "unit_number": "4024.0014",
    "name": "Enns",
    "abbr": "Ens ",
    "lat": "48.2212",
    "lng": "14.4668",
    "arrival": "2023-10-12T03:38:00Z",
    "departure": "2023-10-12T03:39:00Z"
  },
  {
    "train_number": "2460  ",
    "unit_number": "4024.0014",
    "name": "St.Valentin (in Sv)",
    "abbr": "Sv  ",
    "lat": "48.1784",
    "lng": "14.5219",
    "arrival": "2023-10-12T03:30:00Z",
    "departure": "2023-10-12T03:32:00Z"
  },
  {
    "train_number": "9737  ",
    "unit_number": "4024.0014",
    "name": "Amstetten (in Ams)",
    "abbr": "Ams ",
    "lat": "48.1215",
    "lng": "14.8792",
    "arrival": "2023-10-11T16:22:00Z",
    "departure": "2023-10-12T03:00:00Z"
  }
]
