[
  {
    "train_number": "1788  ",
    "unit_number": "4024.0014",
    "name": "Passau Hbf",
    "abbr": "Pa  ",
    "lat": "48.5729",
    "lng": "13.4342",
    "arrival": "2023-08-18T17:30:00Z",
    "departure": "2023-08-19T03:39:00Z"
  },
  {
    "train_number": "1788  ",
    "unit_number": "4024.0014",
    "name": "Schärding (in Sch)",
    "abbr": "Sch ",
    "lat": "48.4638",
    "lng": "13.4424",
    "arrival": "2023-08-18T17:17:00Z",
    "departure": "2023-08-18T17:18:00Z"
  },
  {
    "train_number": "1788  ",
    "unit_number": "4024.0014",
    "name": "Neumarkt-Kallham (in Neu)",
    "abbr": "Neu ",
    "lat": "48.2714",
    "lng": "13.7245",
    "arrival": "2023-08-18T16:51:00Z",
    "departure": "2023-08-18T16:52:00Z"
  },
  {
    "train_number": "1788  ",
    "unit_number": "4024.0014",
    "name": "Wels Hbf",
    "abbr": "We  ",
    "lat": "48.1662",
    "lng": "14.0273",
    "arrival": "2023-08-18T16:29:00Z",
    "departure": "2023-08-18T16:31:00Z"
  },
  {
    "train_number": "1781  ",
    "unit_number": "4024.0014",
    "name": "Linz Hbf",
    "abbr": "Lz  ",
    "lat": "48.2908",
    "lng": "14.2927",
    "arrival": "2023-08-18T12:10:00Z",
    "departure": "2023-08-18T16:14:00Z"
  },
  {
    "train_number": "1781  ",
    "unit_number": "4024.0014",
    "name": "Wels Hbf",
    "abbr": "We  ",
    "lat": "48.1662",
    "lng": "14.0273",
    "arrival": "2023-08-18T11:51:00Z",
    "departure": "2023-08-18T11:53:00Z"
  },
  {
    "train_number": "1781  ",
    "unit_number": "4024.0014",
    "name": "Neumarkt-Kallham (in Neu)",
    "abbr": "Neu ",
    "lat": "48.2714",
    "lng": "13.7245",
    "arrival": "2023-08-18T11:27:00Z",
    "departure": "2023-08-18T11:28:00Z"
  },
  {
    "train_number": "1781  ",
    "unit_number": "4024.0014",
    "name": "Schärding (in Sch)",
    "abbr": "Sch ",
    "lat": "48.4638",
    "lng": "13.4424",
    "arrival": "2023-08-18T11:01:00Z",
    "departure": "2023-08-18T11:02:00Z"
  },
  {
    "train_number": "5930  ",
    "unit_number": "4024.0014",
    "name": "Passau Hbf",
    "abbr": "Pa  ",
    "lat": "48.5729",
    "lng": "13.4342",
    "arrival": "2023-08-18T10:24:00Z",
    "departure": "2023-08-18T10:48:00Z"
  },
  {
    "train_number": "5930  ",
    "unit_number": "4024.0014",
    "name": "Schärding (in Sch)",
    "abbr": "Sch ",
    "lat": "48.4638",
    "lng": "13.4424",
    "arrival": "2023-08-18T10:10:00Z",
    "departure": "2023-08-18T10:11:00Z"
  },
  {
    "train_number": "5933  ",
    "unit_number": "4024.0014",
    "name": "Neumarkt-Kallham (in Neu)",
    "abbr": "Neu ",
    "lat": "48.2714",
    "lng": "13.7245",
    "arrival": "2023-08-18T06:20:00Z",
    "departure": "2023-08-18T09:40:00Z"
  },
  {
    "train_number": "5933  ",
    "unit_number": "4024.0014",
    "name": "Schärding (in Sch)",
    "abbr": "Sch ",
    "lat": "48.4638",
    "lng": "13.4424",
    "arrival": "2023-08-18T05:51:00Z",
    "departure": "2023-08-18T05:52:00Z"
  },
  {
    "train_number": "5902  ",
    "unit_number": "4024.0014",
    "name": "Passau Hbf",
    "abbr": "Pa  ",
    "lat": "48.5729",
    "lng": "13.4342",
    "arrival": "2023-08-18T05:27:00Z",
    "departure": "2023-08-18T05:40:00Z"
  },
  {
    "train_number": "5902  ",
    "unit_number": "4024.0014",
    "name": "Schärding (in Sch)",
    "abbr": "Sch ",
    "lat": "48.4638",
    "lng": "13.4424",
    "arrival": "2023-08-18T05:12:00Z",
    "departure": "2023-08-18T05:14:00Z"
  },
  {
    "train_number": "5902  ",
    "unit_number": "4024.0014",
    "name": "Neumarkt-Kallham (in Neu)",
    "abbr": "Neu ",
    "lat": "48.2714",
    "lng": "13.7245",
    "arrival": "2023-08-18T04:39:00Z",
    "departure": "2023-08-18T04:41:00Z"
  },
  {
    "train_number": "5902  ",
    "unit_number": "4024.0014",
    "name": "Wels Hbf",
    "abbr": "We  ",
    "lat": "48.1662",
    "lng": "14.0273",
    "arrival": "2023-08-18T04:03:00Z",
    "departure": "2023-08-18T04:13:00Z"
  },
  {
    "train_number": "5902  ",
    "unit_number": "4024.0014",
    "name": "Linz Hbf",
    "abbr": "Lz  ",
    "lat": "48.2908",
    "lng": "14.2927",
    "arrival": "2023-08-18T03:34:00Z",
    "departure": "2023-08-18T03:40:00Z"
  },
  {
    "train_number": "5902  ",
    "unit_number": "4024.0014",
    "name": "Enns",
    "abbr": "Ens ",
    "lat": "48.2212",
    "lng": "14.4668",
    "arrival": "2023-08-18T03:17:00Z",
    "departure": "2023-08-18T03:18:00Z"
  },
  {
    "train_number": "5902  ",
    "unit_number": "4024.0014",
    "name": "St.Valentin (in Sv)",
    "abbr": "Sv  ",
    "lat": "48.1784",
    "lng": "14.5219",
    "arrival": "2023-08-18T03:08:00Z",
    "departure": "2023-08-18T03:11:00Z"
  }
]
