[
  {
    "train_number": "1529  ",
    "unit_number": "4024.0120",
    "name": "Schwarzach-St.Veit",
    "abbr": "Swa ",
    "lat": "47.3186",
    "lng": "13.1561",
    "arrival": "2023-10-21T18:48:00Z",
    "departure": "2023-10-21T19:12:00Z"
  },
  {
    "train_number": "1529  ",
    "unit_number": "4024.0120",
    "name": "Kitzbühel",
    "abbr": "Kzb ",
    "lat": "47.4542",
    "lng": "12.391",
    "arrival": "2023-10-21T17:24:00Z",
    "departure": "2023-10-21T17:25:00Z"
  },
  {
    "train_number": "1518  ",
    "unit_number": "4024.0120",
    "name": "Wörgl Hbf (in W)",
    "abbr": "W   ",
    "lat": "47.4912",
    "lng": "12.0603",
    "arrival": "2023-10-21T15:09:00Z",
    "departure": "2023-10-21T16:50:00Z"
  },
  {
    "train_number": "1518  ",
    "unit_number": "4024.0120",
    "name": "Kitzbühel",
    "abbr": "Kzb ",
    "lat": "47.4542",
    "lng": "12.391",
    "arrival": "2023-10-21T14:35:00Z",
    "departure": "2023-10-21T14:35:00Z"
  },
  {
    "train_number": "1513  ",
    "unit_number": "4024.0120",
    "name": "Schwarzach-St.Veit",
    "abbr": "Swa ",
    "lat": "47.3186",
    "lng": "13.1561",
    "arrival": "2023-10-21T10:48:00Z",
    "departure": "2023-10-21T13:12:00Z"
  },
  {
    "train_number": "1513  ",
    "unit_number": "4024.0120",
    "name": "Kitzbühel",
    "abbr": "Kzb ",
    "lat": "47.4542",
    "lng": "12.391",
    "arrival": "2023-10-21T09:24:00Z",
    "departure": "2023-10-21T09:25:00Z"
  },
  {
    "train_number": "1502  ",
    "unit_number": "4024.0120",
    "name": "Wörgl Hbf (in W)",
    "abbr": "W   ",
    "lat": "47.4912",
    "lng": "12.0603",
    "arrival": "2023-10-21T07:09:00Z",
    "departure": "2023-10-21T08:50:00Z"
  },
  {
    "train_number": "1502  ",
    "unit_number": "4024.0120",
    "name": "Kitzbühel",
    "abbr": "Kzb ",
    "lat": "47.4542",
    "lng": "12.391",
    "arrival": "2023-10-21T06:35:00Z",
    "departure": "2023-10-21T06:35:00Z"
  },
  {
    "train_number": "25701 ",
    "unit_number": "4024.0120",
    "name": "Schwarzach-St.Veit",
    "abbr": "Swa ",
    "lat": "47.3186",
    "lng": "13.1561",
    "arrival": "2023-10-21T05:00:00Z",
    "departure": "2023-10-21T05:12:00Z"
  },
  {
    "train_number": "25701 ",
    "unit_number": "4024.0120",
    "name": "Bischofshofen (in Bo)",
    "abbr": "Bo  ",
    "lat": "47.42",
    "lng": "13.2199",
    "arrival": "2023-10-21T04:43:00Z",
    "departure": "2023-10-21T04:45:00Z"
  },
  {
    "train_number": "25701 ",
    "unit_number": "4024.0120",
    "name": "Salzburg Gnigl-Einfgr. (in Sb)",
    "abbr": "Sre ",
    "lat": "47.8075",
    "lng": "13.0687",
    "arrival": null,
    "departure": "2023-10-21T03:48:00Z"
  },
  {
    "train_number": "3092  ",
    "unit_number": "4024.0120",
    "name": "Salzburg Hbf (in Sb)",
    "abbr": "Sb  ",
    "lat": "47.8135",
    "lng": "13.0466",
    "arrival": "2023-10-21T00:37:00Z",
    "departure": "2023-10-21T03:42:00Z"
  }
]
