[
  {
    "train_number": "3062  ",
    "unit_number": "4024.0120",
    "name": "Salzburg Hbf (in Sb)",
    "abbr": "Sb  ",
    "lat": "47.8135",
    "lng": "13.0466",
    "arrival": "2023-09-01T12:05:00Z",
    "departure": "2023-09-01T13:23:00Z"
  },
  {
    "train_number": "3062  ",
    "unit_number": "4024.0120",
    "name": "Steindorf b.Straßw. (in Nst)",
    "abbr": "Nst ",
    "lat": "47.9676",
    "lng": "13.2406",
    "arrival": "2023-09-01T11:37:00Z",
    "departure": "2023-09-01T11:38:00Z"
  },
  {
    "train_number": "3063  ",
    "unit_number": "4024.0120",
    "name": "Steindorf b.Straßw. (in Nst)",
    "abbr": "Nst ",
    "lat": "47.9676",
    "lng": "13.2406",
    "arrival": "2023-09-01T11:21:00Z",
    "departure": "2023-09-01T11:22:00Z"
  },
  {
    "train_number": "3058  ",
    "unit_number": "4024.0120",
    "name": "Salzburg Hbf (in Sb)",
    "abbr": "Sb  ",
    "lat": "47.8135",
    "lng": "13.0466",
    "arrival": "2023-09-01T10:05:00Z",
    "departure": "2023-09-01T10:55:00Z"
  },
  {
    "train_number": "3058  ",
    "unit_number": "4024.0120",
    "name": "Steindorf b.Straßw. (in Nst)",
    "abbr": "Nst ",
    "lat": "47.9676",
    "lng": "13.2406",
    "arrival": "2023-09-01T09:37:00Z",
    "departure": "2023-09-01T09:38:00Z"
  },
  {
    "train_number": "3059  ",
    "unit_number": "4024.0120",
    "name": "Steindorf b.Straßw. (in Nst)",
    "abbr": "Nst ",
    "lat": "47.9676",
    "lng": "13.2406",
    "arrival": "2023-09-01T09:21:00Z",
    "departure": "2023-09-01T09:22:00Z"
  },
  {
    "train_number": "3054  ",
    "unit_number": "4024.0120",
    "name": "Salzburg Hbf (in Sb)",
    "abbr": "Sb  ",
    "lat": "47.8135",
    "lng": "13.0466",
    "arrival": "2023-09-01T08:05:00Z",
    "departure": "2023-09-01T08:55:00Z"
  },
  {
    "train_number": "3054  ",
    "unit_number": "4024.0120",
    "name": "Steindorf b.Straßw. (in Nst)",
    "abbr": "Nst ",
    "lat": "47.9676",
    "lng": "13.2406",
    "arrival": "2023-09-01T07:37:00Z",
    "departure": "2023-09-01T07:38:00Z"
  },
  {
    "train_number": "3055  ",
    "unit_number": "4024.0120",
    "name": "Steindorf b.Straßw. (in Nst)",
    "abbr": "Nst ",
    "lat": "47.9676",
    "lng": "13.2406",
    "arrival": "2023-09-01T07:21:00Z",
    "departure": "2023-09-01T07:22:00Z"
  },
  {
    "train_number": "79203 ",
    "unit_number": "4024.0120",
    "name": "Salzburg Hbf (in Sb)",
    "abbr": "Sb  ",
    "lat": "47.8135",
    "lng": "13.0466",
    "arrival": "2023-09-01T06:35:00Z",
    "departure": "2023-09-01T06:55:00Z"
  },
  {
    "train_number": "79203 ",
    "unit_number": "4024.0120",
    "name": "Salzburg Liefering (in Sb)",
    "abbr": "Lfg ",
    "lat": "47.8229",
    "lng": "13.0021",
    "arrival": null,
    "departure": "2023-09-01T06:28:00Z"
  },
  {
    "train_number": "25794 ",
    "unit_number": "4024.0120",
    "name": "Freilassing",
    "abbr": "MFL ",
    "lat": "47.8368",
    "lng": "12.9764",
    "arrival": "2023-09-01T06:11:00Z",
    "departure": "2023-09-01T06:25:00Z"
  },
  {
    "train_number": "25794 ",
    "unit_number": "4024.0120",
    "name": "Salzburg Liefering (in Sb)",
    "abbr": "Lfg ",
    "lat": "47.8229",
    "lng": "13.0021",
    "arrival": "2023-09-01T06:03:00Z",
    "departure": "2023-09-01T06:06:00Z"
  },
  {
    "train_number": "25795 ",
    "unit_number": "4024.0120",
    "name": "Salzburg Hbf (in Sb)",
    "abbr": "Sb  ",
    "lat": "47.8135",
    "lng": "13.0466",
    "arrival": "2023-09-01T04:58:00Z",
    "departure": "2023-09-01T05:55:00Z"
  },
  {
    "train_number": "25795 ",
    "unit_number": "4024.0120",
    "name": "Salzburg Liefering (in Sb)",
    "abbr": "Lfg ",
    "lat": "47.8229",
    "lng": "13.0021",
    "arrival": "2023-09-01T04:49:00Z",
    "departure": "2023-09-01T04:50:00Z"
  },
  {
    "train_number": "5050  ",
    "unit_number": "4024.0120",
    "name": "Freilassing",
    "abbr": "MFL ",
    "lat": "47.8368",
    "lng": "12.9764",
    "arrival": "2023-09-01T04:20:00Z",
    "departure": "2023-09-01T04:46:00Z"
  },
  {
    "train_number": "5050  ",
    "unit_number": "4024.0120",
    "name": "Salzburg Liefering (in Sb)",
    "abbr": "Lfg ",
    "lat": "47.8229",
    "lng": "13.0021",
    "arrival": "2023-09-01T04:16:00Z",
    "departure": "2023-09-01T04:16:00Z"
  },
  {
    "train_number": "5050  ",
    "unit_number": "4024.0120",
    "name": "Salzburg Hbf (in Sb)",
    "abbr": "Sb  ",
    "lat": "47.8135",
    "lng": "13.0466",
    "arrival": "2023-09-01T04:06:00Z",
    "departure": "2023-09-01T04:08:00Z"
  },
  {
    "train_number": "5050  ",
    "unit_number": "4024.0120",
    "name": "Steindorf b.Straßw. (in Nst)",
    "abbr": "Nst ",
    "lat": "47.9676",
    "lng": "13.2406",
    "arrival": null,
    "departure": "2023-09-01T03:38:00Z"
  },
  {
    "train_number": "5081  ",
    "unit_number": "4024.0120",
    "name": "Attnang-Puchheim",
    "abbr": "At  ",
    "lat": "48.0112",
    "lng": "13.7193",
    "arrival": "2023-08-31T19:52:00Z",
    "departure": "2023-09-01T02:58:00Z"
  }
]
