[
  {
    "train_number": "5923  ",
    "unit_number": "4024.0120",
    "name": "Wels Hbf",
    "abbr": "We  ",
    "lat": "48.1662",
    "lng": "14.0273",
    "arrival": "2023-10-23T14:52:00Z",
    "departure": "2023-10-23T14:53:00Z"
  },
  {
    "train_number": "5923  ",
    "unit_number": "4024.0120",
    "name": "Neumarkt-Kallham (in Neu)",
    "abbr": "Neu ",
    "lat": "48.2714",
    "lng": "13.7245",
    "arrival": "2023-10-23T14:23:00Z",
    "departure": "2023-10-23T14:24:00Z"
  },
  {
    "train_number": "5923  ",
    "unit_number": "4024.0120",
    "name": "Schärding (in Sch)",
    "abbr": "Sch ",
    "lat": "48.4638",
    "lng": "13.4424",
    "arrival": "2023-10-23T13:51:00Z",
    "departure": "2023-10-23T13:52:00Z"
  },
  {
    "train_number": "1780  ",
    "unit_number": "4024.0120",
    "name": "Passau Hbf",
    "abbr": "Pa  ",
    "lat": "48.5737",
    "lng": "13.4503",
    "arrival": "2023-10-23T13:12:00Z",
    "departure": "2023-10-23T13:40:00Z"
  },
  {
    "train_number": "1780  ",
    "unit_number": "4024.0120",
    "name": "Schärding (in Sch)",
    "abbr": "Sch ",
    "lat": "48.4638",
    "lng": "13.4424",
    "arrival": "2023-10-23T12:56:00Z",
    "departure": "2023-10-23T12:57:00Z"
  },
  {
    "train_number": "1780  ",
    "unit_number": "4024.0120",
    "name": "Neumarkt-Kallham (in Neu)",
    "abbr": "Neu ",
    "lat": "48.2714",
    "lng": "13.7245",
    "arrival": "2023-10-23T12:31:00Z",
    "departure": "2023-10-23T12:32:00Z"
  },
  {
    "train_number": "1780  ",
    "unit_number": "4024.0120",
    "name": "Wels Hbf",
    "abbr": "We  ",
    "lat": "48.1662",
    "lng": "14.0273",
    "arrival": "2023-10-23T12:07:00Z",
    "departure": "2023-10-23T12:09:00Z"
  },
  {
    "train_number": "5057  ",
    "unit_number": "4024.0120",
    "name": "Linz Hbf",
    "abbr": "Lz  ",
    "lat": "48.2908",
    "lng": "14.2927",
    "arrival": "2023-10-23T09:00:00Z",
    "departure": "2023-10-23T11:50:00Z"
  },
  {
    "train_number": "5057  ",
    "unit_number": "4024.0120",
    "name": "Wels Hbf",
    "abbr": "We  ",
    "lat": "48.1662",
    "lng": "14.0273",
    "arrival": "2023-10-23T08:36:00Z",
    "departure": "2023-10-23T08:37:00Z"
  },
  {
    "train_number": "5057  ",
    "unit_number": "4024.0120",
    "name": "Attnang-Puchheim",
    "abbr": "At  ",
    "lat": "48.0112",
    "lng": "13.7193",
    "arrival": "2023-10-23T07:55:00Z",
    "departure": "2023-10-23T08:10:00Z"
  },
  {
    "train_number": "5057  ",
    "unit_number": "4024.0120",
    "name": "Steindorf b.Straßw. (in Nst)",
    "abbr": "Nst ",
    "lat": "47.9676",
    "lng": "13.2406",
    "arrival": null,
    "departure": "2023-10-23T07:00:00Z"
  },
  {
    "train_number": "5057  ",
    "unit_number": "4024.0120",
    "name": "Salzburg Hbf (in Sb)",
    "abbr": "Sb  ",
    "lat": "47.8135",
    "lng": "13.0466",
    "arrival": "2023-10-23T06:32:00Z",
    "departure": "2023-10-23T06:34:00Z"
  },
  {
    "train_number": "5057  ",
    "unit_number": "4024.0120",
    "name": "Salzburg Liefering (in Sb)",
    "abbr": "Lfg ",
    "lat": "47.8229",
    "lng": "13.0021",
    "arrival": "2023-10-23T06:23:00Z",
    "departure": "2023-10-23T06:23:00Z"
  },
  {
    "train_number": "25706 ",
    "unit_number": "4024.0120",
    "name": "Freilassing",
    "abbr": "MFL ",
    "lat": "47.8368",
    "lng": "12.9764",
    "arrival": "2023-10-23T05:54:00Z",
    "departure": "2023-10-23T06:20:00Z"
  },
  {
    "train_number": "25706 ",
    "unit_number": "4024.0120",
    "name": "Salzburg Liefering (in Sb)",
    "abbr": "Lfg ",
    "lat": "47.8229",
    "lng": "13.0021",
    "arrival": "2023-10-23T05:50:00Z",
    "departure": "2023-10-23T05:50:00Z"
  },
  {
    "train_number": "25706 ",
    "unit_number": "4024.0120",
    "name": "Salzburg Hbf (in Sb)",
    "abbr": "Sb  ",
    "lat": "47.8135",
    "lng": "13.0466",
    "arrival": "2023-10-23T05:40:00Z",
    "departure": "2023-10-23T05:42:00Z"
  },
  {
    "train_number": "25706 ",
    "unit_number": "4024.0120",
    "name": "Salzburg Gnigl-Einfgr. (in Sb)",
    "abbr": "Sre ",
    "lat": "47.8075",
    "lng": "13.0687",
    "arrival": null,
    "departure": "2023-10-23T05:33:00Z"
  },
  {
    "train_number": "25706 ",
    "unit_number": "4024.0120",
    "name": "Bischofshofen (in Bo)",
    "abbr": "Bo  ",
    "lat": "47.42",
    "lng": "13.2199",
    "arrival": "2023-10-23T04:38:00Z",
    "departure": "2023-10-23T04:40:00Z"
  },
  {
    "train_number": "3550  ",
    "unit_number": "4024.0120",
    "name": "Schwarzach-St.Veit",
    "abbr": "Swa ",
    "lat": "47.3186",
    "lng": "13.1561",
    "arrival": "2023-10-23T04:12:00Z",
    "departure": "2023-10-23T04:24:00Z"
  },
  {
    "train_number": "3550  ",
    "unit_number": "4024.0120",
    "name": "Bischofshofen (in Bo)",
    "abbr": "Bo  ",
    "lat": "47.42",
    "lng": "13.2199",
    "arrival": "2023-10-23T03:54:00Z",
    "departure": "2023-10-23T03:57:00Z"
  }
]
