[
  {
    "train_number": "4424  ",
    "unit_number": "4024.0014",
    "name": "Wels Hbf",
    "abbr": "We  ",
    "lat": "48.1662",
    "lng": "14.0273",
    "arrival": "2023-10-23T18:22:00Z",
    "departure": "2023-10-23T18:23:00Z"
  },
  {
    "train_number": "4419  ",
    "unit_number": "4024.0014",
    "name": "Linz Hbf",
    "abbr": "Lz  ",
    "lat": "48.2908",
    "lng": "14.2927",
    "arrival": "2023-10-23T17:41:00Z",
    "departure": "2023-10-23T18:00:00Z"
  },
  {
    "train_number": "4419  ",
    "unit_number": "4024.0014",
    "name": "Wels Hbf",
    "abbr": "We  ",
    "lat": "48.1662",
    "lng": "14.0273",
    "arrival": "2023-10-23T17:24:00Z",
    "departure": "2023-10-23T17:25:00Z"
  },
  {
    "train_number": "4419  ",
    "unit_number": "4024.0014",
    "name": "Attnang-Puchheim",
    "abbr": "At  ",
    "lat": "48.0112",
    "lng": "13.7193",
    "arrival": "2023-10-23T16:52:00Z",
    "departure": "2023-10-23T16:53:00Z"
  },
  {
    "train_number": "4419  ",
    "unit_number": "4024.0014",
    "name": "Gmunden",
    "abbr": "Gz  ",
    "lat": "47.9254",
    "lng": "13.783",
    "arrival": "2023-10-23T16:35:00Z",
    "departure": "2023-10-23T16:36:00Z"
  },
  {
    "train_number": "4412  ",
    "unit_number": "4024.0014",
    "name": "Gmunden",
    "abbr": "Gz  ",
    "lat": "47.9254",
    "lng": "13.783",
    "arrival": "2023-10-23T13:23:00Z",
    "departure": "2023-10-23T13:24:00Z"
  },
  {
    "train_number": "4412  ",
    "unit_number": "4024.0014",
    "name": "Attnang-Puchheim",
    "abbr": "At  ",
    "lat": "48.0112",
    "lng": "13.7193",
    "arrival": "2023-10-23T13:07:00Z",
    "departure": "2023-10-23T13:08:00Z"
  },
  {
    "train_number": "4412  ",
    "unit_number": "4024.0014",
    "name": "Wels Hbf",
    "abbr": "We  ",
    "lat": "48.1662",
    "lng": "14.0273",
    "arrival": "2023-10-23T12:33:00Z",
    "departure": "2023-10-23T12:34:00Z"
  },
  {
    "train_number": "3646  ",
    "unit_number": "4024.0014",
    "name": "Linz Hbf",
    "abbr": "Lz  ",
    "lat": "48.2908",
    "lng": "14.2927",
    "arrival": "2023-10-23T08:04:00Z",
    "departure": "2023-10-23T12:18:00Z"
  },
  {
    "train_number": "3646  ",
    "unit_number": "4024.0014",
    "name": "Enns",
    "abbr": "Ens ",
    "lat": "48.2212",
    "lng": "14.4668",
    "arrival": "2023-10-23T07:47:00Z",
    "departure": "2023-10-23T07:48:00Z"
  },
  {
    "train_number": "3646  ",
    "unit_number": "4024.0014",
    "name": "St.Valentin (in Sv)",
    "abbr": "Sv  ",
    "lat": "48.1784",
    "lng": "14.5219",
    "arrival": "2023-10-23T07:37:00Z",
    "departure": "2023-10-23T07:41:00Z"
  },
  {
    "train_number": "3645  ",
    "unit_number": "4024.0014",
    "name": "St.Valentin (in Sv)",
    "abbr": "Sv  ",
    "lat": "48.1784",
    "lng": "14.5219",
    "arrival": "2023-10-23T06:17:00Z",
    "departure": "2023-10-23T06:21:00Z"
  },
  {
    "train_number": "3645  ",
    "unit_number": "4024.0014",
    "name": "Enns",
    "abbr": "Ens ",
    "lat": "48.2212",
    "lng": "14.4668",
    "arrival": "2023-10-23T06:10:00Z",
    "departure": "2023-10-23T06:11:00Z"
  },
  {
    "train_number": "5051  ",
    "unit_number": "4024.0014",
    "name": "Linz Hbf",
    "abbr": "Lz  ",
    "lat": "48.2908",
    "lng": "14.2927",
    "arrival": "2023-10-23T05:29:00Z",
    "departure": "2023-10-23T05:53:00Z"
  },
  {
    "train_number": "5051  ",
    "unit_number": "4024.0014",
    "name": "Wels Hbf",
    "abbr": "We  ",
    "lat": "48.1662",
    "lng": "14.0273",
    "arrival": "2023-10-23T05:04:00Z",
    "departure": "2023-10-23T05:06:00Z"
  },
  {
    "train_number": "5051  ",
    "unit_number": "4024.0014",
    "name": "Attnang-Puchheim",
    "abbr": "At  ",
    "lat": "48.0112",
    "lng": "13.7193",
    "arrival": "2023-10-23T04:29:00Z",
    "departure": "2023-10-23T04:31:00Z"
  },
  {
    "train_number": "5051  ",
    "unit_number": "4024.0014",
    "name": "Steindorf b.StraÃŸw. (in Nst)",
    "abbr": "Nst ",
    "lat": "47.9676",
    "lng": "13.2406",
    "arrival": null,
    "departure": "2023-10-23T03:50:00Z"
  },
  {
    "train_number": "5051  ",
    "unit_number": "4024.0014",
    "name": "Salzburg Hbf (in Sb)",
    "abbr": "Sb  ",
    "lat": "47.8135",
    "lng": "13.0466",
    "arrival": "2023-10-23T03:27:00Z",
    "departure": "2023-10-23T03:30:00Z"
  },
  {
    "train_number": "5051  ",
    "unit_number": "4024.0014",
    "name": "Salzburg Liefering (in Sb)",
    "abbr": "Lfg ",
    "lat": "47.8229",
    "lng": "13.0021",
    "arrival": "2023-10-23T03:19:00Z",
    "departure": "2023-10-23T03:19:00Z"
  },
  {
    "train_number": "25796 ",
    "unit_number": "4024.0014",
    "name": "Freilassing",
    "abbr": "MFL ",
    "lat": "47.8368",
    "lng": "12.9764",
    "arrival": "2023-10-22T19:43:00Z",
    "departure": "2023-10-23T03:17:00Z"
  }
]
