[
  {
    "train_number": "25796 ",
    "unit_number": "4024.0014",
    "name": "Freilassing",
    "abbr": "MFL ",
    "lat": "47.8368",
    "lng": "12.9764",
    "arrival": "2023-10-22T19:43:00Z",
    "departure": "2023-10-23T03:17:00Z"
  },
  {
    "train_number": "25796 ",
    "unit_number": "4024.0014",
    "name": "Salzburg Liefering (in Sb)",
    "abbr": "Lfg ",
    "lat": "47.8229",
    "lng": "13.0021",
    "arrival": "2023-10-22T19:40:00Z",
    "departure": "2023-10-22T19:40:00Z"
  },
  {
    "train_number": "5082  ",
    "unit_number": "4024.0014",
    "name": "Salzburg Hbf (in Sb)",
    "abbr": "Sb  ",
    "lat": "47.8135",
    "lng": "13.0466",
    "arrival": "2023-10-22T19:26:00Z",
    "departure": "2023-10-22T19:32:00Z"
  },
  {
    "train_number": "5082  ",
    "unit_number": "4024.0014",
    "name": "Steindorf b.StraÃŸw. (in Nst)",
    "abbr": "Nst ",
    "lat": "47.9676",
    "lng": "13.2406",
    "arrival": null,
    "departure": "2023-10-22T18:59:00Z"
  },
  {
    "train_number": "5082  ",
    "unit_number": "4024.0014",
    "name": "Attnang-Puchheim",
    "abbr": "At  ",
    "lat": "48.0112",
    "lng": "13.7193",
    "arrival": "2023-10-22T17:50:00Z",
    "departure": "2023-10-22T17:51:00Z"
  },
  {
    "train_number": "5082  ",
    "unit_number": "4024.0014",
    "name": "Wels Hbf",
    "abbr": "We  ",
    "lat": "48.1662",
    "lng": "14.0273",
    "arrival": "2023-10-22T17:22:00Z",
    "departure": "2023-10-22T17:23:00Z"
  },
  {
    "train_number": "3869  ",
    "unit_number": "4024.0014",
    "name": "Linz Hbf",
    "abbr": "Lz  ",
    "lat": "48.2908",
    "lng": "14.2927",
    "arrival": "2023-10-22T15:24:00Z",
    "departure": "2023-10-22T17:00:00Z"
  },
  {
    "train_number": "3863  ",
    "unit_number": "4024.0014",
    "name": "Linz Hbf",
    "abbr": "Lz  ",
    "lat": "48.2908",
    "lng": "14.2927",
    "arrival": "2023-10-22T12:24:00Z",
    "departure": "2023-10-22T12:35:00Z"
  },
  {
    "train_number": "3005  ",
    "unit_number": "4024.0014",
    "name": "Linz Hbf",
    "abbr": "Lz  ",
    "lat": "48.2908",
    "lng": "14.2927",
    "arrival": "2023-10-22T05:00:00Z",
    "departure": "2023-10-22T10:35:00Z"
  },
  {
    "train_number": "3005  ",
    "unit_number": "4024.0014",
    "name": "Wels Hbf",
    "abbr": "We  ",
    "lat": "48.1662",
    "lng": "14.0273",
    "arrival": "2023-10-22T04:36:00Z",
    "departure": "2023-10-22T04:37:00Z"
  },
  {
    "train_number": "4403  ",
    "unit_number": "4024.0014",
    "name": "Attnang-Puchheim",
    "abbr": "At  ",
    "lat": "48.0112",
    "lng": "13.7193",
    "arrival": "2023-10-22T03:38:00Z",
    "departure": "2023-10-22T04:10:00Z"
  },
  {
    "train_number": "4403  ",
    "unit_number": "4024.0014",
    "name": "Gmunden",
    "abbr": "Gz  ",
    "lat": "47.9254",
    "lng": "13.783",
    "arrival": "2023-10-22T03:20:00Z",
    "departure": "2023-10-22T03:21:00Z"
  }
]
