[
  {
    "train_number": "3677  ",
    "unit_number": "4024.0014",
    "name": "St.Valentin (in Sv)",
    "abbr": "Sv  ",
    "lat": "48.1784",
    "lng": "14.5219",
    "arrival": "2023-09-01T21:17:00Z",
    "departure": "2023-09-01T21:21:00Z"
  },
  {
    "train_number": "3677  ",
    "unit_number": "4024.0014",
    "name": "Enns",
    "abbr": "Ens ",
    "lat": "48.2212",
    "lng": "14.4668",
    "arrival": "2023-09-01T21:10:00Z",
    "departure": "2023-09-01T21:11:00Z"
  },
  {
    "train_number": "3984  ",
    "unit_number": "4024.0014",
    "name": "Linz Hbf",
    "abbr": "Lz  ",
    "lat": "48.2908",
    "lng": "14.2927",
    "arrival": "2023-09-01T20:24:00Z",
    "departure": "2023-09-01T20:53:00Z"
  },
  {
    "train_number": "3972  ",
    "unit_number": "4024.0014",
    "name": "Linz Hbf",
    "abbr": "Lz  ",
    "lat": "48.2908",
    "lng": "14.2927",
    "arrival": "2023-09-01T16:24:00Z",
    "departure": "2023-09-01T19:36:00Z"
  },
  {
    "train_number": "3964  ",
    "unit_number": "4024.0014",
    "name": "Linz Hbf",
    "abbr": "Lz  ",
    "lat": "48.2908",
    "lng": "14.2927",
    "arrival": "2023-09-01T15:24:00Z",
    "departure": "2023-09-01T15:36:00Z"
  },
  {
    "train_number": "3960  ",
    "unit_number": "4024.0014",
    "name": "Linz Hbf",
    "abbr": "Lz  ",
    "lat": "48.2908",
    "lng": "14.2927",
    "arrival": "2023-09-01T13:24:00Z",
    "departure": "2023-09-01T13:36:00Z"
  },
  {
    "train_number": "3956  ",
    "unit_number": "4024.0014",
    "name": "Linz Hbf",
    "abbr": "Lz  ",
    "lat": "48.2908",
    "lng": "14.2927",
    "arrival": "2023-09-01T12:24:00Z",
    "departure": "2023-09-01T12:36:00Z"
  },
  {
    "train_number": "3948  ",
    "unit_number": "4024.0014",
    "name": "Linz Hbf",
    "abbr": "Lz  ",
    "lat": "48.2908",
    "lng": "14.2927",
    "arrival": "2023-09-01T10:24:00Z",
    "departure": "2023-09-01T11:06:00Z"
  },
  {
    "train_number": "3646  ",
    "unit_number": "4024.0014",
    "name": "Linz Hbf",
    "abbr": "Lz  ",
    "lat": "48.2908",
    "lng": "14.2927",
    "arrival": "2023-09-01T08:04:00Z",
    "departure": "2023-09-01T09:36:00Z"
  },
  {
    "train_number": "3646  ",
    "unit_number": "4024.0014",
    "name": "Enns",
    "abbr": "Ens ",
    "lat": "48.2212",
    "lng": "14.4668",
    "arrival": "2023-09-01T07:47:00Z",
    "departure": "2023-09-01T07:48:00Z"
  },
  {
    "train_number": "3646  ",
    "unit_number": "4024.0014",
    "name": "St.Valentin (in Sv)",
    "abbr": "Sv  ",
    "lat": "48.1784",
    "lng": "14.5219",
    "arrival": "2023-09-01T07:37:00Z",
    "departure": "2023-09-01T07:41:00Z"
  },
  {
    "train_number": "3645  ",
    "unit_number": "4024.0014",
    "name": "St.Valentin (in Sv)",
    "abbr": "Sv  ",
    "lat": "48.1784",
    "lng": "14.5219",
    "arrival": "2023-09-01T06:17:00Z",
    "departure": "2023-09-01T06:21:00Z"
  },
  {
    "train_number": "3645  ",
    "unit_number": "4024.0014",
    "name": "Enns",
    "abbr": "Ens ",
    "lat": "48.2212",
    "lng": "14.4668",
    "arrival": "2023-09-01T06:10:00Z",
    "departure": "2023-09-01T06:11:00Z"
  },
  {
    "train_number": "5051  ",
    "unit_number": "4024.0014",
    "name": "Linz Hbf",
    "abbr": "Lz  ",
    "lat": "48.2908",
    "lng": "14.2927",
    "arrival": "2023-09-01T05:29:00Z",
    "departure": "2023-09-01T05:53:00Z"
  },
  {
    "train_number": "5051  ",
    "unit_number": "4024.0014",
    "name": "Wels Hbf",
    "abbr": "We  ",
    "lat": "48.1662",
    "lng": "14.0273",
    "arrival": "2023-09-01T05:04:00Z",
    "departure": "2023-09-01T05:06:00Z"
  },
  {
    "train_number": "5051  ",
    "unit_number": "4024.0014",
    "name": "Attnang-Puchheim",
    "abbr": "At  ",
    "lat": "48.0112",
    "lng": "13.7193",
    "arrival": "2023-09-01T04:29:00Z",
    "departure": "2023-09-01T04:31:00Z"
  },
  {
    "train_number": "5051  ",
    "unit_number": "4024.0014",
    "name": "Steindorf b.StraÃŸw. (in Nst)",
    "abbr": "Nst ",
    "lat": "47.9676",
    "lng": "13.2406",
    "arrival": null,
    "departure": "2023-09-01T03:50:00Z"
  },
  {
    "train_number": "5051  ",
    "unit_number": "4024.0014",
    "name": "Salzburg Hbf (in Sb)",
    "abbr": "Sb  ",
    "lat": "47.8135",
    "lng": "13.0466",
    "arrival": "2023-09-01T03:27:00Z",
    "departure": "2023-09-01T03:30:00Z"
  },
  {
    "train_number": "5051  ",
    "unit_number": "4024.0014",
    "name": "Salzburg Liefering (in Sb)",
    "abbr": "Lfg ",
    "lat": "47.8229",
    "lng": "13.0021",
    "arrival": "2023-09-01T03:19:00Z",
    "departure": "2023-09-01T03:19:00Z"
  },
  {
    "train_number": "25796 ",
    "unit_number": "4024.0014",
    "name": "Freilassing",
    "abbr": "MFL ",
    "lat": "47.8368",
    "lng": "12.9764",
    "arrival": "2023-08-31T19:43:00Z",
    "departure": "2023-09-01T03:17:00Z"
  }
]
