[
  {
    "train_number": "21079 ",
    "unit_number": "4024.0089",
    "name": "Wien FJBf (in Wf)",
    "abbr": "Wf  ",
    "lat": "48.227",
    "lng": "16.3611",
    "arrival": "2023-10-20T22:21:00Z",
    "departure": "2023-10-20T22:39:00Z"
  },
  {
    "train_number": "21079 ",
    "unit_number": "4024.0089",
    "name": "Tulln a. d. Donau (in Tu)",
    "abbr": "Tu  ",
    "lat": "48.3275",
    "lng": "16.0644",
    "arrival": "2023-10-20T21:32:00Z",
    "departure": "2023-10-20T21:38:00Z"
  },
  {
    "train_number": "21079 ",
    "unit_number": "4024.0089",
    "name": "Herzogenburg (in Ho)",
    "abbr": "Ho  ",
    "lat": "48.2759",
    "lng": "15.6966",
    "arrival": "2023-10-20T20:28:00Z",
    "departure": "2023-10-20T20:29:00Z"
  },
  {
    "train_number": "21058 ",
    "unit_number": "4024.0089",
    "name": "St.Pölten Hbf (in Pb)",
    "abbr": "Pb  ",
    "lat": "48.2081",
    "lng": "15.6237",
    "arrival": "2023-10-20T19:44:00Z",
    "departure": "2023-10-20T20:12:00Z"
  },
  {
    "train_number": "21058 ",
    "unit_number": "4024.0089",
    "name": "Herzogenburg (in Ho)",
    "abbr": "Ho  ",
    "lat": "48.2759",
    "lng": "15.6966",
    "arrival": "2023-10-20T19:22:00Z",
    "departure": "2023-10-20T19:30:00Z"
  },
  {
    "train_number": "21058 ",
    "unit_number": "4024.0089",
    "name": "Tulln a. d. Donau (in Tu)",
    "abbr": "Tu  ",
    "lat": "48.3275",
    "lng": "16.0644",
    "arrival": "2023-10-20T18:22:00Z",
    "departure": "2023-10-20T18:27:00Z"
  },
  {
    "train_number": "21059 ",
    "unit_number": "4024.0089",
    "name": "Wien FJBf (in Wf)",
    "abbr": "Wf  ",
    "lat": "48.227",
    "lng": "16.3611",
    "arrival": "2023-10-20T17:21:00Z",
    "departure": "2023-10-20T17:39:00Z"
  },
  {
    "train_number": "21059 ",
    "unit_number": "4024.0089",
    "name": "Tulln a. d. Donau (in Tu)",
    "abbr": "Tu  ",
    "lat": "48.3275",
    "lng": "16.0644",
    "arrival": "2023-10-20T16:32:00Z",
    "departure": "2023-10-20T16:38:00Z"
  },
  {
    "train_number": "21059 ",
    "unit_number": "4024.0089",
    "name": "Herzogenburg (in Ho)",
    "abbr": "Ho  ",
    "lat": "48.2759",
    "lng": "15.6966",
    "arrival": "2023-10-20T15:31:00Z",
    "departure": "2023-10-20T15:31:00Z"
  },
  {
    "train_number": "21038 ",
    "unit_number": "4024.0089",
    "name": "St.Pölten Hbf (in Pb)",
    "abbr": "Pb  ",
    "lat": "48.2081",
    "lng": "15.6237",
    "arrival": "2023-10-20T14:49:00Z",
    "departure": "2023-10-20T15:12:00Z"
  },
  {
    "train_number": "21038 ",
    "unit_number": "4024.0089",
    "name": "Herzogenburg (in Ho)",
    "abbr": "Ho  ",
    "lat": "48.2759",
    "lng": "15.6966",
    "arrival": "2023-10-20T14:22:00Z",
    "departure": "2023-10-20T14:30:00Z"
  },
  {
    "train_number": "21038 ",
    "unit_number": "4024.0089",
    "name": "Tulln a. d. Donau (in Tu)",
    "abbr": "Tu  ",
    "lat": "48.3275",
    "lng": "16.0644",
    "arrival": "2023-10-20T13:22:00Z",
    "departure": "2023-10-20T13:27:00Z"
  },
  {
    "train_number": "21031 ",
    "unit_number": "4024.0089",
    "name": "Wien FJBf (in Wf)",
    "abbr": "Wf  ",
    "lat": "48.227",
    "lng": "16.3611",
    "arrival": "2023-10-20T10:21:00Z",
    "departure": "2023-10-20T12:39:00Z"
  },
  {
    "train_number": "21031 ",
    "unit_number": "4024.0089",
    "name": "Tulln a. d. Donau (in Tu)",
    "abbr": "Tu  ",
    "lat": "48.3275",
    "lng": "16.0644",
    "arrival": "2023-10-20T09:32:00Z",
    "departure": "2023-10-20T09:38:00Z"
  },
  {
    "train_number": "21031 ",
    "unit_number": "4024.0089",
    "name": "Herzogenburg (in Ho)",
    "abbr": "Ho  ",
    "lat": "48.2759",
    "lng": "15.6966",
    "arrival": "2023-10-20T08:28:00Z",
    "departure": "2023-10-20T08:29:00Z"
  },
  {
    "train_number": "21010 ",
    "unit_number": "4024.0089",
    "name": "St.Pölten Hbf (in Pb)",
    "abbr": "Pb  ",
    "lat": "48.2081",
    "lng": "15.6237",
    "arrival": "2023-10-20T07:44:00Z",
    "departure": "2023-10-20T08:12:00Z"
  },
  {
    "train_number": "21010 ",
    "unit_number": "4024.0089",
    "name": "Herzogenburg (in Ho)",
    "abbr": "Ho  ",
    "lat": "48.2759",
    "lng": "15.6966",
    "arrival": "2023-10-20T07:22:00Z",
    "departure": "2023-10-20T07:30:00Z"
  },
  {
    "train_number": "21010 ",
    "unit_number": "4024.0089",
    "name": "Tulln a. d. Donau (in Tu)",
    "abbr": "Tu  ",
    "lat": "48.3275",
    "lng": "16.0644",
    "arrival": "2023-10-20T06:22:00Z",
    "departure": "2023-10-20T06:27:00Z"
  },
  {
    "train_number": null,
    "unit_number": "4024.0089",
    "name": "Wien FJBf (in Wf)",
    "abbr": "Wf  ",
    "lat": "48.227",
    "lng": "16.3611",
    "arrival": null,
    "departure": "2023-10-20T05:39:00Z"
  },
  {
    "train_number": "85150 ",
    "unit_number": "4024.0089",
    "name": "Wien Westbf (in Ws)",
    "abbr": "Ws  ",
    "lat": "48.1964",
    "lng": "16.3374",
    "arrival": "2023-10-19T17:56:00Z",
    "departure": "2023-10-20T03:56:00Z"
  }
]
