[
  {
    "train_number": "5220  ",
    "unit_number": "4024.0088",
    "name": "Schwaz",
    "abbr": "Sw  ",
    "lat": "47.3497",
    "lng": "11.7016",
    "arrival": "2023-09-25T12:18:00Z",
    "departure": "2023-09-25T12:19:00Z"
  },
  {
    "train_number": "5220  ",
    "unit_number": "4024.0088",
    "name": "Jenbach",
    "abbr": "Jb  ",
    "lat": "47.3884",
    "lng": "11.7783",
    "arrival": "2023-09-25T12:13:00Z",
    "departure": "2023-09-25T12:14:00Z"
  },
  {
    "train_number": "5220  ",
    "unit_number": "4024.0088",
    "name": "Wörgl Hbf-T. N. (in W)",
    "abbr": "Wtn ",
    "lat": "47.4824",
    "lng": "12.033",
    "arrival": null,
    "departure": "2023-09-25T11:56:00Z"
  },
  {
    "train_number": "5313  ",
    "unit_number": "4024.0088",
    "name": "Wörgl Hbf (in W)",
    "abbr": "W   ",
    "lat": "47.4912",
    "lng": "12.0603",
    "arrival": "2023-09-25T11:11:00Z",
    "departure": "2023-09-25T11:54:00Z"
  },
  {
    "train_number": "5313  ",
    "unit_number": "4024.0088",
    "name": "Wörgl Hbf-T. N. (in W)",
    "abbr": "Wtn ",
    "lat": "47.4824",
    "lng": "12.033",
    "arrival": null,
    "departure": "2023-09-25T11:08:00Z"
  },
  {
    "train_number": "5313  ",
    "unit_number": "4024.0088",
    "name": "Jenbach",
    "abbr": "Jb  ",
    "lat": "47.3884",
    "lng": "11.7783",
    "arrival": "2023-09-25T10:51:00Z",
    "departure": "2023-09-25T10:52:00Z"
  },
  {
    "train_number": "5313  ",
    "unit_number": "4024.0088",
    "name": "Schwaz",
    "abbr": "Sw  ",
    "lat": "47.3497",
    "lng": "11.7016",
    "arrival": "2023-09-25T10:41:00Z",
    "departure": "2023-09-25T10:46:00Z"
  },
  {
    "train_number": "5313  ",
    "unit_number": "4024.0088",
    "name": "Hall in Tirol",
    "abbr": "H   ",
    "lat": "47.2769",
    "lng": "11.5013",
    "arrival": "2023-09-25T10:30:00Z",
    "departure": "2023-09-25T10:31:00Z"
  },
  {
    "train_number": "5313  ",
    "unit_number": "4024.0088",
    "name": "Innsbruck Hbf  (in I)",
    "abbr": "I   ",
    "lat": "47.2634",
    "lng": "11.4017",
    "arrival": "2023-09-25T10:13:00Z",
    "departure": "2023-09-25T10:24:00Z"
  },
  {
    "train_number": "5212  ",
    "unit_number": "4024.0088",
    "name": "Brennero/Brenner",
    "abbr": "Be  ",
    "lat": "47.0022",
    "lng": "11.5053",
    "arrival": "2023-09-25T09:28:00Z",
    "departure": "2023-09-25T09:33:00Z"
  },
  {
    "train_number": "5212  ",
    "unit_number": "4024.0088",
    "name": "Innsbruck Hbf  (in I)",
    "abbr": "I   ",
    "lat": "47.2634",
    "lng": "11.4017",
    "arrival": "2023-09-25T08:39:00Z",
    "departure": "2023-09-25T08:49:00Z"
  },
  {
    "train_number": "5212  ",
    "unit_number": "4024.0088",
    "name": "Hall in Tirol",
    "abbr": "H   ",
    "lat": "47.2769",
    "lng": "11.5013",
    "arrival": "2023-09-25T08:29:00Z",
    "departure": "2023-09-25T08:30:00Z"
  },
  {
    "train_number": "5212  ",
    "unit_number": "4024.0088",
    "name": "Schwaz",
    "abbr": "Sw  ",
    "lat": "47.3497",
    "lng": "11.7016",
    "arrival": "2023-09-25T08:18:00Z",
    "departure": "2023-09-25T08:19:00Z"
  },
  {
    "train_number": "5212  ",
    "unit_number": "4024.0088",
    "name": "Jenbach",
    "abbr": "Jb  ",
    "lat": "47.3884",
    "lng": "11.7783",
    "arrival": "2023-09-25T08:13:00Z",
    "departure": "2023-09-25T08:14:00Z"
  },
  {
    "train_number": "5212  ",
    "unit_number": "4024.0088",
    "name": "Wörgl Hbf-T. N. (in W)",
    "abbr": "Wtn ",
    "lat": "47.4824",
    "lng": "12.033",
    "arrival": null,
    "departure": "2023-09-25T07:56:00Z"
  },
  {
    "train_number": "5018  ",
    "unit_number": "4024.0088",
    "name": "Wörgl Hbf (in W)",
    "abbr": "W   ",
    "lat": "47.4912",
    "lng": "12.0603",
    "arrival": "2023-09-25T07:40:00Z",
    "departure": "2023-09-25T07:54:00Z"
  },
  {
    "train_number": "5018  ",
    "unit_number": "4024.0088",
    "name": "Kitzbühel",
    "abbr": "Kzb ",
    "lat": "47.4542",
    "lng": "12.391",
    "arrival": "2023-09-25T07:00:00Z",
    "departure": "2023-09-25T07:01:00Z"
  },
  {
    "train_number": "5017  ",
    "unit_number": "4024.0088",
    "name": "Kitzbühel",
    "abbr": "Kzb ",
    "lat": "47.4542",
    "lng": "12.391",
    "arrival": "2023-09-25T06:01:00Z",
    "departure": "2023-09-25T06:02:00Z"
  },
  {
    "train_number": "5006  ",
    "unit_number": "4024.0088",
    "name": "Wörgl Hbf (in W)",
    "abbr": "W   ",
    "lat": "47.4912",
    "lng": "12.0603",
    "arrival": "2023-09-25T05:00:00Z",
    "departure": "2023-09-25T05:22:00Z"
  },
  {
    "train_number": "5006  ",
    "unit_number": "4024.0088",
    "name": "Kitzbühel",
    "abbr": "Kzb ",
    "lat": "47.4542",
    "lng": "12.391",
    "arrival": "2023-09-25T04:20:00Z",
    "departure": "2023-09-25T04:21:00Z"
  }
]
