[
  {
    "train_number": "5001  ",
    "unit_number": "4024.0088",
    "name": "Kitzbühel",
    "abbr": "Kzb ",
    "lat": "47.4542",
    "lng": "12.391",
    "arrival": "2023-08-27T23:16:00Z",
    "departure": "2023-08-27T23:17:00Z"
  },
  {
    "train_number": "5042  ",
    "unit_number": "4024.0088",
    "name": "Wörgl Hbf (in W)",
    "abbr": "W   ",
    "lat": "47.4912",
    "lng": "12.0603",
    "arrival": "2023-08-27T19:40:00Z",
    "departure": "2023-08-27T22:37:00Z"
  },
  {
    "train_number": "5042  ",
    "unit_number": "4024.0088",
    "name": "Kitzbühel",
    "abbr": "Kzb ",
    "lat": "47.4542",
    "lng": "12.391",
    "arrival": "2023-08-27T19:00:00Z",
    "departure": "2023-08-27T19:01:00Z"
  },
  {
    "train_number": "5041  ",
    "unit_number": "4024.0088",
    "name": "Kitzbühel",
    "abbr": "Kzb ",
    "lat": "47.4542",
    "lng": "12.391",
    "arrival": "2023-08-27T18:01:00Z",
    "departure": "2023-08-27T18:02:00Z"
  },
  {
    "train_number": "5036  ",
    "unit_number": "4024.0088",
    "name": "Wörgl Hbf (in W)",
    "abbr": "W   ",
    "lat": "47.4912",
    "lng": "12.0603",
    "arrival": "2023-08-27T16:40:00Z",
    "departure": "2023-08-27T17:22:00Z"
  },
  {
    "train_number": "5036  ",
    "unit_number": "4024.0088",
    "name": "Kitzbühel",
    "abbr": "Kzb ",
    "lat": "47.4542",
    "lng": "12.391",
    "arrival": "2023-08-27T16:00:00Z",
    "departure": "2023-08-27T16:01:00Z"
  },
  {
    "train_number": "5035  ",
    "unit_number": "4024.0088",
    "name": "Kitzbühel",
    "abbr": "Kzb ",
    "lat": "47.4542",
    "lng": "12.391",
    "arrival": "2023-08-27T15:01:00Z",
    "departure": "2023-08-27T15:02:00Z"
  },
  {
    "train_number": "5319  ",
    "unit_number": "4024.0088",
    "name": "Wörgl Hbf (in W)",
    "abbr": "W   ",
    "lat": "47.4912",
    "lng": "12.0603",
    "arrival": "2023-08-27T14:06:00Z",
    "departure": "2023-08-27T14:22:00Z"
  },
  {
    "train_number": "5319  ",
    "unit_number": "4024.0088",
    "name": "Wörgl Hbf-T. N. (in W)",
    "abbr": "Wtn ",
    "lat": "47.4824",
    "lng": "12.033",
    "arrival": null,
    "departure": "2023-08-27T14:03:00Z"
  },
  {
    "train_number": "5319  ",
    "unit_number": "4024.0088",
    "name": "Jenbach",
    "abbr": "Jb  ",
    "lat": "47.3884",
    "lng": "11.7783",
    "arrival": "2023-08-27T13:46:00Z",
    "departure": "2023-08-27T13:47:00Z"
  },
  {
    "train_number": "5319  ",
    "unit_number": "4024.0088",
    "name": "Schwaz",
    "abbr": "Sw  ",
    "lat": "47.3497",
    "lng": "11.7016",
    "arrival": "2023-08-27T13:40:00Z",
    "departure": "2023-08-27T13:41:00Z"
  },
  {
    "train_number": "5319  ",
    "unit_number": "4024.0088",
    "name": "Hall in Tirol",
    "abbr": "H   ",
    "lat": "47.2769",
    "lng": "11.5013",
    "arrival": "2023-08-27T13:29:00Z",
    "departure": "2023-08-27T13:30:00Z"
  },
  {
    "train_number": "5319  ",
    "unit_number": "4024.0088",
    "name": "Innsbruck Hbf  (in I)",
    "abbr": "I   ",
    "lat": "47.2634",
    "lng": "11.4017",
    "arrival": "2023-08-27T13:11:00Z",
    "departure": "2023-08-27T13:20:00Z"
  },
  {
    "train_number": "5218  ",
    "unit_number": "4024.0088",
    "name": "Brennero/Brenner",
    "abbr": "Be  ",
    "lat": "47.0022",
    "lng": "11.5053",
    "arrival": "2023-08-27T12:28:00Z",
    "departure": "2023-08-27T12:33:00Z"
  },
  {
    "train_number": "95897 ",
    "unit_number": "4024.0088",
    "name": "Innsbruck Hbf  (in I)",
    "abbr": "I   ",
    "lat": "47.2634",
    "lng": "11.4017",
    "arrival": "2023-08-25T23:26:00Z",
    "departure": "2023-08-27T11:49:00Z"
  }
]
