[
  {
    "train_number": "17319 ",
    "unit_number": "4024.0113",
    "name": "Mürzzuschlag (in Mz)",
    "abbr": "Mz  ",
    "lat": "47.6079",
    "lng": "15.677",
    "arrival": null,
    "departure": "2023-11-01T17:48:00Z"
  },
  {
    "train_number": "17319 ",
    "unit_number": "4024.0113",
    "name": "Payerbach-Reichenau",
    "abbr": "Pr  ",
    "lat": "47.696",
    "lng": "15.8632",
    "arrival": null,
    "departure": "2023-11-01T17:12:00Z"
  },
  {
    "train_number": "17319 ",
    "unit_number": "4024.0113",
    "name": "Neunkirchen N.Ö.",
    "abbr": "Nek ",
    "lat": "47.731",
    "lng": "16.0826",
    "arrival": "2023-11-01T16:52:00Z",
    "departure": "2023-11-01T16:59:00Z"
  },
  {
    "train_number": "17319 ",
    "unit_number": "4024.0113",
    "name": "Wr. Neustadt Hbf (in Nb)",
    "abbr": "Nb  ",
    "lat": "47.8113",
    "lng": "16.2337",
    "arrival": "2023-11-01T16:42:00Z",
    "departure": "2023-11-01T16:43:00Z"
  },
  {
    "train_number": "17319 ",
    "unit_number": "4024.0113",
    "name": "Ebenfurth (in Ef)",
    "abbr": "Ef  ",
    "lat": "47.8777",
    "lng": "16.3621",
    "arrival": null,
    "departure": "2023-11-01T16:32:00Z"
  },
  {
    "train_number": "17319 ",
    "unit_number": "4024.0113",
    "name": "Wien Meidling (in Wbf)",
    "abbr": "Mi  ",
    "lat": "48.1747",
    "lng": "16.3348",
    "arrival": "2023-11-01T16:07:00Z",
    "departure": "2023-11-01T16:09:00Z"
  },
  {
    "train_number": "17318 ",
    "unit_number": "4024.0113",
    "name": "Wien Hauptbahnhof (in Wbf)",
    "abbr": "Wbf ",
    "lat": "48.185",
    "lng": "16.3778",
    "arrival": "2023-11-01T14:54:00Z",
    "departure": "2023-11-01T16:02:00Z"
  },
  {
    "train_number": "17318 ",
    "unit_number": "4024.0113",
    "name": "Wien Meidling (in Wbf)",
    "abbr": "Mi  ",
    "lat": "48.1747",
    "lng": "16.3348",
    "arrival": "2023-11-01T14:47:00Z",
    "departure": "2023-11-01T14:49:00Z"
  },
  {
    "train_number": "17318 ",
    "unit_number": "4024.0113",
    "name": "Ebenfurth (in Ef)",
    "abbr": "Ef  ",
    "lat": "47.8777",
    "lng": "16.3621",
    "arrival": null,
    "departure": "2023-11-01T14:23:00Z"
  },
  {
    "train_number": "17318 ",
    "unit_number": "4024.0113",
    "name": "Wr. Neustadt Hbf (in Nb)",
    "abbr": "Nb  ",
    "lat": "47.8113",
    "lng": "16.2337",
    "arrival": "2023-11-01T14:14:00Z",
    "departure": "2023-11-01T14:15:00Z"
  },
  {
    "train_number": "17318 ",
    "unit_number": "4024.0113",
    "name": "Neunkirchen N.Ö.",
    "abbr": "Nek ",
    "lat": "47.731",
    "lng": "16.0826",
    "arrival": null,
    "departure": "2023-11-01T14:06:00Z"
  },
  {
    "train_number": "17318 ",
    "unit_number": "4024.0113",
    "name": "Payerbach-Reichenau",
    "abbr": "Pr  ",
    "lat": "47.696",
    "lng": "15.8632",
    "arrival": null,
    "departure": "2023-11-01T13:52:00Z"
  },
  {
    "train_number": "17318 ",
    "unit_number": "4024.0113",
    "name": "Mürzzuschlag (in Mz)",
    "abbr": "Mz  ",
    "lat": "47.6079",
    "lng": "15.677",
    "arrival": null,
    "departure": "2023-11-01T13:18:00Z"
  },
  {
    "train_number": "17318 ",
    "unit_number": "4024.0113",
    "name": "Bruck a.d.Mur (in Bm)",
    "abbr": "Bm  ",
    "lat": "47.4134",
    "lng": "15.2797",
    "arrival": null,
    "departure": "2023-11-01T12:56:00Z"
  },
  {
    "train_number": "17318 ",
    "unit_number": "4024.0113",
    "name": "Leoben Hbf (in Leb)",
    "abbr": "Leb ",
    "lat": "47.3867",
    "lng": "15.0898",
    "arrival": "2023-11-01T12:44:00Z",
    "departure": "2023-11-01T12:45:00Z"
  },
  {
    "train_number": "17318 ",
    "unit_number": "4024.0113",
    "name": "Zeltweg",
    "abbr": "Zg  ",
    "lat": "47.1887",
    "lng": "14.7425",
    "arrival": null,
    "departure": "2023-11-01T12:19:00Z"
  },
  {
    "train_number": "17318 ",
    "unit_number": "4024.0113",
    "name": "St.Veit a.d.Glan (in Vps)",
    "abbr": "Vps ",
    "lat": "46.7704",
    "lng": "14.3672",
    "arrival": "2023-11-01T10:58:00Z",
    "departure": "2023-11-01T10:59:00Z"
  },
  {
    "train_number": "17318 ",
    "unit_number": "4024.0113",
    "name": "Klagenfurt Hbf (in Kt)",
    "abbr": "Kt  ",
    "lat": "46.6156",
    "lng": "14.3137",
    "arrival": "2023-11-01T10:45:00Z",
    "departure": "2023-11-01T10:46:00Z"
  },
  {
    "train_number": "4309  ",
    "unit_number": "4024.0113",
    "name": "Villach Hbf",
    "abbr": "Vb  ",
    "lat": "46.6186",
    "lng": "13.8484",
    "arrival": "2023-11-01T09:06:00Z",
    "departure": "2023-11-01T10:16:00Z"
  },
  {
    "train_number": "4976  ",
    "unit_number": "4024.0113",
    "name": "Villach Hbf",
    "abbr": "Vb  ",
    "lat": "46.6186",
    "lng": "13.8484",
    "arrival": "2023-10-31T19:04:00Z",
    "departure": "2023-11-01T06:53:00Z"
  }
]
