[
  {
    "train_number": "25796 ",
    "unit_number": "4024.0014",
    "name": "Freilassing",
    "abbr": "MFL ",
    "lat": "47.8368",
    "lng": "12.9764",
    "arrival": "2023-08-24T19:43:00Z",
    "departure": "2023-08-25T03:17:00Z"
  },
  {
    "train_number": "25796 ",
    "unit_number": "4024.0014",
    "name": "Salzburg Liefering (in Sb)",
    "abbr": "Lfg ",
    "lat": "47.8229",
    "lng": "13.0021",
    "arrival": "2023-08-24T19:40:00Z",
    "departure": "2023-08-24T19:40:00Z"
  },
  {
    "train_number": "5080  ",
    "unit_number": "4024.0014",
    "name": "Salzburg Hbf (in Sb)",
    "abbr": "Sb  ",
    "lat": "47.8135",
    "lng": "13.0466",
    "arrival": "2023-08-24T18:26:00Z",
    "departure": "2023-08-24T19:32:00Z"
  },
  {
    "train_number": "5080  ",
    "unit_number": "4024.0014",
    "name": "Steindorf b.StraÃŸw. (in Nst)",
    "abbr": "Nst ",
    "lat": "47.9676",
    "lng": "13.2406",
    "arrival": null,
    "departure": "2023-08-24T17:59:00Z"
  },
  {
    "train_number": "5080  ",
    "unit_number": "4024.0014",
    "name": "Attnang-Puchheim",
    "abbr": "At  ",
    "lat": "48.0112",
    "lng": "13.7193",
    "arrival": "2023-08-24T16:50:00Z",
    "departure": "2023-08-24T16:51:00Z"
  },
  {
    "train_number": "5080  ",
    "unit_number": "4024.0014",
    "name": "Wels Hbf",
    "abbr": "We  ",
    "lat": "48.1662",
    "lng": "14.0273",
    "arrival": "2023-08-24T16:22:00Z",
    "departure": "2023-08-24T16:23:00Z"
  },
  {
    "train_number": "3964  ",
    "unit_number": "4024.0014",
    "name": "Linz Hbf",
    "abbr": "Lz  ",
    "lat": "48.2908",
    "lng": "14.2927",
    "arrival": "2023-08-24T15:24:00Z",
    "departure": "2023-08-24T16:00:00Z"
  },
  {
    "train_number": "4411  ",
    "unit_number": "4024.0014",
    "name": "Linz Hbf",
    "abbr": "Lz  ",
    "lat": "48.2908",
    "lng": "14.2927",
    "arrival": "2023-08-24T13:41:00Z",
    "departure": "2023-08-24T14:06:00Z"
  },
  {
    "train_number": "4411  ",
    "unit_number": "4024.0014",
    "name": "Wels Hbf",
    "abbr": "We  ",
    "lat": "48.1662",
    "lng": "14.0273",
    "arrival": "2023-08-24T13:24:00Z",
    "departure": "2023-08-24T13:25:00Z"
  },
  {
    "train_number": "4410  ",
    "unit_number": "4024.0014",
    "name": "Attnang-Puchheim",
    "abbr": "At  ",
    "lat": "48.0112",
    "lng": "13.7193",
    "arrival": "2023-08-24T12:07:00Z",
    "departure": "2023-08-24T12:53:00Z"
  },
  {
    "train_number": "4410  ",
    "unit_number": "4024.0014",
    "name": "Wels Hbf",
    "abbr": "We  ",
    "lat": "48.1662",
    "lng": "14.0273",
    "arrival": "2023-08-24T11:33:00Z",
    "departure": "2023-08-24T11:34:00Z"
  },
  {
    "train_number": "3930  ",
    "unit_number": "4024.0014",
    "name": "Linz Hbf",
    "abbr": "Lz  ",
    "lat": "48.2908",
    "lng": "14.2927",
    "arrival": "2023-08-24T05:12:00Z",
    "departure": "2023-08-24T11:18:00Z"
  }
]
