[
  {
    "train_number": "5034  ",
    "unit_number": "4024.0088",
    "name": "Kitzbühel",
    "abbr": "Kzb ",
    "lat": "47.4542",
    "lng": "12.391",
    "arrival": "2023-10-10T15:00:00Z",
    "departure": "2023-10-10T15:01:00Z"
  },
  {
    "train_number": "5033  ",
    "unit_number": "4024.0088",
    "name": "Kitzbühel",
    "abbr": "Kzb ",
    "lat": "47.4542",
    "lng": "12.391",
    "arrival": "2023-10-10T14:01:00Z",
    "departure": "2023-10-10T14:02:00Z"
  },
  {
    "train_number": "5317  ",
    "unit_number": "4024.0088",
    "name": "Wörgl Hbf (in W)",
    "abbr": "W   ",
    "lat": "47.4912",
    "lng": "12.0603",
    "arrival": "2023-10-10T13:07:00Z",
    "departure": "2023-10-10T13:22:00Z"
  },
  {
    "train_number": "5317  ",
    "unit_number": "4024.0088",
    "name": "Wörgl Hbf-T. N. (in W)",
    "abbr": "Wtn ",
    "lat": "47.4824",
    "lng": "12.033",
    "arrival": null,
    "departure": "2023-10-10T13:04:00Z"
  },
  {
    "train_number": "5317  ",
    "unit_number": "4024.0088",
    "name": "Jenbach",
    "abbr": "Jb  ",
    "lat": "47.3884",
    "lng": "11.7783",
    "arrival": "2023-10-10T12:47:00Z",
    "departure": "2023-10-10T12:48:00Z"
  },
  {
    "train_number": "5317  ",
    "unit_number": "4024.0088",
    "name": "Schwaz",
    "abbr": "Sw  ",
    "lat": "47.3497",
    "lng": "11.7016",
    "arrival": "2023-10-10T12:41:00Z",
    "departure": "2023-10-10T12:42:00Z"
  },
  {
    "train_number": "5317  ",
    "unit_number": "4024.0088",
    "name": "Hall in Tirol",
    "abbr": "H   ",
    "lat": "47.2769",
    "lng": "11.5013",
    "arrival": "2023-10-10T12:30:00Z",
    "departure": "2023-10-10T12:31:00Z"
  },
  {
    "train_number": "5317  ",
    "unit_number": "4024.0088",
    "name": "Innsbruck Hbf  (in I)",
    "abbr": "I   ",
    "lat": "47.2634",
    "lng": "11.4017",
    "arrival": "2023-10-10T12:13:00Z",
    "departure": "2023-10-10T12:21:00Z"
  },
  {
    "train_number": "5216  ",
    "unit_number": "4024.0088",
    "name": "Brennero/Brenner",
    "abbr": "Be  ",
    "lat": "47.0022",
    "lng": "11.5053",
    "arrival": "2023-10-10T11:28:00Z",
    "departure": "2023-10-10T11:33:00Z"
  },
  {
    "train_number": "5216  ",
    "unit_number": "4024.0088",
    "name": "Innsbruck Hbf  (in I)",
    "abbr": "I   ",
    "lat": "47.2634",
    "lng": "11.4017",
    "arrival": "2023-10-10T10:40:00Z",
    "departure": "2023-10-10T10:49:00Z"
  },
  {
    "train_number": "5216  ",
    "unit_number": "4024.0088",
    "name": "Hall in Tirol",
    "abbr": "H   ",
    "lat": "47.2769",
    "lng": "11.5013",
    "arrival": "2023-10-10T10:29:00Z",
    "departure": "2023-10-10T10:30:00Z"
  },
  {
    "train_number": "5216  ",
    "unit_number": "4024.0088",
    "name": "Schwaz",
    "abbr": "Sw  ",
    "lat": "47.3497",
    "lng": "11.7016",
    "arrival": "2023-10-10T10:18:00Z",
    "departure": "2023-10-10T10:19:00Z"
  },
  {
    "train_number": "5216  ",
    "unit_number": "4024.0088",
    "name": "Jenbach",
    "abbr": "Jb  ",
    "lat": "47.3884",
    "lng": "11.7783",
    "arrival": "2023-10-10T10:13:00Z",
    "departure": "2023-10-10T10:14:00Z"
  },
  {
    "train_number": "5216  ",
    "unit_number": "4024.0088",
    "name": "Wörgl Hbf-T. N. (in W)",
    "abbr": "Wtn ",
    "lat": "47.4824",
    "lng": "12.033",
    "arrival": null,
    "departure": "2023-10-10T09:56:00Z"
  },
  {
    "train_number": "1506  ",
    "unit_number": "4024.0088",
    "name": "Wörgl Hbf (in W)",
    "abbr": "W   ",
    "lat": "47.4912",
    "lng": "12.0603",
    "arrival": "2023-10-10T09:09:00Z",
    "departure": "2023-10-10T09:54:00Z"
  },
  {
    "train_number": "1506  ",
    "unit_number": "4024.0088",
    "name": "Kitzbühel",
    "abbr": "Kzb ",
    "lat": "47.4542",
    "lng": "12.391",
    "arrival": "2023-10-10T08:35:00Z",
    "departure": "2023-10-10T08:35:00Z"
  },
  {
    "train_number": "1505  ",
    "unit_number": "4024.0088",
    "name": "Schwarzach-St.Veit",
    "abbr": "Swa ",
    "lat": "47.3186",
    "lng": "13.1561",
    "arrival": "2023-10-10T06:48:00Z",
    "departure": "2023-10-10T07:12:00Z"
  },
  {
    "train_number": "1505  ",
    "unit_number": "4024.0088",
    "name": "Kitzbühel",
    "abbr": "Kzb ",
    "lat": "47.4542",
    "lng": "12.391",
    "arrival": "2023-10-10T05:24:00Z",
    "departure": "2023-10-10T05:25:00Z"
  },
  {
    "train_number": "5004  ",
    "unit_number": "4024.0088",
    "name": "Wörgl Hbf (in W)",
    "abbr": "W   ",
    "lat": "47.4912",
    "lng": "12.0603",
    "arrival": "2023-10-10T04:33:00Z",
    "departure": "2023-10-10T04:49:00Z"
  },
  {
    "train_number": "5004  ",
    "unit_number": "4024.0088",
    "name": "Kitzbühel",
    "abbr": "Kzb ",
    "lat": "47.4542",
    "lng": "12.391",
    "arrival": "2023-10-10T03:56:00Z",
    "departure": "2023-10-10T03:57:00Z"
  }
]
