[
  {
    "train_number": "5115  ",
    "unit_number": "4024.0088",
    "name": "Innsbruck Hbf  (in I)",
    "abbr": "I   ",
    "lat": "47.2634",
    "lng": "11.4017",
    "arrival": "2023-08-22T09:31:00Z",
    "departure": "2023-08-22T09:35:00Z"
  },
  {
    "train_number": "5110  ",
    "unit_number": "4024.0088",
    "name": "Innsbruck Hbf  (in I)",
    "abbr": "I   ",
    "lat": "47.2634",
    "lng": "11.4017",
    "arrival": "2023-08-22T08:25:00Z",
    "departure": "2023-08-22T08:29:00Z"
  },
  {
    "train_number": "5110  ",
    "unit_number": "4024.0088",
    "name": "Hall in Tirol",
    "abbr": "H   ",
    "lat": "47.2769",
    "lng": "11.5013",
    "arrival": "2023-08-22T08:14:00Z",
    "departure": "2023-08-22T08:14:00Z"
  },
  {
    "train_number": "5110  ",
    "unit_number": "4024.0088",
    "name": "Schwaz",
    "abbr": "Sw  ",
    "lat": "47.3497",
    "lng": "11.7016",
    "arrival": "2023-08-22T07:58:00Z",
    "departure": "2023-08-22T07:58:00Z"
  },
  {
    "train_number": "5110  ",
    "unit_number": "4024.0088",
    "name": "Jenbach",
    "abbr": "Jb  ",
    "lat": "47.3884",
    "lng": "11.7783",
    "arrival": "2023-08-22T07:50:00Z",
    "departure": "2023-08-22T07:51:00Z"
  },
  {
    "train_number": "5110  ",
    "unit_number": "4024.0088",
    "name": "Wörgl Hbf-T. N. (in W)",
    "abbr": "Wtn ",
    "lat": "47.4824",
    "lng": "12.033",
    "arrival": null,
    "departure": "2023-08-22T07:30:00Z"
  },
  {
    "train_number": "5110  ",
    "unit_number": "4024.0088",
    "name": "Wörgl Hbf (in W)",
    "abbr": "W   ",
    "lat": "47.4912",
    "lng": "12.0603",
    "arrival": "2023-08-22T07:25:00Z",
    "departure": "2023-08-22T07:29:00Z"
  },
  {
    "train_number": "5105  ",
    "unit_number": "4024.0088",
    "name": "Kufstein",
    "abbr": "K   ",
    "lat": "47.5833",
    "lng": "12.1657",
    "arrival": "2023-08-22T06:48:00Z",
    "departure": "2023-08-22T07:12:00Z"
  },
  {
    "train_number": "5105  ",
    "unit_number": "4024.0088",
    "name": "Wörgl Hbf (in W)",
    "abbr": "W   ",
    "lat": "47.4912",
    "lng": "12.0603",
    "arrival": "2023-08-22T06:31:00Z",
    "departure": "2023-08-22T06:35:00Z"
  },
  {
    "train_number": "5105  ",
    "unit_number": "4024.0088",
    "name": "Wörgl Hbf-T. N. (in W)",
    "abbr": "Wtn ",
    "lat": "47.4824",
    "lng": "12.033",
    "arrival": null,
    "departure": "2023-08-22T06:28:00Z"
  },
  {
    "train_number": "5105  ",
    "unit_number": "4024.0088",
    "name": "Jenbach",
    "abbr": "Jb  ",
    "lat": "47.3884",
    "lng": "11.7783",
    "arrival": "2023-08-22T06:08:00Z",
    "departure": "2023-08-22T06:09:00Z"
  },
  {
    "train_number": "5105  ",
    "unit_number": "4024.0088",
    "name": "Schwaz",
    "abbr": "Sw  ",
    "lat": "47.3497",
    "lng": "11.7016",
    "arrival": "2023-08-22T06:01:00Z",
    "departure": "2023-08-22T06:02:00Z"
  },
  {
    "train_number": "5105  ",
    "unit_number": "4024.0088",
    "name": "Hall in Tirol",
    "abbr": "H   ",
    "lat": "47.2769",
    "lng": "11.5013",
    "arrival": "2023-08-22T05:45:00Z",
    "departure": "2023-08-22T05:46:00Z"
  },
  {
    "train_number": "5104  ",
    "unit_number": "4024.0088",
    "name": "Innsbruck Hbf  (in I)",
    "abbr": "I   ",
    "lat": "47.2634",
    "lng": "11.4017",
    "arrival": "2023-08-22T05:25:00Z",
    "departure": "2023-08-22T05:35:00Z"
  },
  {
    "train_number": "5104  ",
    "unit_number": "4024.0088",
    "name": "Hall in Tirol",
    "abbr": "H   ",
    "lat": "47.2769",
    "lng": "11.5013",
    "arrival": "2023-08-22T05:14:00Z",
    "departure": "2023-08-22T05:14:00Z"
  },
  {
    "train_number": "5104  ",
    "unit_number": "4024.0088",
    "name": "Schwaz",
    "abbr": "Sw  ",
    "lat": "47.3497",
    "lng": "11.7016",
    "arrival": "2023-08-22T04:58:00Z",
    "departure": "2023-08-22T04:58:00Z"
  },
  {
    "train_number": "5104  ",
    "unit_number": "4024.0088",
    "name": "Jenbach",
    "abbr": "Jb  ",
    "lat": "47.3884",
    "lng": "11.7783",
    "arrival": "2023-08-22T04:50:00Z",
    "departure": "2023-08-22T04:51:00Z"
  },
  {
    "train_number": "5104  ",
    "unit_number": "4024.0088",
    "name": "Wörgl Hbf-T. N. (in W)",
    "abbr": "Wtn ",
    "lat": "47.4824",
    "lng": "12.033",
    "arrival": null,
    "departure": "2023-08-22T04:30:00Z"
  },
  {
    "train_number": "5104  ",
    "unit_number": "4024.0088",
    "name": "Wörgl Hbf (in W)",
    "abbr": "W   ",
    "lat": "47.4912",
    "lng": "12.0603",
    "arrival": "2023-08-22T04:25:00Z",
    "departure": "2023-08-22T04:29:00Z"
  },
  {
    "train_number": "5331  ",
    "unit_number": "4024.0088",
    "name": "Kufstein",
    "abbr": "K   ",
    "lat": "47.5833",
    "lng": "12.1657",
    "arrival": "2023-08-21T20:28:00Z",
    "departure": "2023-08-22T04:12:00Z"
  }
]
