[
  {
    "train_number": "5193  ",
    "unit_number": "4024.0088",
    "name": "Kufstein",
    "abbr": "K   ",
    "lat": "47.5833",
    "lng": "12.1657",
    "arrival": "2023-10-14T01:15:00Z",
    "departure": "2023-10-14T03:10:00Z"
  },
  {
    "train_number": "5193  ",
    "unit_number": "4024.0088",
    "name": "Wörgl Hbf (in W)",
    "abbr": "W   ",
    "lat": "47.4912",
    "lng": "12.0603",
    "arrival": "2023-10-14T01:01:00Z",
    "departure": "2023-10-14T01:02:00Z"
  },
  {
    "train_number": "5193  ",
    "unit_number": "4024.0088",
    "name": "Wörgl Hbf-T. N. (in W)",
    "abbr": "Wtn ",
    "lat": "47.4824",
    "lng": "12.033",
    "arrival": null,
    "departure": "2023-10-14T00:58:00Z"
  },
  {
    "train_number": "5193  ",
    "unit_number": "4024.0088",
    "name": "Jenbach",
    "abbr": "Jb  ",
    "lat": "47.3884",
    "lng": "11.7783",
    "arrival": "2023-10-14T00:38:00Z",
    "departure": "2023-10-14T00:39:00Z"
  },
  {
    "train_number": "5193  ",
    "unit_number": "4024.0088",
    "name": "Schwaz",
    "abbr": "Sw  ",
    "lat": "47.3497",
    "lng": "11.7016",
    "arrival": "2023-10-14T00:31:00Z",
    "departure": "2023-10-14T00:32:00Z"
  },
  {
    "train_number": "5193  ",
    "unit_number": "4024.0088",
    "name": "Hall in Tirol",
    "abbr": "H   ",
    "lat": "47.2769",
    "lng": "11.5013",
    "arrival": "2023-10-14T00:15:00Z",
    "departure": "2023-10-14T00:16:00Z"
  },
  {
    "train_number": "5185  ",
    "unit_number": "4024.0088",
    "name": "Innsbruck Hbf  (in I)",
    "abbr": "I   ",
    "lat": "47.2634",
    "lng": "11.4017",
    "arrival": "2023-10-13T22:31:00Z",
    "departure": "2023-10-14T00:05:00Z"
  },
  {
    "train_number": "5367  ",
    "unit_number": "4024.0088",
    "name": "Innsbruck Hbf  (in I)",
    "abbr": "I   ",
    "lat": "47.2634",
    "lng": "11.4017",
    "arrival": "2023-10-13T06:37:00Z",
    "departure": "2023-10-13T21:04:00Z"
  },
  {
    "train_number": "5144  ",
    "unit_number": "4024.0088",
    "name": "Innsbruck Hbf  (in I)",
    "abbr": "I   ",
    "lat": "47.2634",
    "lng": "11.4017",
    "arrival": "2023-10-13T04:55:00Z",
    "departure": "2023-10-13T04:59:00Z"
  },
  {
    "train_number": "5144  ",
    "unit_number": "4024.0088",
    "name": "Hall in Tirol",
    "abbr": "H   ",
    "lat": "47.2769",
    "lng": "11.5013",
    "arrival": "2023-10-13T04:44:00Z",
    "departure": "2023-10-13T04:44:00Z"
  },
  {
    "train_number": "5144  ",
    "unit_number": "4024.0088",
    "name": "Schwaz",
    "abbr": "Sw  ",
    "lat": "47.3497",
    "lng": "11.7016",
    "arrival": "2023-10-13T04:28:00Z",
    "departure": "2023-10-13T04:28:00Z"
  },
  {
    "train_number": "5144  ",
    "unit_number": "4024.0088",
    "name": "Jenbach",
    "abbr": "Jb  ",
    "lat": "47.3884",
    "lng": "11.7783",
    "arrival": "2023-10-13T04:20:00Z",
    "departure": "2023-10-13T04:21:00Z"
  },
  {
    "train_number": "5144  ",
    "unit_number": "4024.0088",
    "name": "Wörgl Hbf-T. N. (in W)",
    "abbr": "Wtn ",
    "lat": "47.4824",
    "lng": "12.033",
    "arrival": null,
    "departure": "2023-10-13T04:00:00Z"
  },
  {
    "train_number": "5321  ",
    "unit_number": "4024.0088",
    "name": "Wörgl Hbf (in W)",
    "abbr": "W   ",
    "lat": "47.4912",
    "lng": "12.0603",
    "arrival": "2023-10-12T15:09:00Z",
    "departure": "2023-10-13T03:59:00Z"
  }
]
