[
  {
    "train_number": "1535  ",
    "unit_number": "4024.0088",
    "name": "Kitzbühel",
    "abbr": "Kzb ",
    "lat": "47.4542",
    "lng": "12.391",
    "arrival": "2023-09-26T19:24:00Z",
    "departure": "2023-09-26T19:25:00Z"
  },
  {
    "train_number": "31524 ",
    "unit_number": "4024.0088",
    "name": "Wörgl Hbf (in W)",
    "abbr": "W   ",
    "lat": "47.4912",
    "lng": "12.0603",
    "arrival": "2023-09-26T18:09:00Z",
    "departure": "2023-09-26T18:52:00Z"
  },
  {
    "train_number": "31524 ",
    "unit_number": "4024.0088",
    "name": "Kitzbühel",
    "abbr": "Kzb ",
    "lat": "47.4542",
    "lng": "12.391",
    "arrival": "2023-09-26T17:36:00Z",
    "departure": "2023-09-26T17:36:00Z"
  },
  {
    "train_number": "1525  ",
    "unit_number": "4024.0088",
    "name": "Kitzbühel",
    "abbr": "Kzb ",
    "lat": "47.4542",
    "lng": "12.391",
    "arrival": "2023-09-26T15:24:00Z",
    "departure": "2023-09-26T15:25:00Z"
  },
  {
    "train_number": "1525  ",
    "unit_number": "4024.0088",
    "name": "Wörgl Hbf (in W)",
    "abbr": "W   ",
    "lat": "47.4912",
    "lng": "12.0603",
    "arrival": "2023-09-26T14:47:00Z",
    "departure": "2023-09-26T14:50:00Z"
  },
  {
    "train_number": "1525  ",
    "unit_number": "4024.0088",
    "name": "Wörgl Hbf-T. N. (in W)",
    "abbr": "Wtn ",
    "lat": "47.4824",
    "lng": "12.033",
    "arrival": null,
    "departure": "2023-09-26T14:45:00Z"
  },
  {
    "train_number": "5261  ",
    "unit_number": "4024.0088",
    "name": "Jenbach",
    "abbr": "Jb  ",
    "lat": "47.3884",
    "lng": "11.7783",
    "arrival": "2023-09-26T14:23:00Z",
    "departure": "2023-09-26T14:25:00Z"
  },
  {
    "train_number": "5261  ",
    "unit_number": "4024.0088",
    "name": "Schwaz",
    "abbr": "Sw  ",
    "lat": "47.3497",
    "lng": "11.7016",
    "arrival": "2023-09-26T14:16:00Z",
    "departure": "2023-09-26T14:17:00Z"
  },
  {
    "train_number": "5261  ",
    "unit_number": "4024.0088",
    "name": "Hall in Tirol",
    "abbr": "H   ",
    "lat": "47.2769",
    "lng": "11.5013",
    "arrival": "2023-09-26T14:00:00Z",
    "departure": "2023-09-26T14:01:00Z"
  },
  {
    "train_number": "5123  ",
    "unit_number": "4024.0088",
    "name": "Innsbruck Hbf  (in I)",
    "abbr": "I   ",
    "lat": "47.2634",
    "lng": "11.4017",
    "arrival": "2023-09-26T13:31:00Z",
    "departure": "2023-09-26T13:51:00Z"
  },
  {
    "train_number": "5159  ",
    "unit_number": "4024.0088",
    "name": "Innsbruck Hbf  (in I)",
    "abbr": "I   ",
    "lat": "47.2634",
    "lng": "11.4017",
    "arrival": "2023-09-26T12:01:00Z",
    "departure": "2023-09-26T12:29:00Z"
  },
  {
    "train_number": "5115  ",
    "unit_number": "4024.0088",
    "name": "Innsbruck Hbf  (in I)",
    "abbr": "I   ",
    "lat": "47.2634",
    "lng": "11.4017",
    "arrival": "2023-09-26T09:31:00Z",
    "departure": "2023-09-26T09:59:00Z"
  },
  {
    "train_number": "5151  ",
    "unit_number": "4024.0088",
    "name": "Innsbruck Hbf  (in I)",
    "abbr": "I   ",
    "lat": "47.2634",
    "lng": "11.4017",
    "arrival": "2023-09-26T08:01:00Z",
    "departure": "2023-09-26T08:29:00Z"
  },
  {
    "train_number": "5144  ",
    "unit_number": "4024.0088",
    "name": "Innsbruck Hbf  (in I)",
    "abbr": "I   ",
    "lat": "47.2634",
    "lng": "11.4017",
    "arrival": "2023-09-26T04:54:00Z",
    "departure": "2023-09-26T04:59:00Z"
  },
  {
    "train_number": "5144  ",
    "unit_number": "4024.0088",
    "name": "Hall in Tirol",
    "abbr": "H   ",
    "lat": "47.2769",
    "lng": "11.5013",
    "arrival": "2023-09-26T04:44:00Z",
    "departure": "2023-09-26T04:44:00Z"
  },
  {
    "train_number": "5144  ",
    "unit_number": "4024.0088",
    "name": "Schwaz",
    "abbr": "Sw  ",
    "lat": "47.3497",
    "lng": "11.7016",
    "arrival": "2023-09-26T04:28:00Z",
    "departure": "2023-09-26T04:28:00Z"
  },
  {
    "train_number": "5144  ",
    "unit_number": "4024.0088",
    "name": "Jenbach",
    "abbr": "Jb  ",
    "lat": "47.3884",
    "lng": "11.7783",
    "arrival": "2023-09-26T04:20:00Z",
    "departure": "2023-09-26T04:21:00Z"
  },
  {
    "train_number": "5144  ",
    "unit_number": "4024.0088",
    "name": "Wörgl Hbf-T. N. (in W)",
    "abbr": "Wtn ",
    "lat": "47.4824",
    "lng": "12.033",
    "arrival": null,
    "departure": "2023-09-26T04:00:00Z"
  },
  {
    "train_number": "5042  ",
    "unit_number": "4024.0088",
    "name": "Wörgl Hbf (in W)",
    "abbr": "W   ",
    "lat": "47.4912",
    "lng": "12.0603",
    "arrival": "2023-09-25T19:40:00Z",
    "departure": "2023-09-26T03:59:00Z"
  }
]
