[
  {
    "train_number": "5263  ",
    "unit_number": "4024.0088",
    "name": "Innsbruck Hbf  (in I)",
    "abbr": "I   ",
    "lat": "47.2634",
    "lng": "11.4017",
    "arrival": "2023-11-06T15:41:00Z",
    "departure": "2023-11-06T15:50:00Z"
  },
  {
    "train_number": "5260  ",
    "unit_number": "4024.0088",
    "name": "Innsbruck Hbf  (in I)",
    "abbr": "I   ",
    "lat": "47.2634",
    "lng": "11.4017",
    "arrival": "2023-11-06T14:13:00Z",
    "departure": "2023-11-06T14:19:00Z"
  },
  {
    "train_number": "5259  ",
    "unit_number": "4024.0088",
    "name": "Hall in Tirol",
    "abbr": "H   ",
    "lat": "47.2769",
    "lng": "11.5013",
    "arrival": "2023-11-06T13:59:00Z",
    "departure": "2023-11-06T14:04:00Z"
  },
  {
    "train_number": "5259  ",
    "unit_number": "4024.0088",
    "name": "Innsbruck Hbf  (in I)",
    "abbr": "I   ",
    "lat": "47.2634",
    "lng": "11.4017",
    "arrival": "2023-11-06T13:41:00Z",
    "departure": "2023-11-06T13:50:00Z"
  },
  {
    "train_number": "5256  ",
    "unit_number": "4024.0088",
    "name": "Innsbruck Hbf  (in I)",
    "abbr": "I   ",
    "lat": "47.2634",
    "lng": "11.4017",
    "arrival": "2023-11-06T12:13:00Z",
    "departure": "2023-11-06T12:19:00Z"
  },
  {
    "train_number": "5255  ",
    "unit_number": "4024.0088",
    "name": "Hall in Tirol",
    "abbr": "H   ",
    "lat": "47.2769",
    "lng": "11.5013",
    "arrival": "2023-11-06T11:59:00Z",
    "departure": "2023-11-06T12:04:00Z"
  },
  {
    "train_number": "5255  ",
    "unit_number": "4024.0088",
    "name": "Innsbruck Hbf  (in I)",
    "abbr": "I   ",
    "lat": "47.2634",
    "lng": "11.4017",
    "arrival": "2023-11-06T11:41:00Z",
    "departure": "2023-11-06T11:50:00Z"
  },
  {
    "train_number": "5252  ",
    "unit_number": "4024.0088",
    "name": "Innsbruck Hbf  (in I)",
    "abbr": "I   ",
    "lat": "47.2634",
    "lng": "11.4017",
    "arrival": "2023-11-06T10:13:00Z",
    "departure": "2023-11-06T10:19:00Z"
  },
  {
    "train_number": "5251  ",
    "unit_number": "4024.0088",
    "name": "Hall in Tirol",
    "abbr": "H   ",
    "lat": "47.2769",
    "lng": "11.5013",
    "arrival": "2023-11-06T09:59:00Z",
    "departure": "2023-11-06T10:04:00Z"
  },
  {
    "train_number": "5251  ",
    "unit_number": "4024.0088",
    "name": "Innsbruck Hbf  (in I)",
    "abbr": "I   ",
    "lat": "47.2634",
    "lng": "11.4017",
    "arrival": "2023-11-06T09:41:00Z",
    "departure": "2023-11-06T09:50:00Z"
  },
  {
    "train_number": "5248  ",
    "unit_number": "4024.0088",
    "name": "Innsbruck Hbf  (in I)",
    "abbr": "I   ",
    "lat": "47.2634",
    "lng": "11.4017",
    "arrival": "2023-11-06T08:09:00Z",
    "departure": "2023-11-06T08:19:00Z"
  },
  {
    "train_number": "5247  ",
    "unit_number": "4024.0088",
    "name": "Hall in Tirol",
    "abbr": "H   ",
    "lat": "47.2769",
    "lng": "11.5013",
    "arrival": "2023-11-06T07:55:00Z",
    "departure": "2023-11-06T08:00:00Z"
  },
  {
    "train_number": "5247  ",
    "unit_number": "4024.0088",
    "name": "Innsbruck Hbf  (in I)",
    "abbr": "I   ",
    "lat": "47.2634",
    "lng": "11.4017",
    "arrival": "2023-11-06T07:41:00Z",
    "departure": "2023-11-06T07:46:00Z"
  },
  {
    "train_number": "5244  ",
    "unit_number": "4024.0088",
    "name": "Innsbruck Hbf  (in I)",
    "abbr": "I   ",
    "lat": "47.2634",
    "lng": "11.4017",
    "arrival": "2023-11-06T06:13:00Z",
    "departure": "2023-11-06T06:19:00Z"
  },
  {
    "train_number": "5244  ",
    "unit_number": "4024.0088",
    "name": "Hall in Tirol",
    "abbr": "H   ",
    "lat": "47.2769",
    "lng": "11.5013",
    "arrival": "2023-11-06T06:02:00Z",
    "departure": "2023-11-06T06:02:00Z"
  },
  {
    "train_number": "5244  ",
    "unit_number": "4024.0088",
    "name": "Schwaz",
    "abbr": "Sw  ",
    "lat": "47.3497",
    "lng": "11.7016",
    "arrival": "2023-11-06T05:46:00Z",
    "departure": "2023-11-06T05:46:00Z"
  },
  {
    "train_number": "5244  ",
    "unit_number": "4024.0088",
    "name": "Jenbach",
    "abbr": "Jb  ",
    "lat": "47.3884",
    "lng": "11.7783",
    "arrival": "2023-11-06T05:38:00Z",
    "departure": "2023-11-06T05:39:00Z"
  },
  {
    "train_number": "5244  ",
    "unit_number": "4024.0088",
    "name": "Wörgl Hbf-T. N. (in W)",
    "abbr": "Wtn ",
    "lat": "47.4824",
    "lng": "12.033",
    "arrival": null,
    "departure": "2023-11-06T05:18:00Z"
  },
  {
    "train_number": "5244  ",
    "unit_number": "4024.0088",
    "name": "Wörgl Hbf (in W)",
    "abbr": "W   ",
    "lat": "47.4912",
    "lng": "12.0603",
    "arrival": "2023-11-06T05:15:00Z",
    "departure": "2023-11-06T05:17:00Z"
  },
  {
    "train_number": "5244  ",
    "unit_number": "4024.0088",
    "name": "Kitzbühel",
    "abbr": "Kzb ",
    "lat": "47.4542",
    "lng": "12.391",
    "arrival": "2023-11-06T04:35:00Z",
    "departure": "2023-11-06T04:36:00Z"
  }
]
