[
  {
    "train_number": "5939  ",
    "unit_number": "4024.0014",
    "name": "Wels Hbf",
    "abbr": "We  ",
    "lat": "48.1662",
    "lng": "14.0273",
    "arrival": "2023-10-02T19:51:00Z",
    "departure": "2023-10-02T20:49:00Z"
  },
  {
    "train_number": "5939  ",
    "unit_number": "4024.0014",
    "name": "Neumarkt-Kallham (in Neu)",
    "abbr": "Neu ",
    "lat": "48.2714",
    "lng": "13.7245",
    "arrival": "2023-10-02T19:23:00Z",
    "departure": "2023-10-02T19:24:00Z"
  },
  {
    "train_number": "5916  ",
    "unit_number": "4024.0014",
    "name": "Schärding (in Sch)",
    "abbr": "Sch ",
    "lat": "48.4638",
    "lng": "13.4424",
    "arrival": "2023-10-02T18:08:00Z",
    "departure": "2023-10-02T18:52:00Z"
  },
  {
    "train_number": "5916  ",
    "unit_number": "4024.0014",
    "name": "Neumarkt-Kallham (in Neu)",
    "abbr": "Neu ",
    "lat": "48.2714",
    "lng": "13.7245",
    "arrival": "2023-10-02T17:35:00Z",
    "departure": "2023-10-02T17:36:00Z"
  },
  {
    "train_number": "5916  ",
    "unit_number": "4024.0014",
    "name": "Wels Hbf",
    "abbr": "We  ",
    "lat": "48.1662",
    "lng": "14.0273",
    "arrival": "2023-10-02T17:07:00Z",
    "departure": "2023-10-02T17:09:00Z"
  },
  {
    "train_number": "1785  ",
    "unit_number": "4024.0014",
    "name": "Linz Hbf",
    "abbr": "Lz  ",
    "lat": "48.2908",
    "lng": "14.2927",
    "arrival": "2023-10-02T16:10:00Z",
    "departure": "2023-10-02T16:50:00Z"
  },
  {
    "train_number": "1785  ",
    "unit_number": "4024.0014",
    "name": "Wels Hbf",
    "abbr": "We  ",
    "lat": "48.1662",
    "lng": "14.0273",
    "arrival": "2023-10-02T15:51:00Z",
    "departure": "2023-10-02T15:53:00Z"
  },
  {
    "train_number": "1785  ",
    "unit_number": "4024.0014",
    "name": "Neumarkt-Kallham (in Neu)",
    "abbr": "Neu ",
    "lat": "48.2714",
    "lng": "13.7245",
    "arrival": "2023-10-02T15:27:00Z",
    "departure": "2023-10-02T15:28:00Z"
  },
  {
    "train_number": "5932  ",
    "unit_number": "4024.0014",
    "name": "Schärding (in Sch)",
    "abbr": "Sch ",
    "lat": "48.4638",
    "lng": "13.4424",
    "arrival": "2023-10-02T14:10:00Z",
    "departure": "2023-10-02T15:02:00Z"
  },
  {
    "train_number": "5935  ",
    "unit_number": "4024.0014",
    "name": "Neumarkt-Kallham (in Neu)",
    "abbr": "Neu ",
    "lat": "48.2714",
    "lng": "13.7245",
    "arrival": "2023-10-02T12:20:00Z",
    "departure": "2023-10-02T13:40:00Z"
  },
  {
    "train_number": "1778  ",
    "unit_number": "4024.0014",
    "name": "Schärding (in Sch)",
    "abbr": "Sch ",
    "lat": "48.4638",
    "lng": "13.4424",
    "arrival": "2023-10-02T10:56:00Z",
    "departure": "2023-10-02T11:49:00Z"
  },
  {
    "train_number": "1778  ",
    "unit_number": "4024.0014",
    "name": "Neumarkt-Kallham (in Neu)",
    "abbr": "Neu ",
    "lat": "48.2714",
    "lng": "13.7245",
    "arrival": "2023-10-02T10:31:00Z",
    "departure": "2023-10-02T10:32:00Z"
  },
  {
    "train_number": "1778  ",
    "unit_number": "4024.0014",
    "name": "Wels Hbf",
    "abbr": "We  ",
    "lat": "48.1662",
    "lng": "14.0273",
    "arrival": "2023-10-02T10:07:00Z",
    "departure": "2023-10-02T10:09:00Z"
  },
  {
    "train_number": "5051  ",
    "unit_number": "4024.0014",
    "name": "Linz Hbf",
    "abbr": "Lz  ",
    "lat": "48.2908",
    "lng": "14.2927",
    "arrival": "2023-10-02T05:29:00Z",
    "departure": "2023-10-02T09:50:00Z"
  },
  {
    "train_number": "5051  ",
    "unit_number": "4024.0014",
    "name": "Wels Hbf",
    "abbr": "We  ",
    "lat": "48.1662",
    "lng": "14.0273",
    "arrival": "2023-10-02T05:04:00Z",
    "departure": "2023-10-02T05:06:00Z"
  },
  {
    "train_number": "5051  ",
    "unit_number": "4024.0014",
    "name": "Attnang-Puchheim",
    "abbr": "At  ",
    "lat": "48.0112",
    "lng": "13.7193",
    "arrival": "2023-10-02T04:29:00Z",
    "departure": "2023-10-02T04:31:00Z"
  },
  {
    "train_number": "5051  ",
    "unit_number": "4024.0014",
    "name": "Steindorf b.Straßw. (in Nst)",
    "abbr": "Nst ",
    "lat": "47.9676",
    "lng": "13.2406",
    "arrival": null,
    "departure": "2023-10-02T03:50:00Z"
  },
  {
    "train_number": "5051  ",
    "unit_number": "4024.0014",
    "name": "Salzburg Hbf (in Sb)",
    "abbr": "Sb  ",
    "lat": "47.8135",
    "lng": "13.0466",
    "arrival": "2023-10-02T03:27:00Z",
    "departure": "2023-10-02T03:30:00Z"
  },
  {
    "train_number": "5051  ",
    "unit_number": "4024.0014",
    "name": "Salzburg Liefering (in Sb)",
    "abbr": "Lfg ",
    "lat": "47.8229",
    "lng": "13.0021",
    "arrival": "2023-10-02T03:19:00Z",
    "departure": "2023-10-02T03:19:00Z"
  },
  {
    "train_number": "25796 ",
    "unit_number": "4024.0014",
    "name": "Freilassing",
    "abbr": "MFL ",
    "lat": "47.8368",
    "lng": "12.9764",
    "arrival": "2023-10-01T19:43:00Z",
    "departure": "2023-10-02T03:17:00Z"
  }
]
