[
  {
    "train_number": "1771  ",
    "unit_number": "4024.0014",
    "name": "Schärding (in Sch)",
    "abbr": "Sch ",
    "lat": "48.4638",
    "lng": "13.4424",
    "arrival": "2023-09-06T02:22:00Z",
    "departure": "2023-09-06T02:23:00Z"
  },
  {
    "train_number": "5918  ",
    "unit_number": "4024.0014",
    "name": "Passau Hbf",
    "abbr": "Pa  ",
    "lat": "48.5729",
    "lng": "13.4342",
    "arrival": "2023-09-05T19:22:00Z",
    "departure": "2023-09-06T02:11:00Z"
  },
  {
    "train_number": "5918  ",
    "unit_number": "4024.0014",
    "name": "Schärding (in Sch)",
    "abbr": "Sch ",
    "lat": "48.4638",
    "lng": "13.4424",
    "arrival": "2023-09-05T19:08:00Z",
    "departure": "2023-09-05T19:09:00Z"
  },
  {
    "train_number": "5918  ",
    "unit_number": "4024.0014",
    "name": "Neumarkt-Kallham (in Neu)",
    "abbr": "Neu ",
    "lat": "48.2714",
    "lng": "13.7245",
    "arrival": "2023-09-05T18:35:00Z",
    "departure": "2023-09-05T18:36:00Z"
  },
  {
    "train_number": "5918  ",
    "unit_number": "4024.0014",
    "name": "Wels Hbf",
    "abbr": "We  ",
    "lat": "48.1662",
    "lng": "14.0273",
    "arrival": "2023-09-05T18:07:00Z",
    "departure": "2023-09-05T18:09:00Z"
  },
  {
    "train_number": "3003  ",
    "unit_number": "4024.0014",
    "name": "Linz Hbf",
    "abbr": "Lz  ",
    "lat": "48.2908",
    "lng": "14.2927",
    "arrival": "2023-09-05T05:24:00Z",
    "departure": "2023-09-05T17:50:00Z"
  },
  {
    "train_number": "3003  ",
    "unit_number": "4024.0014",
    "name": "Wels Vbf-Einfgr (in Wev)",
    "abbr": "Wei ",
    "lat": "48.1765",
    "lng": "14.0501",
    "arrival": null,
    "departure": "2023-09-05T04:58:00Z"
  },
  {
    "train_number": "3003  ",
    "unit_number": "4024.0014",
    "name": "Wels Hbf",
    "abbr": "We  ",
    "lat": "48.1662",
    "lng": "14.0273",
    "arrival": "2023-09-05T04:36:00Z",
    "departure": "2023-09-05T04:55:00Z"
  },
  {
    "train_number": "3034  ",
    "unit_number": "4024.0014",
    "name": "Attnang-Puchheim",
    "abbr": "At  ",
    "lat": "48.0112",
    "lng": "13.7193",
    "arrival": "2023-09-04T20:50:00Z",
    "departure": "2023-09-05T04:10:00Z"
  }
]
