[
  {
    "train_number": "5161  ",
    "unit_number": "4024.0088",
    "name": "Schwaz",
    "abbr": "Sw  ",
    "lat": "47.3497",
    "lng": "11.7016",
    "arrival": "2023-08-31T13:31:00Z",
    "departure": "2023-08-31T13:32:00Z"
  },
  {
    "train_number": "5161  ",
    "unit_number": "4024.0088",
    "name": "Hall in Tirol",
    "abbr": "H   ",
    "lat": "47.2769",
    "lng": "11.5013",
    "arrival": "2023-08-31T13:15:00Z",
    "departure": "2023-08-31T13:16:00Z"
  },
  {
    "train_number": "5161  ",
    "unit_number": "4024.0088",
    "name": "Innsbruck Hbf  (in I)",
    "abbr": "I   ",
    "lat": "47.2634",
    "lng": "11.4017",
    "arrival": "2023-08-31T13:01:00Z",
    "departure": "2023-08-31T13:05:00Z"
  },
  {
    "train_number": "5158  ",
    "unit_number": "4024.0088",
    "name": "Innsbruck Hbf  (in I)",
    "abbr": "I   ",
    "lat": "47.2634",
    "lng": "11.4017",
    "arrival": "2023-08-31T11:55:00Z",
    "departure": "2023-08-31T11:59:00Z"
  },
  {
    "train_number": "5158  ",
    "unit_number": "4024.0088",
    "name": "Hall in Tirol",
    "abbr": "H   ",
    "lat": "47.2769",
    "lng": "11.5013",
    "arrival": "2023-08-31T11:44:00Z",
    "departure": "2023-08-31T11:44:00Z"
  },
  {
    "train_number": "5158  ",
    "unit_number": "4024.0088",
    "name": "Schwaz",
    "abbr": "Sw  ",
    "lat": "47.3497",
    "lng": "11.7016",
    "arrival": "2023-08-31T11:28:00Z",
    "departure": "2023-08-31T11:28:00Z"
  },
  {
    "train_number": "5155  ",
    "unit_number": "4024.0088",
    "name": "Jenbach",
    "abbr": "Jb  ",
    "lat": "47.3884",
    "lng": "11.7783",
    "arrival": "2023-08-31T10:38:00Z",
    "departure": "2023-08-31T11:21:00Z"
  },
  {
    "train_number": "5155  ",
    "unit_number": "4024.0088",
    "name": "Schwaz",
    "abbr": "Sw  ",
    "lat": "47.3497",
    "lng": "11.7016",
    "arrival": "2023-08-31T10:31:00Z",
    "departure": "2023-08-31T10:32:00Z"
  },
  {
    "train_number": "5155  ",
    "unit_number": "4024.0088",
    "name": "Hall in Tirol",
    "abbr": "H   ",
    "lat": "47.2769",
    "lng": "11.5013",
    "arrival": "2023-08-31T10:15:00Z",
    "departure": "2023-08-31T10:16:00Z"
  },
  {
    "train_number": "5155  ",
    "unit_number": "4024.0088",
    "name": "Innsbruck Hbf  (in I)",
    "abbr": "I   ",
    "lat": "47.2634",
    "lng": "11.4017",
    "arrival": "2023-08-31T10:01:00Z",
    "departure": "2023-08-31T10:05:00Z"
  },
  {
    "train_number": "5152  ",
    "unit_number": "4024.0088",
    "name": "Innsbruck Hbf  (in I)",
    "abbr": "I   ",
    "lat": "47.2634",
    "lng": "11.4017",
    "arrival": "2023-08-31T08:55:00Z",
    "departure": "2023-08-31T08:59:00Z"
  },
  {
    "train_number": "5152  ",
    "unit_number": "4024.0088",
    "name": "Hall in Tirol",
    "abbr": "H   ",
    "lat": "47.2769",
    "lng": "11.5013",
    "arrival": "2023-08-31T08:44:00Z",
    "departure": "2023-08-31T08:44:00Z"
  },
  {
    "train_number": "5152  ",
    "unit_number": "4024.0088",
    "name": "Schwaz",
    "abbr": "Sw  ",
    "lat": "47.3497",
    "lng": "11.7016",
    "arrival": "2023-08-31T08:28:00Z",
    "departure": "2023-08-31T08:28:00Z"
  },
  {
    "train_number": "5149  ",
    "unit_number": "4024.0088",
    "name": "Jenbach",
    "abbr": "Jb  ",
    "lat": "47.3884",
    "lng": "11.7783",
    "arrival": "2023-08-31T07:38:00Z",
    "departure": "2023-08-31T08:21:00Z"
  },
  {
    "train_number": "5149  ",
    "unit_number": "4024.0088",
    "name": "Schwaz",
    "abbr": "Sw  ",
    "lat": "47.3497",
    "lng": "11.7016",
    "arrival": "2023-08-31T07:31:00Z",
    "departure": "2023-08-31T07:32:00Z"
  },
  {
    "train_number": "5149  ",
    "unit_number": "4024.0088",
    "name": "Hall in Tirol",
    "abbr": "H   ",
    "lat": "47.2769",
    "lng": "11.5013",
    "arrival": "2023-08-31T07:15:00Z",
    "departure": "2023-08-31T07:16:00Z"
  },
  {
    "train_number": "5149  ",
    "unit_number": "4024.0088",
    "name": "Innsbruck Hbf  (in I)",
    "abbr": "I   ",
    "lat": "47.2634",
    "lng": "11.4017",
    "arrival": "2023-08-31T07:01:00Z",
    "departure": "2023-08-31T07:05:00Z"
  },
  {
    "train_number": "5203  ",
    "unit_number": "4024.0088",
    "name": "Innsbruck Hbf  (in I)",
    "abbr": "I   ",
    "lat": "47.2634",
    "lng": "11.4017",
    "arrival": "2023-08-31T05:08:00Z",
    "departure": "2023-08-31T05:13:00Z"
  },
  {
    "train_number": "5240  ",
    "unit_number": "4024.0088",
    "name": "Brennero/Brenner",
    "abbr": "Be  ",
    "lat": "47.0022",
    "lng": "11.5053",
    "arrival": "2023-08-31T03:59:00Z",
    "departure": "2023-08-31T04:28:00Z"
  },
  {
    "train_number": "5136  ",
    "unit_number": "4024.0088",
    "name": "Innsbruck Hbf  (in I)",
    "abbr": "I   ",
    "lat": "47.2634",
    "lng": "11.4017",
    "arrival": "2023-08-30T21:25:00Z",
    "departure": "2023-08-31T03:19:00Z"
  }
]
